Id,Departamento,Tipo,Nombre,Direccion,Telefono,Latitud,Longitud,Fuente
977,Cochabamba,CentroMedico,C.S. Alalay,NA,NA,-17.421917,-66.137409,rmk
978,Cochabamba,CentroMedico,C.S. ALTO COCHABAMBA,NA,NA,-17.424687,-66.14913,rmk
979,Cochabamba,CentroMedico,HOSPITAL MATERNOLOGICO GERMAN URQUIDI,NA,NA,-17.386659,-66.148535,rmk
980,Cochabamba,CentroMedico,HOSPITAL PEDIATRICO M.A. VILLARROEL,NA,NA,-17.386174,-66.148265,rmk
981,Cochabamba,CentroMedico,C.S. BEATO SALOMON,NA,NA,-17.360823,-66.174445,rmk
982,Cochabamba,CentroMedico,C.S. CERRO VERDE,NA,NA,-17.414987,-66.143665,rmk
983,Cochabamba,CentroMedico,C.S. CHAVEZ RANCHO,NA,NA,-17.394885,-66.190366,rmk
984,Cochabamba,CentroMedico,C.S. CHIMBA,NA,NA,-17.405736,-66.181741,rmk
985,Cochabamba,CentroMedico,INST. GASTROENTEROLOGICO BOLIVIANO-JAPONES,NA,NA,-17.38619,-66.149165,rmk
986,Cochabamba,CentroMedico,INSTITUTO PSIQUIATRICO SAN JUAN DE DIOS,NA,NA,-17.391663,-66.231215,rmk
987,Cochabamba,CentroMedico,C.S. CONDEBAMBA,NA,NA,-17.357187,-66.177832,rmk
988,Cochabamba,CentroMedico,C.S. JAIHUAYCO,NA,NA,-17.416873,-66.162925,rmk
989,Cochabamba,CentroMedico,C.S. KAnaTA,NA,NA,-17.413307,-66.15923,rmk
990,Cochabamba,CentroMedico,C.S. LA MAICA,NA,NA,-17.416621,-66.194587,rmk
991,Cochabamba,CentroMedico,C.S. LACMA,NA,NA,-17.434458,-66.156,rmk
992,Cochabamba,CentroMedico,C.S. VILLA ISRAEL PUCARA,NA,NA,-17.486039,-66.172578,rmk
993,Cochabamba,CentroMedico,C.S. PUCARITA,NA,NA,-17.451883,-66.201474,rmk
994,Cochabamba,CentroMedico,C.S. ESPAÑA,NA,NA,-17.457509,-66.156144,rmk
995,Cochabamba,CentroMedico,C.S. SARCOBAMBA,NA,NA,-17.378976,-66.188432,rmk
996,Cochabamba,CentroMedico,C.S. SEBASTIAN PAGADOR,NA,NA,-17.441744,-66.116309,rmk
997,Cochabamba,CentroMedico,C.S. TEMPORAL,NA,NA,-17.360313,-66.158141,rmk
998,Cochabamba,CentroMedico,C.S. TICTI NORTE,NA,NA,-17.34974,-66.170602,rmk
999,Cochabamba,CentroMedico,HOSPITAL VIEDMA,NA,NA,-17.385814,-66.148868,rmk
1000,Cochabamba,CentroMedico,C.S. GLORIA ALTO BUEna VISTA,NA,NA,-17.469836,-66.156082,rmk
1001,Cochabamba,CentroMedico,C.S. SENNFELD,NA,NA,-17.406438,-66.152585,rmk
1002,Cochabamba,CentroMedico,C.S. VILLA MARIA,NA,NA,-17.394,-66.28,rmk
1003,Cochabamba,CentroMedico,C.S. EL PASO,NA,NA,-17.334,-66.266,rmk
1004,Cochabamba,CentroMedico,C.S. IRONCOLLO,NA,NA,-17.368,-66.283,rmk
1005,Cochabamba,CentroMedico,C.S. KAUSAY,NA,NA,-17.372,-66.258,rmk
1006,Cochabamba,CentroMedico,C.S. DISTRITO 3,NA,NA,-17.377,-66.288,rmk
1007,Cochabamba,CentroMedico,HOSPITAL QUILLACOLLO,NA,NA,-17.394,-66.28,rmk
1008,Cochabamba,CentroMedico,C.S. CALVARIO,NA,NA,-17.394,-66.28,rmk
1009,Cochabamba,CentroMedico,C.S.C.C. MALLCO RANCHO,NA,NA,-17.419396,-66.36455,rmk
1010,Cochabamba,CentroMedico,C.S. MONTE NEGRO,NA,NA,-17.454,-66.339,rmk
1011,Cochabamba,CentroMedico,C.S. PAYACOLLO,NA,NA,-17.431179,-66.336658,rmk
1012,Cochabamba,CentroMedico,C.S.C.C. SIPE SIPE,NA,NA,-17.455169,-66.35246,rmk
1013,Cochabamba,CentroMedico,C.S. VINTO CHICO,NA,NA,-17.414686,-66.326581,rmk
1014,Cochabamba,CentroMedico,C.S. LINDE,NA,NA,-17.353188,-66.195954,rmk
1015,Cochabamba,CentroMedico,Hospital Municipal de Vinto,NA,NA,-17.397025,-66.318349,rmk
1016,Cochabamba,CentroMedico,C.S. Capacachi,NA,NA,-17.384712,-66.223042,rmk
1017,Cochabamba,CentroMedico,C.S. Kami,NA,NA,-17.367466,-66.236312,rmk
1018,Cochabamba,CentroMedico,Hospital Mexico,NA,NA,-17.400743,-66.035197,rmk
1019,Cochabamba,CentroMedico,Hospital Solomon Klein,NA,NA,-17.383045,-66.109678,rmk
1020,Cochabamba,CentroMedico,C.S. Minero San Juan de Uspa Uspa,NA,NA,-17.482883,-66.105355,rmk
1021,Cochabamba,CentroMedico,Hospital Cochabamba,NA,NA,-17.40058,-66.156062,rmk
1022,Cochabamba,CentroMedico,C.S. Kara Kara,NA,NA,-17.465414,-66.127004,rmk
1023,Cochabamba,CentroMedico,C.S. Tuscapujio,NA,NA,-17.414051,-66.056302,rmk
1024,Cochabamba,CentroMedico,C.S. Huayllania,NA,NA,-17.387406,-66.05834,rmk
1025,Cochabamba,CentroMedico,C.S. Apote,NA,NA,-17.330083,-66.2422,rmk
1026,Cochabamba,CentroMedico,C.S. Alalay,NA,NA,-17.419816,-66.026989,rmk
1027,Cochabamba,CentroMedico,C.S. E Abra,NA,NA,-17.407712,-66.087801,rmk
1028,Cochabamba,CentroMedico,C.S. Maica Central,NA,NA,-17.422269,-66.202288,rmk
1029,Cochabamba,CentroMedico,C.S. Machajmarca,NA,NA,-17.386859,-66.345019,rmk
1030,Cochabamba,CentroMedico,C.S. Villa Oruro,NA,NA,-17.327,-66.225,rmk
1031,Cochabamba,CentroMedico,C.S. 4 Esquinas,NA,NA,-17.361188,-66.227689,rmk
1032,Cochabamba,CentroMedico,Hospital Comunitario Valle Hermoso,NA,NA,-17.447116,-66.126268,rmk
1033,Cochabamba,CentroMedico,C.S. Nueva Gante,NA,NA,-17.447067,-66.144399,rmk
1034,Cochabamba,CentroMedico,C.S. Combuyo,NA,NA,-17.362206,-66.340638,rmk
1035,Cochabamba,CentroMedico,C.S. Callaj Chullpa,NA,NA,-17.353456,-66.243199,rmk
1036,Cochabamba,CentroMedico,Hospital Parotani,NA,NA,-17.563,-66.346,rmk
1037,Cochabamba,CentroMedico,C.S. Viloma,NA,NA,-17.414845,-66.381721,rmk
1038,Cochabamba,CentroMedico,C.S. Iscaypata,NA,NA,-17.351558,-66.327291,rmk
1039,Cochabamba,CentroMedico,C.S. Keraya,NA,NA,-17.297,-66.458,rmk
1040,Cochabamba,CentroMedico,Centro de Salud Chulla,NA,NA,-17.374595,-66.307043,rmk
1041,Cochabamba,CentroMedico,C.S. Ucuchi,NA,NA,-17.414951,-65.920996,rmk
1042,Cochabamba,CentroMedico,C.S. Alto Pagador,NA,NA,-17.450162,-66.114232,rmk
1043,Cochabamba,CentroMedico,C.S. Tajra Itapaya,NA,NA,-17.582656,-66.332109,rmk
1044,Cochabamba,CentroMedico,C.S. Villa Asunción,NA,NA,-17.407624,-66.294411,rmk
1045,Cochabamba,CentroMedico,C.S. Kausay,NA,NA,-17.400448,-66.283237,rmk
1046,Cochabamba,CentroMedico,C.S. Villa Maria,NA,NA,-17.384125,-66.258318,rmk
1047,Cochabamba,CentroMedico,C.S. Simón Bolivar,NA,NA,-17.402595,-66.23556,rmk
1048,Cochabamba,CentroMedico,Centro de Salud Integral Colcapirhua,NA,NA,-17.393254,-66.227669,rmk
1049,Cochabamba,CentroMedico,C.S. Ciudad del Niño,NA,NA,-17.341771,-66.191871,rmk
1050,Cochabamba,CentroMedico,C.S. Pacata D3,NA,NA,-17.365761,-66.124186,rmk
1051,Cochabamba,CentroMedico,C.S. Pacata,NA,NA,-17.373584,-66.124244,rmk
1052,Cochabamba,CentroMedico,C.S. Villa El Mar,NA,NA,-17.359873,-66.124561,rmk
1053,Cochabamba,CentroMedico,C.S. Melga,NA,NA,-17.4274,-65.914785,rmk
1054,Cochabamba,CentroMedico,C.S. Catachilla,NA,NA,-17.404754,-65.985254,rmk
1055,Cochabamba,CentroMedico,C.S. Tutimayo,NA,NA,-17.417765,-65.950038,rmk
1056,Cochabamba,CentroMedico,C.S. Villa Venezuela,NA,NA,-17.42666,-66.127266,rmk
1057,Cochabamba,CentroMedico,C.S. Combase,NA,NA,-17.456157,-66.160813,rmk
1058,Cochabamba,CentroMedico,C.S. Guadalupe,NA,NA,-17.378273,-66.074058,rmk
1059,Cochabamba,CentroMedico,C.S. Laraty,NA,NA,-17.343549,-66.013188,rmk
1060,Cochabamba,CentroMedico,C.S. Pacatasapanani,NA,NA,-17.342245,-66.054952,rmk
1061,Cochabamba,CentroMedico,C.S. Pisli,NA,NA,-17.19048,-66.026739,rmk
1062,Cochabamba,CentroMedico,C.S. Kaluyo Chico,NA,NA,-17.219088,-66.082494,rmk
1063,Cochabamba,CentroMedico,C.S. Ichucollo,NA,NA,-17.187384,-66.121404,rmk
1064,Cochabamba,CentroMedico,C.S. Palca A,NA,NA,-17.187501,-66.075569,rmk
1065,Cochabamba,CentroMedico,Clinica Alvares,NA,NA,-17.396054,-66.294895,rmk
1066,Cochabamba,CentroMedico,"""Santa Rosa"" Centro medico Quirúrgico",NA,NA,-17.396939,-66.286427,rmk
1067,Cochabamba,CentroMedico,Hospitals of Hope,NA,NA,-17.374211,-66.322918,rmk
1068,Cochabamba,CentroMedico,Unidad de nutricion y adulto mayor CRIN,NA,NA,-17.400029,-66.316519,rmk
1069,Cochabamba,CentroMedico,Posta Hospital Esperanza,NA,NA,-17.395735,-66.315304,rmk
1070,Cochabamba,CentroMedico,Clinica Los Gemelos,NA,NA,-17.399201,-66.285428,rmk
1071,Cochabamba,CentroMedico,"Caja nacional de Salud, Quillacollo",NA,NA,-17.396586,-66.282576,rmk
1072,Cochabamba,CentroMedico,Clinica El Carmen,NA,NA,-17.388676,-66.281219,rmk
1073,Cochabamba,CentroMedico,Centro de Pediatríco Niño Jesús,NA,NA,-17.390206,-66.278594,rmk
1074,Cochabamba,CentroMedico,FISIOSAM,NA,NA,-17.39464,-66.276482,rmk
1075,Cochabamba,CentroMedico,"Hospital Villa Moderna, Quillacollo",NA,NA,-17.387782,-66.281539,rmk
1076,Cochabamba,CentroMedico,Clinica Bustamante,NA,NA,-17.389611,-66.277184,rmk
1077,Cochabamba,CentroMedico,Hospital Andres Cushieri,NA,NA,-17.385496,-66.239705,rmk
1078,Cochabamba,CentroMedico,Aquaspa,NA,NA,-17.382831,-66.277689,rmk
1079,Cochabamba,CentroMedico,Instituto Psiquiatrico San Juan De Dios,NA,NA,-17.391663,-66.231215,rmk
1080,Cochabamba,CentroMedico,"Posta Sanitaria, Quillacollo",NA,NA,-17.421742,-66.28689,rmk
1081,Cochabamba,CentroMedico,"Villa Urkupiña, Hospital",NA,NA,-17.422097,-66.286909,rmk
1082,Cochabamba,CentroMedico,Policlinico Quillacollo,NA,NA,-17.392311,-66.256974,rmk
1083,Cochabamba,CentroMedico,Caja de Salud CORDES Quillacollo,NA,NA,-17.39357,-66.280843,rmk
1084,Cochabamba,CentroMedico,CNS Quillacollo,NA,NA,-17.398821,-66.281901,rmk
1085,Cochabamba,CentroMedico,Clinica San Jose,NA,NA,-17.392687,-66.279249,rmk
1086,Cochabamba,CentroMedico,Centro medico Quirurgico LOS ANGELES,NA,NA,-17.393054,-66.279409,rmk
1087,Cochabamba,CentroMedico,Clinica San Bernardo,NA,NA,-17.393389,-66.277271,rmk
1088,Cochabamba,CentroMedico,Centro de Diagnostico y Rehabilitacion Sakura,NA,NA,-17.394815,-66.22763,rmk
1089,Cochabamba,CentroMedico,Hospital de Tiquipaya,NA,NA,-17.33706,-66.217664,rmk
1090,Cochabamba,CentroMedico,"CENTRO RADIOLOGICO ""IMAGEN SALUD""",NA,NA,-17.340318,-66.219346,rmk
1091,Cochabamba,CentroMedico,Posta Medica Chilimarca,NA,NA,-17.334903,-66.200212,rmk
1092,Cochabamba,CentroMedico,Instituto Oncológico nacional CPS,NA,NA,-17.352724,-66.200315,rmk
1093,Cochabamba,CentroMedico,Caja nacional de Salud (Sacaba),NA,NA,-17.402234,-66.044726,rmk
1094,Cochabamba,CentroMedico,Centro de Hemodiálisis Ma. Esperanza,NA,NA,-17.383584,-66.116545,rmk
1095,Cochabamba,CentroMedico,"Clinica ""Asuncion Sacaba""",NA,NA,-17.399486,-66.036333,rmk
1096,Cochabamba,CentroMedico,"Clinica ""Arebalo""",NA,NA,-17.403124,-66.043869,rmk
1097,Cochabamba,CentroMedico,Hospital Salomon Klein,NA,NA,-17.383045,-66.109678,rmk
1098,Cochabamba,CentroMedico,Hospital Harry Williams,NA,NA,-17.419851,-66.146825,rmk
1099,Cochabamba,CentroMedico,Hospital Univalle,NA,NA,-17.421234,-66.1329,rmk
1100,Cochabamba,CentroMedico,Hospital Univalle Norte,NA,NA,-17.372202,-66.160836,rmk
1101,Cochabamba,CentroMedico,Hospital del Sud,NA,NA,-17.450202,-66.149911,rmk
1102,Cochabamba,CentroMedico,ProSalud,NA,NA,-17.364575,-66.179145,rmk
1103,Cochabamba,CentroMedico,"ProSalud, Acre",NA,NA,-17.394788,-66.180625,rmk
1104,Cochabamba,CentroMedico,Clinica Cochabamba,NA,NA,-17.399628,-66.151999,rmk
1105,Cochabamba,CentroMedico,Clinica Boliviana Americana,NA,NA,-17.400758,-66.153231,rmk
1106,Cochabamba,CentroMedico,Clinica Guadalupe,NA,NA,-17.399301,-66.152681,rmk
1107,Cochabamba,CentroMedico,Clinica Los Angeles,NA,NA,-17.378568,-66.164733,rmk
1108,Cochabamba,CentroMedico,Clinica Aranjuez,NA,NA,-17.382315,-66.153516,rmk
1109,Cochabamba,CentroMedico,Clinica San Miguel,NA,NA,-17.414286,-66.160793,rmk
1110,Cochabamba,CentroMedico,Clinica Los Olivos,NA,NA,-17.389608,-66.179731,rmk
1111,Cochabamba,CentroMedico,Centro Medico Los Olivos,NA,NA,-17.377777,-66.176236,rmk
1112,Cochabamba,CentroMedico,Clinica Amazonas Cochabamba Bolivia,NA,NA,-17.396008,-66.146992,rmk
1113,Cochabamba,CentroMedico,Instituto Oftalmológico Cochabamba,NA,NA,-17.38607,-66.1523,rmk
1114,Cochabamba,CentroMedico,Clinica Maria de los Angeles S.R.L.,NA,NA,-17.383342,-66.149073,rmk
1115,Cochabamba,CentroMedico,Clinica Saavedra,NA,NA,-17.397292,-66.161201,rmk
1116,Cochabamba,CentroMedico,Hospital Cochabamba,NA,NA,-17.40058,-66.156062,rmk
1117,Cochabamba,CentroMedico,CIES Cochabamba,NA,NA,-17.398247,-66.154054,rmk
1118,Cochabamba,CentroMedico,Hospital Belga,NA,NA,-17.387509,-66.153315,rmk
1119,Cochabamba,CentroMedico,Seguro Social Universitario Cochabamba,NA,NA,-17.388533,-66.148064,rmk
1120,Cochabamba,CentroMedico,Albina R. de Patiño,NA,NA,-17.394627,-66.149613,rmk
1121,Cochabamba,CentroMedico,Centro De Nutricion Infantil Cerro Verde - Fundacion Abina R. Patiño.,NA,NA,-17.416451,-66.147913,rmk
1122,Cochabamba,CentroMedico,Caja nacional de Salud,NA,NA,-17.393846,-66.205853,rmk
1123,Cochabamba,CentroMedico,Caja de Salud CORDES,NA,NA,-17.376571,-66.162707,rmk
1124,Cochabamba,CentroMedico,"Caja nacional De Salud, Ayacucho",NA,NA,-17.393957,-66.158454,rmk
1125,Cochabamba,CentroMedico,Caja Petrolera de Salud,NA,NA,-17.392936,-66.154268,rmk
1126,Cochabamba,CentroMedico,P.A.I.S.E Caja nacional de Salud,NA,NA,-17.376575,-66.153886,rmk
1127,Cochabamba,CentroMedico,Hospital Edgar Montaño,NA,NA,-17.342679,-66.17949,rmk
1128,Cochabamba,CentroMedico,Centro Medico San Vicente,NA,NA,-17.373898,-66.144038,rmk
2952,NA,CentroMedico,Hospital Camiri,Camiri,NA,-20.0360771,-63.528736,osm
2953,NA,CentroMedico,Caja Petrolera de Salud,Camiri,NA,-20.0418707,-63.5155784,osm
2954,NA,CentroMedico,C.S. San Juan de Dios,Independencia,NA,-17.084742,-66.8198271,osm
2955,NA,CentroMedico,Posta de Salud Villa Tunari,NA,NA,-16.9713685,-65.4185804,osm
2956,NA,CentroMedico,P.S. Rodeo Chico,Rodeo Chico,NA,-17.6505895,-65.1806094,osm
2957,NA,CentroMedico,PS de Moya Pampa,NA,NA,-17.714189,-65.2071171,osm
2958,NA,CentroMedico,P.S. Antakawa,Anta Qhawa,NA,-17.873079100000002,-65.1382289,osm
2959,NA,CentroMedico,P.S. Sauce Pila Pata,Sauce Pila Pata,NA,-17.8428134,-65.0725234,osm
2960,NA,CentroMedico,P.S. Pataicuna,Pataicuna,NA,-17.3834513,-65.1339917,osm
2961,NA,CentroMedico,Pro Salud La Madre,NA,NA,-17.7904753,-63.2106758,osm
2962,NA,CentroMedico,C.S. Tejawasi (1er Nivel),Tika Pampa,NA,-17.8094911,-65.2260518,osm
2963,NA,CentroMedico,Hospital Japones,NA,NA,-17.7729979,-63.1545521,osm
2964,NA,CentroMedico,Hospital Japonés,NA,NA,-17.2179404,-62.8945944,osm
2965,NA,CentroMedico,Hospital Seguro Social Universitario,La Paz,NA,-16.5119648,-68.1237096,osm
2966,NA,CentroMedico,Hospital General - Hospital Municipal Alfonso Gumucio R.,NA,NA,-17.3406836,-63.2512831,osm
2967,NA,CentroMedico,Clinica Norte,NA,NA,-17.3511899,-63.2511513,osm
2968,NA,CentroMedico,CS Valle Sacta,NA,NA,-17.1192148,-64.7695485,osm
2969,NA,CentroMedico,PS Chimeo,Chimeo,NA,-21.188771,-63.4377809,osm
2970,NA,CentroMedico,PS Ipa,NA,NA,-21.060965,-63.4166876,osm
2971,NA,CentroMedico,CS Puesto Garcia (1er Nivel),Puesto Garcia,NA,-21.1301648,-63.3977334,osm
2972,NA,CentroMedico,PS Valle del Medio,NA,NA,-21.6030314,-64.1501596,osm
2973,NA,CentroMedico,P.S. Torno Kasa (1er Nivel),Torno Ckasa,NA,-17.9687874,-65.9973278,osm
2974,NA,CentroMedico,CS Collpa Uno (1er Nivel),Collpa Uno,NA,-20.9243122,-65.5678347,osm
2975,NA,CentroMedico,C.S. Lequepalca,Leque Palca,NA,-17.6294206,-66.955625800000007,osm
2976,NA,CentroMedico,Rafael Pabón,Oruro,NA,-17.981638,-67.1049447,osm
2977,NA,CentroMedico,Puesto de Salud Chacopampa,NA,NA,-21.5427962,-65.7758895,osm
2978,NA,CentroMedico,PS Chipihuayco,Chipihuayco,NA,-21.8050786,-65.8171372,osm
2979,NA,CentroMedico,PS Pelca (1er Nivel),Estancia Pelca,NA,-20.0442814,-66.1680005,osm
2980,NA,CentroMedico,PS Viluyo,NA,NA,-21.5263381,-66.3408267,osm
2981,NA,CentroMedico,Hospital Metodista,NA,NA,-16.526997,-68.1047799,osm
2982,NA,CentroMedico,Centro de Salud Biblioteca (1er Nivel),La Paz,NA,-16.5048616,-68.1497841,osm
2983,NA,CentroMedico,Hospital Barrios Mineros,NA,NA,-17.9538713,-67.1173977,osm
2984,NA,CentroMedico,NA,NA,NA,-17.9623136,-67.1106406,osm
2985,NA,CentroMedico,Clinica Virgen de Fatima,NA,NA,-17.8151266,-63.1991973,osm
2986,NA,CentroMedico,Hospital de Tiquipaya,Tiquipaya,NA,-17.337096,-66.217684,osm
2987,NA,CentroMedico,Policlínico Manuel Ascencio Villarroel,NA,NA,-17.3939176,-66.1584453,osm
2988,NA,CentroMedico,Cordes,Cochabamba,NA,-17.3764324,-66.162835,osm
2989,NA,CentroMedico,ProSalud,Cochabamba,NA,-17.3647362,-66.1792204,osm
2990,NA,CentroMedico,San Vicente de Paul,Cochabamba,NA,-17.3877021,-66.1587326,osm
2991,NA,CentroMedico,Clínica María de los Ángeles,NA,NA,-17.3833722,-66.1490961,osm
2992,NA,CentroMedico,Caja Petrolera de Salud,NA,NA,-17.3928562,-66.1542563,osm
2993,NA,CentroMedico,Pro Salud,NA,NA,-16.4937043,-68.2086689,osm
2994,NA,CentroMedico,Hospital del Sur,NA,NA,-16.5262024,-68.223469,osm
2995,NA,CentroMedico,Hospital 3 de noviembre,NA,NA,-14.9933049,-65.6417354,osm
2996,NA,CentroMedico,Centro de Salud Vinarasirare,NA,NA,-14.9945122,-65.641156,osm
2997,NA,CentroMedico,Consejo de Salud Rural Andino - Centro de Salud Villa Cochabamba,Montero,NA,-17.337384,-63.2486638,osm
2998,NA,CentroMedico,Fundación Rosa Vera - La Escuelita Mi Hogar,Montero,NA,-17.3365927,-63.2695748,osm
2999,NA,CentroMedico,Hospital Municipal Plan 3000,NA,NA,-17.8391327,-63.1094329,osm
3000,NA,CentroMedico,Hospital Municipal Francés,NA,NA,-17.8548202,-63.1897168,osm
3001,NA,CentroMedico,Hospital Municipal Bajío del Oriente,Santa Cruz de la Sierra,NA,-17.8321153,-63.2092698,osm
3002,NA,CentroMedico,CS Padcoyo,NA,NA,-20.2365211,-65.1549176,osm
3003,NA,CentroMedico,P.S. Huancane,Huancane,NA,-16.3782692,-67.5362355,osm
3004,NA,CentroMedico,Caja Petrolera de Salud,NA,NA,-18.3333408,-59.7467397,osm
3005,NA,CentroMedico,Hospital Aranjuez,Cochabamba,NA,-17.3822715,-66.1534813,osm
3006,NA,CentroMedico,CEMES,La Paz,NA,-16.5142316,-68.1210088,osm
3007,NA,CentroMedico,Hospital Virgen de la Asunción,La Paz,NA,-16.514392,-68.1209289,osm
3008,NA,CentroMedico,Hospital Arco Iris,NA,NA,-16.4842534,-68.1203636,osm
3009,NA,CentroMedico,Centro de Salud San Benito,NA,NA,-19.5939563,-65.757816,osm
3010,NA,CentroMedico,Saint Jude,NA,NA,-19.5682894,-65.767859,osm
3011,NA,CentroMedico,C.S. Sagrada Familia,NA,NA,-19.5727297,-65.7494006,osm
3012,NA,CentroMedico,Centro de Salud Central,Trinidad,NA,-14.8324611,-64.9046878,osm
3013,NA,CentroMedico,Nueva Gante,NA,NA,-17.4471135,-66.1443827,osm
3014,NA,CentroMedico,Caja de Salud de Caminos y Ramas Anexas,NA,NA,-17.3807966,-66.1681155,osm
3015,NA,CentroMedico,Caja de Salud de la Banca Privada,Cochabamba,NA,-17.3955835,-66.1606462,osm
3016,NA,CentroMedico,Caja de Salud de la Banca Privada,NA,NA,-17.3882558,-66.1564419,osm
3017,NA,CentroMedico,Caja de Salud de Camino,NA,NA,-11.0269885,-68.7611484,osm
3018,NA,CentroMedico,Señor de Milagros,NA,NA,-17.4551208,-66.352521,osm
3019,NA,CentroMedico,Hospital de Niños,NA,NA,-18.4139923,-66.5622427,osm
3020,NA,CentroMedico,Caja nacional de Salud,NA,NA,-19.5847356,-65.7576002,osm
3021,NA,CentroMedico,Hospital Caja nacional de Salud,NA,NA,-18.3283588,-59.7535412,osm
3022,NA,CentroMedico,Hospital Municipal El Torno,NA,NA,-18.005564,-63.3871131,osm
3023,NA,CentroMedico,Centro de Salud de Alto Seco,Alto Seco,NA,-18.8709628,-64.0743791,osm
3024,NA,CentroMedico,CS Virgen del Rosario,Poroma,NA,-18.541396,-65.4261478,osm
3025,NA,CentroMedico,Luis Espinal,El Alto,NA,-16.5168577,-68.1985592,osm
3026,NA,CentroMedico,Caja de Salud CORDES,NA,NA,-19.0437473,-65.2431244,osm
3027,NA,CentroMedico,Cruz Roja,NA,NA,-19.0492488,-65.2482111,osm
3028,NA,CentroMedico,Instituto Oncológico del Oriente Boliviano,Santa Cruz de la Sierra,NA,-17.763328,-63.1939422,osm
3029,NA,CentroMedico,Hospital San Lorenzo,NA,NA,-21.4204189,-64.751563,osm
3030,NA,CentroMedico,Caja nacional de Salud Sacaba,NA,NA,-17.4021135,-66.0446756,osm
3031,NA,CentroMedico,Policlínico Odontológico Cordes,NA,NA,-17.3880715,-66.1448269,osm
3032,NA,CentroMedico,Hospital dermatólogo,NA,NA,-18.0725072,-63.4413132,osm
3033,NA,CentroMedico,NA,NA,NA,-10.9985708,-66.0794709,osm
3034,NA,CentroMedico,Caja Cordes,NA,NA,-17.3911244,-66.1489127,osm
3035,NA,CentroMedico,Caja de Salud de Caminos,NA,NA,-16.5088729,-68.1275822,osm
3036,NA,CentroMedico,NA,NA,NA,-17.5676471,-66.3461399,osm
3037,NA,CentroMedico,Casa Vanesa,NA,NA,-17.776413,-63.1749657,osm
3038,NA,CentroMedico,P.S. Aguas Calientes,Aguas Calientes,NA,-18.4531598,-59.5032118,osm
3039,NA,CentroMedico,Instituto de Gastroenterologia Boliviano Japones,Sucre,NA,-19.0453277,-65.2674658,osm
3040,NA,CentroMedico,Casa Melo,NA,NA,-17.8925993,-63.1687246,osm
3041,NA,CentroMedico,Policlinica,NA,NA,-17.9571224,-67.1070847,osm
3042,NA,CentroMedico,Hospital de Cliza,NA,NA,-17.5882196,-65.9362004,osm
3043,NA,CentroMedico,Hospital Endoven,NA,NA,-16.5277016,-68.148959,osm
3044,NA,CentroMedico,Hospital Cruz Roja Boliviana,La Paz,NA,-16.4998837,-68.1317318,osm
3045,NA,CentroMedico,Hospital Municipal Dr. Marco Rojas,NA,NA,-19.3075398,-64.2996048,osm
3046,NA,CentroMedico,Instituto nacional de Oftalmología,La Paz,NA,-16.5065001,-68.1188641,osm
3047,NA,CentroMedico,Jesús Obrero,NA,NA,-16.5295345,-68.197049,osm
3048,NA,CentroMedico,Hospital de Mairana (2do.Nivel),Mairana,NA,-18.1191539,-63.956828,osm
3049,NA,CentroMedico,CS San Jorge,Zudáñez,NA,-19.1192184,-64.7004861,osm
3050,NA,CentroMedico,PS Misca Mayu (1er Nivel),NA,NA,-17.5392549,-65.461027,osm
3051,NA,CentroMedico,CS Huayapacha (1er Nivel),NA,NA,-17.5521812,-65.4079756,osm
3052,NA,CentroMedico,Los Olivos,NA,NA,-17.8287993,-63.1808136,osm
3053,NA,CentroMedico,San Antonio de los Sauces,NA,NA,-19.789824,-63.9545133,osm
3054,NA,CentroMedico,Caja nacional de Salud,NA,NA,-19.8077943,-63.9582982,osm
3055,NA,CentroMedico,Hospital Caranavi,NA,NA,-15.8312635,-67.5643872,osm
3056,NA,CentroMedico,Hospital Municipal Nuestra Señora del Rosario,Warnes,NA,-17.5067049,-63.1670974,osm
3057,NA,CentroMedico,Hospital Boliviano Holandés,NA,NA,-16.5223957,-68.153615,osm
3058,NA,CentroMedico,C.S. Yotala,Yotala,NA,-19.1629739,-65.2626724,osm
3059,NA,CentroMedico,Hospital Obrero,NA,NA,-14.8254053,-64.8952023,osm
3060,NA,CentroMedico,Hospital San Francisco de Asis,NA,NA,-16.4697073,-68.1144249,osm
3061,NA,CentroMedico,Virgen de las Angustias (2do Nivel),Tiraque,NA,-17.4276551,-65.7215561,osm
3062,NA,CentroMedico,Hospital San Martin de Porres - Ibuelo (2do Nivel),Ibuelo,NA,-16.9681408,-65.3399327,osm
3063,NA,CentroMedico,CS German Busch,NA,NA,-16.4706612,-68.1830539,osm
3064,NA,CentroMedico,Centro de Salud San Roque,NA,NA,-16.4758172,-68.27123,osm
3065,NA,CentroMedico,Centro de Salud Huayna Potosi,NA,NA,-16.4794998,-68.1917989,osm
3066,NA,CentroMedico,Centro de Salu dLotes y Servicios,NA,NA,-16.4962763,-68.2141957,osm
3067,NA,CentroMedico,Centro de Salud Avaroa,NA,NA,-16.5294672,-68.1858568,osm
3068,NA,CentroMedico,Centro de Salud 1ro de Mayo,NA,NA,-16.5377662,-68.1998124,osm
3069,NA,CentroMedico,Centro de Salud Nuevos Horizontes,NA,NA,-16.5443142,-68.1874976,osm
3070,NA,CentroMedico,Hospital Municipal Distrital Villa 1ro de Mayo,NA,NA,-17.7994925,-63.1179348,osm
3071,NA,CentroMedico,CS Hospital Civil de Atocha,Atocha,NA,-20.9331925,-66.2197775,osm
3072,NA,CentroMedico,Prosalud Especialidades Médicas,NA,NA,-17.7662787,-63.1710972,osm
3073,NA,CentroMedico,Hospital de Irán,NA,NA,-16.5136492,-68.1603,osm
3074,NA,CentroMedico,Centro de Rehabilitación y Salud Mental San Juan de Dios,NA,NA,-16.497721,-68.0839148,osm
3075,NA,CentroMedico,Hospital de Reyes (3er Nivel),Reyes,NA,-14.3034934,-67.3309226,osm
3076,NA,CentroMedico,Hospital Universitario,NA,NA,-19.5813158,-65.7570481,osm
3077,NA,CentroMedico,Mapaizo,NA,NA,-17.7473807,-63.0529162,osm
3078,NA,CentroMedico,PS Sunchu Pampa,Sunchu Pampa,NA,-17.5585316,-65.9198922,osm
3079,NA,CentroMedico,Centro de Salud Bolognia,La Paz,NA,-16.5257095,-68.0872012,osm
3080,NA,CentroMedico,Hospital Colonia Japonesa San Juan,NA,NA,-17.2921496,-63.8432928,osm
3081,NA,CentroMedico,NA,NA,NA,-17.2928569,-63.847951,osm
3082,NA,CentroMedico,C.S. Eterazama (1er Nivel),Eterazama,NA,-16.8329636,-65.5169614,osm
3083,NA,CentroMedico,P.S. Aeropuerto,Bermejo,NA,-22.7312586,-64.3374756,osm
3084,NA,CentroMedico,Hospital Korea,NA,NA,-16.5461515,-68.2004144,osm
3085,NA,CentroMedico,CS San Juan del Rosario - Potosi (1er Nivel),San Juan,NA,-20.9008685,-67.7652443,osm
3086,NA,CentroMedico,CS Virgen del Rosario,NA,NA,-19.6296329,-64.312365,osm
3087,NA,CentroMedico,C.S. Virgen del Rosario (1er Nivel),Incahuasi,NA,-20.7810344,-64.869067,osm
3088,NA,CentroMedico,Hospital San Pablo de Huacareta,NA,NA,-20.3687085,-64.0050018,osm
3089,NA,CentroMedico,Hospital Chacaltaya,NA,NA,-16.4851773,-68.1732094,osm
3090,NA,CentroMedico,Hospital Materno Infantil Cochabamba,Cochabamba,NA,-17.4005774,-66.1560983,osm
3091,NA,CentroMedico,Bolivia,NA,NA,-17.3779039,-66.1613114,osm
3092,NA,CentroMedico,Centro de Salud Rumy Campana,NA,NA,-17.950578,-67.1252025,osm
3093,NA,CentroMedico,Caja nacional de Salud Regional Oruro,NA,NA,-17.9392223,-67.1152818,osm
3094,NA,CentroMedico,Hospital Centro de Salud Sebastian Pagador de Policias,NA,NA,-17.9372094,-67.1160682,osm
3095,NA,CentroMedico,Centro de Rehabilitación Infantil Juana Azurduy de Padilla,NA,NA,-16.5024936,-68.1177957,osm
3096,NA,CentroMedico,P.S. Tomatas,Tomatas,NA,-21.5572409,-65.6307914,osm
3097,NA,CentroMedico,Centro de Salud Calamarca,Calamarca,NA,-16.9069756,-68.1168186,osm
3098,NA,CentroMedico,PS Urmiri de Quillacas,Urmiri de Quillacas,NA,-19.2274595,-66.7205142,osm
3099,NA,CentroMedico,PS Catilla Huma,NA,NA,-19.1399455,-66.7139443,osm
3100,NA,CentroMedico,C.S. San Juan Bautista,Porongo,NA,-17.8522303,-63.3055113,osm
3101,NA,CentroMedico,Centro de Salud Lahuachaca,NA,NA,-17.3764918,-67.6763248,osm
3102,NA,CentroMedico,Centro de Salud Konani,NA,NA,-17.4389835,-67.5185848,osm
3103,NA,CentroMedico,PS Panduro (1er Nivel),Panduro,NA,-17.4957512,-67.4428908,osm
3104,NA,CentroMedico,Caja Petrolero de Salud,NA,NA,-19.0373119,-65.2599436,osm
3105,NA,CentroMedico,Hospital de niños,NA,NA,-17.3472583,-63.2521657,osm
3106,NA,CentroMedico,CS Pomanasa,Pomanaza,NA,-18.5796502,-65.3342111,osm
3107,NA,CentroMedico,Hospital Mamerto Eguez (2do Nivel),Charagua,NA,-19.7901846,-63.1970849,osm
3108,NA,CentroMedico,PS Viru Viru (1er Nivel),Viru Viru,NA,-18.3836122,-65.652794,osm
3109,NA,CentroMedico,Forense Fiscalía de El Alto.,NA,NA,-16.4898131,-68.187711,osm
3110,NA,CentroMedico,Centro de Salud Villa Adela,NA,NA,-16.5227098,-68.2120816,osm
3111,NA,CentroMedico,C.S. Chijmuri,Chijmuri,NA,-18.8108384,-65.3975267,osm
3112,NA,CentroMedico,NA,NA,NA,-21.9638844,-63.6604523,osm
3113,NA,CentroMedico,Centro de Salud Palmar Chico,Palmar Chico,NA,-21.8785175,-63.6106826,osm
3114,NA,CentroMedico,San José de Pocitos,NA,NA,-22.0491238,-63.681264,osm
3115,NA,CentroMedico,Hospital San José Obrero,NA,NA,-17.36093,-66.284298,osm
3116,NA,CentroMedico,NA,NA,NA,-16.5293992,-68.1102437,osm
3117,NA,CentroMedico,CSI Escara,Escara,NA,-18.8579575,-68.1705665,osm
3118,NA,CentroMedico,Centro de Especialidades Médicas,NA,NA,-16.5260801,-68.110354,osm
3119,NA,CentroMedico,Hospital Jacobo Abularach A.,NA,NA,-13.7453394,-65.4299853,osm
3120,NA,CentroMedico,Hospital Juan XXIII,NA,NA,-16.4871831,-68.1578755,osm
3121,NA,CentroMedico,NA,NA,NA,-16.0402504,-67.8156016,osm
3122,NA,CentroMedico,NA,NA,NA,-17.9719222,-67.1028287,osm
3123,NA,CentroMedico,Centro de Salud Arroyito,NA,NA,-17.8305197,-63.0843273,osm
3124,NA,CentroMedico,Hospital natividad,NA,NA,-17.9737348,-67.102148,osm
3125,NA,CentroMedico,Hospital Oruro - Corea,NA,NA,-17.976385,-67.099951,osm
3126,NA,CentroMedico,Microhospital Hugo Casal (Todos Santos II),NA,NA,-17.3142947,-63.278141,osm
3127,NA,CentroMedico,CS Irupana (1er Nivel),Irupana,NA,-16.4661079,-67.4552426,osm
3128,NA,CentroMedico,centro de salud 16 de febrero,NA,NA,-16.5010404,-68.2289259,osm
3129,NA,CentroMedico,CS El Dorado,NA,NA,-19.7911158,-64.3288141,osm
3130,NA,CentroMedico,CS El Salto (1er Nivel),El Salto,NA,-19.8556328,-64.4874551,osm
3131,NA,CentroMedico,CS Tarvita,NA,NA,-19.9251447,-64.4841181,osm
3132,NA,CentroMedico,Hospital Materno Infantil Germán Urquidi,NA,NA,-17.3865297,-66.1483725,osm
3133,NA,CentroMedico,CS Candelaria (1er nivel),Candelaria,NA,-19.299575,-64.7908565,osm
3134,NA,CentroMedico,PS El Paredon (1er Nivel),NA,NA,-19.251166,-64.8370203,osm
3135,NA,CentroMedico,PS Villa Barrientos (1er Nivel),Villa Barrientos,NA,-16.6298061,-67.267287,osm
3136,NA,CentroMedico,CS Licoma (1er Nivel),Licoma,NA,-16.8062863,-67.2021027,osm
3137,NA,CentroMedico,NA,NA,NA,-17.8477657,-63.0838317,osm
3138,NA,CentroMedico,P.S. Kuti,Kuti,NA,-16.9771668,-66.9573675,osm
3139,NA,CentroMedico,CS Pozos,NA,NA,-19.062251,-64.1366212,osm
3140,NA,CentroMedico,Puesto de Salud Calizaya,NA,NA,-18.4882036,-65.3522874,osm
3141,NA,CentroMedico,Puesto de Salud Palajla,NA,NA,-18.4513741,-65.4661162,osm
3142,NA,CentroMedico,Centro de Salud Soicoco,NA,NA,-18.5024386,-65.507322,osm
3143,NA,CentroMedico,Instituto Gastroenterológico Boliviano Japonés,NA,NA,-17.3862749,-66.1492194,osm
3144,NA,CentroMedico,Hospital Francisco Viedma,NA,NA,-17.3856251,-66.1485487,osm
3145,NA,CentroMedico,Sebastian Pagador,NA,NA,-17.4417833,-66.1163377,osm
3146,NA,CentroMedico,Hospital de Magdalena,NA,NA,-13.2559115,-64.0547271,osm
3147,NA,CentroMedico,Caja nacional de Salud Dr. Benigno Inchausti,NA,NA,-21.4438112,-65.71865,osm
3148,NA,CentroMedico,C.S. Riberalta,Riberalta,NA,-11.0018802,-66.0594441,osm
3149,NA,CentroMedico,Villa Yunguyo,NA,NA,-16.4922815,-68.2191822,osm
3150,NA,CentroMedico,Hospital Inmaculada Concepción,NA,NA,-19.5923055,-65.7466977,osm
3151,NA,CentroMedico,C.S. Tolar,Tolar,NA,-17.0073202,-68.0646565,osm
3152,NA,CentroMedico,Centro de Salud Sica Sica,NA,NA,-17.3353567,-67.7430795,osm
3153,NA,CentroMedico,NA,NA,NA,-18.3802519,-66.9689989,osm
3154,NA,CentroMedico,Hospital del Sur,NA,NA,-17.4504824,-66.150302,osm
3155,NA,CentroMedico,Centro medico Aeronaútico Cochabamba,NA,NA,-17.4483743,-66.1402786,osm
3156,NA,CentroMedico,P.S. Pazña (1er Nivel),Pazña,NA,-18.5964013,-66.9197554,osm
3157,NA,CentroMedico,SSU,Sucre,NA,-19.0488855,-65.2658538,osm
3158,NA,CentroMedico,Hospital Caja nacional de Salud,Sucre,NA,-19.0479938,-65.2642876,osm
3159,NA,CentroMedico,Hospital Gíneco Obstétrico Jaime Sánchez Porcel,Sucre,NA,-19.0454094,-65.2682948,osm
3160,NA,CentroMedico,Hospital Jaime Mendoza,Sucre,NA,-19.0458657,-65.2675894,osm
3161,NA,CentroMedico,Centro de Salud San Juan del Rosario,San Juan,NA,-20.9014092,-67.7651706,osm
3162,NA,CentroMedico,C.S. Sopachuy,Sopachuy,NA,-19.4856644,-64.4731845,osm
3163,NA,CentroMedico,Clinica Chihuahua,NA,NA,-17.2190032,-62.1186892,osm
3164,NA,CentroMedico,I.P.T.K.,NA,NA,-19.0453778,-65.2577633,osm
3165,NA,CentroMedico,Puesto de Salud Aguila Orko,NA,NA,-18.5280849,-65.2920086,osm
3166,NA,CentroMedico,Centro de Salud San Juan de Orcas,NA,NA,-18.7331291,-65.3121012,osm
3167,NA,CentroMedico,Puesto de Salud El Ajial,NA,NA,-18.4969124,-65.2889519,osm
3168,NA,CentroMedico,Puesto de Salud Irocota,NA,NA,-18.6852503,-65.3680839,osm
3169,NA,CentroMedico,CIDIMEDIC,La Paz,NA,-16.543728,-68.0702179,osm
3170,NA,CentroMedico,Posta de Salud de Quirpinchaca,NA,NA,-19.0382518,-65.2694938,osm
3171,NA,CentroMedico,PS Pongo B2 (1er Nivel),Pongo B2,NA,-16.9963067,-67.25879,osm
3172,NA,CentroMedico,Micro Hospital,NA,NA,-17.5481335,-63.1909205,osm
3173,NA,CentroMedico,Hospital Municipal,San Jose de Chiquitos,NA,-17.8501136,-60.7393618,osm
3174,NA,CentroMedico,CS Copavillque,Copa Vilque,NA,-18.6231834,-65.2856534,osm
3175,NA,CentroMedico,CS Yanani,Yanani,NA,-18.5980359,-65.4371082,osm
3176,NA,CentroMedico,Caja nacional de Salud CIMFA Fila Galindo,NA,NA,-17.3926993,-66.1699894,osm
3177,NA,CentroMedico,CS Villa Busch,NA,NA,-11.0878004,-68.7816595,osm
3178,NA,CentroMedico,CIMFA Miraflores,NA,NA,-16.5039801,-68.1201732,osm
3179,NA,CentroMedico,Hospital Kolping,Warnes,NA,-17.5144044,-63.1707622,osm
3180,NA,CentroMedico,CS El Desengaño (1er Nivel),NA,NA,-14.2735373,-65.4469658,osm
3181,NA,CentroMedico,P.S. La Viña,La Viña,NA,-18.1326416,-64.8901937,osm
3182,NA,CentroMedico,CS San Jose Charapaqui,NA,NA,-16.5377141,-68.2161829,osm
3183,NA,CentroMedico,CSI Covendo (1er Nivel),Covendo,NA,-15.7926008,-66.9798396,osm
3184,NA,CentroMedico,PS Chejje (1er Nivel),Ilabaya,NA,-15.8079183,-68.6561313,osm
3185,NA,CentroMedico,CSI Inquisivi (1er Nivel),Inquisivi,NA,-16.9071038,-67.1383612,osm
3186,NA,CentroMedico,CSA Kalla Baja (1er Nivel),Kalla Baja,NA,-16.7736463,-68.7671485,osm
3187,NA,CentroMedico,CSA La Lloja (1er Nivel),La Lloja,NA,-16.7448913,-67.573290600000007,osm
3188,NA,CentroMedico,CSI Lambate (1er Nivel),Lambate,NA,-16.6029518,-67.7043026,osm
3189,NA,CentroMedico,CSA Millipaya (1er Nivel),Millipaya,NA,-15.8729592,-68.6182734,osm
3190,NA,CentroMedico,CSI Moco Moco (1er Nivel),Mocomoco,NA,-15.4590898,-68.9970967,osm
3191,NA,CentroMedico,CSI Puerto Perez,Puerto Perez,NA,-16.2856558,-68.6001643,osm
3192,NA,CentroMedico,CSI Tablachaca (1er Nivel),Tablachaca,NA,-17.1765292,-67.3380622,osm
3193,NA,CentroMedico,CSI Tajocachi (1er Nivel),Tajocachi,NA,-16.0877195,-68.8852448,osm
3194,NA,CentroMedico,CSI Tuni (1er Nivel),Tuni,NA,-16.6694629,-68.1390827,osm
3195,NA,CentroMedico,CSA Tuquia (1er Nivel),Tuquia,NA,-16.21326,-68.4660173,osm
3196,NA,CentroMedico,CSA Ulloma Lerco (1er Nivel),Ulloma,NA,-17.4903242,-68.4891454,osm
3197,NA,CentroMedico,CSA Villa Concepcion,Villa Concepcion,NA,-15.831752,-66.9486174,osm
3198,NA,CentroMedico,CSI Villa Remedios (1er Nivel),Villa Remedios,NA,-16.7733034,-68.1740537,osm
3199,NA,CentroMedico,Hospital Materno Infantil Oruro (2do Nivel),Oruro,NA,-17.9601247,-67.1100388,osm
3200,NA,CentroMedico,PS Henry K. Beye,San Joaquin del Beni,NA,-13.0371306,-64.6700166,osm
3201,NA,CentroMedico,Caja Petrolera de Salud,NA,NA,-16.4979418,-68.132382,osm
3202,NA,CentroMedico,PS Timboy (1er Nivel),Timboy,NA,-21.1715504,-64.0643908,osm
3203,NA,CentroMedico,Policlínico del Sur,NA,NA,-17.3992108,-66.1622715,osm
3204,NA,CentroMedico,CS Pojo (1er Nivel),Pojo,NA,-17.7570119,-64.8645667,osm
3205,NA,CentroMedico,C.S. Cayara (1er nivel),Cayara,NA,-19.5528879,-65.8799162,osm
3206,NA,CentroMedico,CS Los Andes (1er Nivel),Los Andes,NA,-16.8864078,-63.8309128,osm
3207,NA,CentroMedico,C.S. Jampina Huasi (1er Nivel),Jampina Huasi,NA,-17.2736386,-66.2154027,osm
3208,NA,CentroMedico,CNS Regional La Paz,NA,NA,-16.4997579,-68.1317781,osm
3209,NA,CentroMedico,Hospital San Gabriel,NA,NA,-16.4914012,-68.1166949,osm
3210,NA,CentroMedico,Puesto de Salud Villa Mar (1er Nivel),Villa Mar,NA,-21.7553364,-67.4817772,osm
3211,NA,CentroMedico,PS Quetena Grande,Quetena Grande,NA,-22.2301697,-67.3574034,osm
3212,NA,CentroMedico,C.S. Santa Fe de Yapacani,Santa Fe de Yapacani,NA,-17.3981816,-63.8284771,osm
3213,NA,CentroMedico,Hospital Municipal Los Negros,Los Negros,NA,-18.0508025,-64.1216022,osm
3214,NA,CentroMedico,PS Oploca (1er Nivel),Oploca,NA,-21.3372958,-65.8043794,osm
3215,NA,CentroMedico,CS Ckochis (1er Nivel),Ckochis,NA,-19.1330153,-65.2061788,osm
3216,NA,CentroMedico,P.S. Real Machacamarca (1er Nivel),Real Machacamarca,NA,-18.7512201,-67.689548,osm
3217,NA,CentroMedico,PS Villa Copacabana (1er Nivel),Villa Copacabana,NA,-18.3357651,-67.5855941,osm
3218,NA,CentroMedico,CS Acacio,Acasio,NA,-18.0241762,-66.0586907,osm
3219,NA,CentroMedico,P.S. Piriquina (1er Nivel),Piriquina,NA,-18.0792313,-66.0166096,osm
3220,NA,CentroMedico,C.S. Anzaldo (1er Nivel),Anzaldo,NA,-17.778997,-65.9334373,osm
3221,NA,CentroMedico,Centro de Salud San Luis,Lagunillas,NA,-19.6501076,-63.6762112,osm
3222,NA,CentroMedico,Hospital Vladimir Bejarano,Gutierrez,NA,-19.4218629,-63.5294301,osm
3223,NA,CentroMedico,P.S. Alto Linares (1er Nivel),Alto Linares,NA,-17.2666973,-64.6189667,osm
3224,NA,CentroMedico,P.S. Pata Morochata (1er Nivel),Pata Morochata,NA,-17.2724754,-66.4922005,osm
3225,NA,CentroMedico,CS El Choro (1er Nivel),Choro,NA,-16.7936535,-66.6505484,osm
3226,NA,CentroMedico,CS Cocapata,Cocapata,NA,-16.7999269,-66.668432,osm
3227,NA,CentroMedico,CS Micani (1er Nivel),Micani,NA,-18.3699049,-65.8343324,osm
3228,NA,CentroMedico,Centro de Salud Soico,NA,NA,-18.8032281,-65.2761993,osm
3229,NA,CentroMedico,Instituto nacional de Torax,La Paz,NA,-16.5066848,-68.1182092,osm
3230,NA,CentroMedico,Hospital San Pedro Claver (2do Nivel),Sucre,NA,-19.0075266,-65.3066695,osm
3231,NA,CentroMedico,CS Ayoma (1er Nivel),Ayoma,NA,-18.8694284,-66.1491751,osm
3232,NA,CentroMedico,Caja de Salud de la Banca Privada,NA,NA,-16.5113966,-68.1660199,osm
3233,NA,CentroMedico,NA,NA,NA,-17.0906349,-68.0020666,osm
3234,NA,CentroMedico,Centro Medico Internacional Hope,NA,NA,-16.5470569,-68.0891688,osm
3235,NA,CentroMedico,Hospital de Psiquiatría,NA,NA,-16.5025745,-68.1205257,osm
3236,NA,CentroMedico,Hospital Florida (2do Nivel),Samaipata,NA,-18.1772947,-63.870214,osm
3237,NA,CentroMedico,NA,NA,NA,-17.3460819,-66.1657352,osm
3238,NA,CentroMedico,NA,NA,NA,-17.3826846,-66.1477853,osm
3239,NA,CentroMedico,dentista,NA,NA,-17.3835086,-66.1476945,osm
3240,NA,CentroMedico,Caja Bancaria Estatal de Salud,NA,NA,-16.4969205,-68.1236805,osm
3241,NA,CentroMedico,Hospitales de la Esperanza,NA,NA,-17.3740687,-66.3229356,osm
3242,NA,CentroMedico,Caja Bancaria,NA,NA,-16.4971378,-68.1235484,osm
3243,NA,CentroMedico,Hospital Luis Espinal,NA,NA,-19.0255249,-65.2391325,osm
3244,NA,CentroMedico,Hospital San Mauro,Tomina,NA,-19.1866274,-64.4627138,osm
3245,NA,CentroMedico,Hospital Municipal Viacha,NA,NA,-16.6505728,-68.2876076,osm
3246,NA,CentroMedico,Servicio Integral de Rehabilitación Viacha,NA,NA,-16.6499956,-68.287413,osm
3247,NA,CentroMedico,Policonsultorio Norte Caja Petrolera de Salud,NA,NA,-17.3777005,-66.1646827,osm
3248,NA,CentroMedico,CSI Mayaya (1er Nivel),Mayaya,NA,-15.4115183,-67.6108724,osm
3249,NA,CentroMedico,P.S. Rodeo Porvenir (1er Nivel),Rodeo Porvenir,NA,-19.0582946,-64.5879942,osm
3250,NA,CentroMedico,Posta comunal de Juntas,Municipio Uriondo,NA,-21.8059614,-64.7947853,osm
3251,NA,CentroMedico,NA,NA,NA,-18.0009522,-67.1072094,osm
3252,NA,CentroMedico,PS Cazon (1er Nivel),NA,NA,-20.9188135,-65.6733608,osm
3253,NA,CentroMedico,PS Cerrillos (1er Nivel),Cerrillos,NA,-21.4177693,-66.4849211,osm
3254,NA,CentroMedico,PS Challacollo,Challacollo,NA,-19.7661375,-68.2636445,osm
3255,NA,CentroMedico,HOSPITAL PALMARCITO,TARIJA-CERCADO,NA,-21.5311328,-64.7112903,osm
3256,NA,CentroMedico,Centro de Salud Barrio Avaroa,NA,NA,-21.5169594,-64.7311811,osm
3257,NA,CentroMedico,Centro de Salud Tabladita,NA,NA,-21.5396819,-64.7453816,osm
3258,NA,CentroMedico,Caja de Salud Cordes,NA,NA,-21.5294103,-64.7349939,osm
3259,NA,CentroMedico,Caja nacional de Salud,NA,NA,-21.5322273,-64.7323492,osm
3260,NA,CentroMedico,Centro de Salud San Pablo,NA,NA,-21.5358959,-64.7217327,osm
3261,NA,CentroMedico,Caja Petrolera de Salud,NA,NA,-21.5373095,-64.7341007,osm
3262,NA,CentroMedico,Materno Infantil,NA,NA,-21.5119213,-64.7299969,osm
3263,NA,CentroMedico,C.S.I. San Matias (1er Nivel),San Matias,NA,-16.3618294,-58.3955311,osm
3264,NA,CentroMedico,Centro de Salud Villa El Carmen,NA,NA,-21.7868349,-63.5722267,osm
3265,NA,CentroMedico,centro de salud Aranjuez,NA,NA,-21.5259284,-64.752087,osm
3266,NA,CentroMedico,C.S. Santa Rosa de la Boca del Chapare,NA,NA,-15.9419466,-64.7574943,osm
3267,NA,CentroMedico,Centro de salud maria loreto,NA,NA,-15.1953425,-64.7602495,osm
3268,NA,CentroMedico,CSI Monte Azul 2 (1er Nivel),Monte Azul,NA,-12.0952569,-64.919149,osm
3269,NA,CentroMedico,Centro de Salud Integral Cachuela Esperanza,Cachuela Esperanza,NA,-10.5386821,-65.5793999,osm
3270,NA,CentroMedico,C.S. San Antonio,NA,NA,-17.7764665,-63.1224504,osm
3271,NA,CentroMedico,C.S. Bolinter,NA,NA,-17.7630339,-63.1140049,osm
3272,NA,CentroMedico,C.S. El Dorado Norte,NA,NA,-17.7391157,-63.0965031,osm
3273,NA,CentroMedico,C.S. 26 de Septiembre,NA,NA,-17.7209687,-63.1048332,osm
3274,NA,CentroMedico,C.S. Los Cusis,Santa Cruz de la Sierra,NA,-17.7356208,-63.0769892,osm
3275,NA,CentroMedico,Centro de Salud Sajama,NA,NA,-18.1345814,-68.9747932,osm
3276,NA,CentroMedico,C.S. Hospital San Juan de Dios de Arque (1er Nivel),Arque,NA,-17.8215896,-66.4034473,osm
3277,NA,CentroMedico,C.S. Chapisirca,Chapisirca,NA,-17.1514928,-66.1457985,osm
3278,NA,CentroMedico,Centro de Salud Virgen Maria,Villamontes,NA,-21.2625533,-63.4834441,osm
3279,NA,CentroMedico,C.S. Keraya (1er Nivel),Keraya,NA,-17.2984619,-66.4585984,osm
3280,NA,CentroMedico,C.S. Icari (1er Nivel),Icari,NA,-17.0197176,-66.3467313,osm
3281,NA,CentroMedico,C.S. Tanil Vinto,Tanil Vinto,NA,-20.6057992,-67.5833063,osm
3282,NA,CentroMedico,Centro de Salud Km 21 (1er Nivel),San Francisco,NA,-16.766725,-65.333485,osm
3283,NA,CentroMedico,Centro de Salud,NA,NA,-19.6341787,-67.676422,osm
3284,NA,CentroMedico,CSA Viscachani,Viscachani,NA,-17.1810038,-67.9529039,osm
3285,NA,CentroMedico,P.S. Huerta Mayu,Huerta Mayu,NA,-17.6373264,-66.1144577,osm
3286,NA,CentroMedico,C.S. El Remanzo,NA,NA,-17.714507,-63.1786982,osm
3287,NA,CentroMedico,P.S. Cocani (1er Nivel),Cocani,NA,-21.2197236,-66.5518386,osm
3288,NA,CentroMedico,Centro de Salud Villa Fatima,Tupiza,NA,-21.4348642,-65.7230864,osm
3289,NA,CentroMedico,Centro de Salud San Gerardo,Tupiza,NA,-21.4307453,-65.7305415,osm
3290,NA,CentroMedico,Hospital San Juan de Dios,Camargo,NA,-20.6411629,-65.21318,osm
3291,NA,CentroMedico,P.S. San Vicente,San Vicente,NA,-21.2669272,-66.3135639,osm
3292,NA,CentroMedico,P.S. Supira,Supira,NA,-21.5960017,-65.5223086,osm
3293,NA,CentroMedico,C.S.A. Santo Domingo,Santo Domingo,NA,-15.6703762,-67.649473,osm
3294,NA,CentroMedico,C.S. Villa Pacheco (1er Nivel),Villa Pacheco,NA,-21.695843,-65.3045516,osm
3295,NA,CentroMedico,PS Carrizal,Carrizal,NA,-21.4391118,-65.2384167,osm
3296,NA,CentroMedico,CS Iscayachi (1er Nivel),Iscayachi,NA,-21.485179,-64.9693643,osm
3297,NA,CentroMedico,PS Curqui (1er Nivel),Curqui,NA,-21.4925263,-65.0692074,osm
3298,NA,CentroMedico,P.S. Reynecillas (1er Nivel),Reynecillas,NA,-21.5804072,-65.2547445,osm
3299,NA,CentroMedico,C.S.A. Santa Isabel (1er Nivel),Santa Isabel,NA,-16.4201797,-58.6417448,osm
3300,NA,CentroMedico,C.S. El Trigal (1er Nivel),Trigal,NA,-18.306268,-64.150524,osm
3301,NA,CentroMedico,C.S. Mataral (1er Nivel),Mataral,NA,-18.1152977,-64.2149398,osm
3302,NA,CentroMedico,P.S. San Isidro (1er Nivel),San Isidro,NA,-18.0424116,-64.4334104,osm
3303,NA,CentroMedico,C.S. Pucara (1er Nivel),Pucara,NA,-18.715199,-64.1854172,osm
3304,NA,CentroMedico,C.S. Masicuri (1er Nivel),Masicuri,NA,-18.8304374,-63.7817,osm
3305,NA,CentroMedico,P.S. Ipita (1er Nivel),Ipita,NA,-19.3546148,-63.5050084,osm
3306,NA,CentroMedico,C.S. Santa Ana de Velasco (1er Nivel),Santa Ana de Velasco,NA,-16.5845074,-60.688363,osm
3307,NA,CentroMedico,Hospital del Niño Sor Teresa Huarte Tama (3er Nivel),Sucre,NA,-19.0082638,-65.3074552,osm
3308,NA,CentroMedico,P.S. Carlos Machicado (1er Nivel),Carlos Machicado,NA,-19.6981429,-66.571823,osm
3309,NA,CentroMedico,P.S.Bermejo (1er Nivel),Bermejo,NA,-18.1302492,-63.6332148,osm
3310,NA,CentroMedico,C.S.A. Villa Florida (1er Nivel),Villa Florida,NA,-15.6532842,-67.7247004,osm
3311,NA,CentroMedico,C.S.I. Guanay (1er Nivel),Guanay,NA,-15.496387,-67.8801781,osm
3312,NA,CentroMedico,Clinica San Clemente,Camargo,NA,-20.6390581,-65.2080657,osm
3313,NA,CentroMedico,P.S. Yocalla (1er Nivel),Yocalla,NA,-19.3901749,-65.9093828,osm
3314,NA,CentroMedico,Hospital Virgen Milagrosa,NA,NA,-17.8251884,-63.1325179,osm
3315,NA,CentroMedico,Hospital Virgen Milagrosa,NA,NA,-17.8251742,-63.1325179,osm
3316,NA,CentroMedico,Hospital Virgen Milagrosa,NA,NA,-17.8252126,-63.1325715,osm
3317,NA,CentroMedico,Hospital Municipal Cañada el Carmen,NA,NA,-17.8093386,-63.1538687,osm
3318,NA,CentroMedico,P.S. Mataral,Mataral,NA,-18.1142855,-64.215815,osm
3319,NA,CentroMedico,P.S. Pampa Grande,Pampa Grande,NA,-18.0891789,-64.1123468,osm
3320,NA,CentroMedico,C.S. Los Negros,Los Negros,NA,-18.0558997,-64.1229034,osm
3321,NA,CentroMedico,Maternidad Percy Boland,NA,NA,-17.7783518,-63.1871329,osm
3322,NA,CentroMedico,C.S. Saipina (1er Nivel),Saipina,NA,-18.0943286,-64.584264,osm
3323,NA,CentroMedico,P.S. La Comuna,La Comuna,NA,-17.9062232,-66.4781386,osm
3324,NA,CentroMedico,C.S. Bolivar (1er Nivel),Bolivar,NA,-17.9693101,-66.5375606,osm
3325,NA,CentroMedico,CSI Umala (1er Nivel),Umala,NA,-17.3729804,-68.0212786,osm
3326,NA,CentroMedico,C.S. Tomaycuri,Tomaycuri,NA,-18.8588708,-65.9090468,osm
3327,NA,CentroMedico,C.S. Macha,Macha,NA,-18.8182241,-66.0382569,osm
3328,NA,CentroMedico,P.S. Huancarani,Huancarani,NA,-18.7344614,-66.1406692,osm
3329,NA,CentroMedico,C.S. Santa Barbara de Pocoata,Pocoata,NA,-18.6997632,-66.1670888,osm
3330,NA,CentroMedico,P.S. Crucero Belen,Crucero Belen,NA,-18.2045338,-67.1605837,osm
3331,NA,CentroMedico,C.S.I. Papel Pampa,Papel Pampa,NA,-17.8193283,-67.7705093,osm
3332,NA,CentroMedico,P.S. Japo,Japo Kasa,NA,-17.6942777,-66.7637328,osm
3333,NA,CentroMedico,P.S. Confital,Confital,NA,-17.679386,-66.7294684,osm
3334,NA,CentroMedico,P.S. Patamanta,Patamanta,NA,-16.3772346,-68.3790658,osm
3335,NA,CentroMedico,C.S.I. Palcoco,Palcoco,NA,-16.3342626,-68.4159012,osm
3336,NA,CentroMedico,C.S.I. Batallas,Batallas,NA,-16.2988209,-68.5316573,osm
3337,NA,CentroMedico,C.S.I. Huarina,Huarina,NA,-16.1904576,-68.6018625,osm
3338,NA,CentroMedico,Centro de Salud Sivingal (1er Nivel),Sivingal,NA,-21.330408,-64.2037572,osm
3339,NA,CentroMedico,Hospital San Andres,NA,NA,-21.6216886,-64.8172668,osm
3340,NA,CentroMedico,Centro de Salud San Luis,tarija,NA,-21.5652353,-64.7058962,osm
3341,NA,CentroMedico,P.S. Quinori (1er Nivel),Quinori,NA,-18.5040903,-64.3979889,osm
3342,NA,CentroMedico,C.S. Pasorapa (1er Nivel),Pasorapa,NA,-18.3209174,-64.6772004,osm
3343,NA,CentroMedico,P.S. Esmeralda,Esmeralda,NA,-18.0837903,-64.9238742,osm
3344,NA,CentroMedico,C.S. Omereque (1er Nivel),Omereque,NA,-18.1051839,-64.9071652,osm
3345,NA,CentroMedico,C.S. Huanacuni Chico (1er Nivel),Huanacuni Chico,NA,-17.9260596,-64.9867656,osm
3346,NA,CentroMedico,P.S. San Lorenzo (1er Nivel),San Lorenzo,NA,-19.6484935,-63.1237876,osm
3347,NA,CentroMedico,P.S. Lagarpampa (1er Nivel),Lagarpampa,NA,-18.4556184,-64.9901758,osm
3348,NA,CentroMedico,C.S. Raqay Pampa (1er Nivel),Raqay Pampa,NA,-18.1892499,-65.3829853,osm
3349,NA,CentroMedico,C.S.A. Alto Tacagua,Municipio Nuestra Señora de La Paz,NA,-16.5131355,-68.1496216,osm
3350,NA,CentroMedico,C.S. San Antonio Quime,Quime,NA,-16.9819556,-67.215881,osm
3351,NA,CentroMedico,C.S. Copachuncho (1er Nivel),Copa Chuncho A,NA,-17.7170518,-65.0904194,osm
3352,NA,CentroMedico,C.S. Villa Pereira,Villa Pereira,NA,-17.4468158,-66.7870998,osm
3353,NA,CentroMedico,Hospital de Hemodiálisis,NA,NA,-17.3848613,-66.2229666,osm
3354,NA,CentroMedico,P.S. Espinal,Espinal,NA,-18.5465684,-64.2944913,osm
3355,NA,CentroMedico,C.S. Campamento (1er Nivel),Comunidad Campamento,NA,-15.1774754,-61.018444,osm
3356,NA,CentroMedico,C.S. Palca,Palca,NA,-17.1890904,-66.0758377,osm
3357,NA,CentroMedico,C. S. Kaluyo Chico,Kaluyo Chico,NA,-17.2188556,-66.0822778,osm
3358,NA,CentroMedico,Centro De Salud El Porvenir,Santa Cruz de la Sierra,NA,-17.7870716,-63.129238,osm
3359,NA,CentroMedico,C.S. Sachojere,Sachojere,NA,-14.9847749,-64.7526479,osm
3360,NA,CentroMedico,P.S. San Lorenzo,San Lorenzo,NA,-15.0365254,-64.7198262,osm
3361,NA,CentroMedico,C.S. Apharumiri (1er Nivel),Apharumiri,NA,-17.5299114,-66.5209597,osm
3362,NA,CentroMedico,P.S. Tapacari,Tapacari,NA,-17.5167942,-66.6181935,osm
3363,NA,CentroMedico,Centro de Salud de Ixiamas,NA,NA,-13.7683319,-68.1203058,osm
3364,NA,CentroMedico,P.S. Kollpa Pucho Belen Alto (1er Nivel),Colpapucho Belen Alto,NA,-17.3665299,-67.5576634,osm
3365,NA,CentroMedico,P.S. Turqui (1er Nivel),Turqui,NA,-19.4079106,-65.9785383,osm
3366,NA,CentroMedico,Centro de  Salud Chojlla,NA,NA,-16.4067019,-67.776143,osm
3367,NA,CentroMedico,Hospital Materno Infantil,NA,NA,-14.8221306,-64.8959969,osm
3368,NA,CentroMedico,C.S. Elvira Wunderlich,Santa Cruz de la Sierra,NA,-17.8021283,-63.1834029,osm
3369,NA,CentroMedico,C.S. Yayani,Yayani Alto,NA,-17.211817,-66.6560191,osm
3370,NA,CentroMedico,P.S. Tiquirpaya,Tiquirpaya,NA,-17.1145612,-66.7304303,osm
3371,NA,CentroMedico,P.S. Jatun Pampa,Jatunpampa y Churco,NA,-17.4675314,-66.6778569,osm
3372,NA,CentroMedico,Hospital del Niño Ovidio Aligia Uria,NA,NA,-16.5082654,-68.1179785,osm
3373,NA,CentroMedico,Puesto de Salud La Ventolera,NA,NA,-21.6938553,-64.6009562,osm
3374,NA,CentroMedico,P.S. Los Batos,Los Batos,NA,-17.7713308,-63.2448457,osm
3375,NA,CentroMedico,C.S. San Antonio de Esmoruco,San Antonio de Esmoruco,NA,-21.9488264,-66.5176593,osm
3376,NA,CentroMedico,San Agustin de Hipona,NA,NA,-17.9774282,-67.1018209,osm
3377,NA,CentroMedico,GAVADENT Clínica Dental,Santa Cruz,NA,-17.7362732,-63.1035935,osm
3378,NA,CentroMedico,P.S. Comanche,Comanche,NA,-16.955481,-68.4280711,osm
3379,NA,CentroMedico,Hospital Cotahuma,NA,NA,-16.5155582,-68.139511100000007,osm
3380,NA,CentroMedico,P.S. Don Lorenzo,Don Lorenzo,NA,-17.803051,-62.8784191,osm
3381,NA,CentroMedico,C.S. Pisiga Bolivar (1er Nivel),Pisiga Bolívar,NA,-19.2725402,-68.6150722,osm
3382,NA,CentroMedico,C.S. Sabaya,Sabaya,NA,-19.0157071,-68.3728202,osm
3383,NA,CentroMedico,P.S. Yunguyo del Litoral,Yunguyo del Litoral,NA,-18.8536682,-68.3200174,osm
3384,NA,CentroMedico,P.S. Negrillos (1er Nivel),Negrillos,NA,-18.8283572,-68.6105581,osm
3385,NA,CentroMedico,centro de salud,NA,NA,-16.4910617,-68.155899,osm
3386,NA,CentroMedico,Hospital del Niño Manuel Ascencio Villarroel,Cochabamba,NA,-17.3881842,-66.1504292,osm
3387,NA,CentroMedico,P.S. Calama (1er Nivel),Calama,NA,-18.7589763,-67.6767332,osm
3388,NA,CentroMedico,SUSA Seguro Universal de Salud Sutónomo del Beni,NA,NA,-14.8305522,-64.906018,osm
3389,NA,CentroMedico,Clínica San Pedro,Calle Aurelio Melean,NA,-17.3911446,-66.1478541,osm
3390,NA,CentroMedico,CS Abra Punta,NA,NA,-17.6778366,-65.0892426,osm
3391,NA,CentroMedico,PS Teraki,NA,NA,-17.6711013,-65.0967491,osm
3392,NA,CentroMedico,Clínica Alemana,Avenida 6 de Agosto,NA,-16.5137223,-68.1214622,osm
3393,NA,CentroMedico,Clínica Santa María,Calle Pedro Salazar,NA,-16.510082,-68.1253032,osm
3394,NA,CentroMedico,C.S. Colchani,NA,NA,-20.3036501,-66.9333989,osm
3395,NA,CentroMedico,Clínica Virgen de Copacabana,NA,NA,-17.3921057,-66.1487586,osm
3396,NA,CentroMedico,Los Lauros,NA,NA,-17.3919553,-66.1632231,osm
3397,NA,CentroMedico,San Francisco,Calle Sucre,NA,-17.3927216,-66.1487473,osm
3398,NA,CentroMedico,Clínica J. Iriarte,Calle Victor Cabrera,NA,-17.3913677,-66.1468146,osm
3399,NA,CentroMedico,Del Niño,Calle Bolivar,NA,-17.3914464,-66.1475452,osm
3400,NA,CentroMedico,Centro de Salud Villa Nueva Potosí,NA,NA,-16.507398,-68.14385,osm
3401,NA,CentroMedico,San Jorge,NA,NA,-21.5519875,-64.6972253,osm
3402,NA,CentroMedico,Centro de Salud Obrajes,NA,NA,-16.5298342,-68.1026113,osm
3403,NA,CentroMedico,Centro Salud Niño Kollo,NA,NA,-16.5100372,-68.1491671,osm
3404,NA,CentroMedico,Clinica Cobija,Avenida Tadeo Haenke,NA,-17.3866274,-66.1665096,osm
3405,NA,CentroMedico,Clínica San Jose,NA,NA,-16.4914902,-68.1663872,osm
3406,NA,CentroMedico,Clínica Socorro,José María Achá,NA,-16.4965903,-68.1485032,osm
3407,NA,CentroMedico,Policlínico de Atención Integral en Salud de Especialidades,Calle Potosí,NA,-17.3767322,-66.1538306,osm
3408,NA,CentroMedico,Clínica Los Olivos,NA,NA,-17.3893248,-66.1796473,osm
3409,NA,CentroMedico,Clínica Copacabana,Calle Potosí,NA,-17.3778151,-66.1541933,osm
3410,NA,CentroMedico,Centro Medico La Florida,Avenida Arequipa,NA,-16.5453403,-68.0916007,osm
3411,NA,CentroMedico,Laser,NA,NA,-17.3893805,-66.1491109,osm
3412,NA,CentroMedico,Centro del Accidentado,Calle Pasteur,NA,-17.3908922,-66.1488245,osm
3413,NA,CentroMedico,Clínica ProSalud,NA,NA,-17.3947509,-66.1805459,osm
3414,NA,CentroMedico,Centro de Flebología LASER,Calle Teófilo Vargas,NA,-17.3756922,-66.1638614,osm
3415,NA,CentroMedico,Nuestra Señora de Lourdes,Calle C. D'avis,NA,-17.3881022,-66.1449525,osm
3416,NA,CentroMedico,Bustillos,Calle Heroes del Acre,NA,-16.5054782,-68.1334753,osm
3417,NA,CentroMedico,Consejo de Salud Rural Andino - Centro de Salud Cruz Roja,Calle Bolívar,NA,-17.3456851,-63.2629454,osm
3418,NA,CentroMedico,Talentum Garden Clinic,NA,NA,-16.5611828,-68.0962713,osm
3419,NA,CentroMedico,Clínica Luis Morales Arnez,Avenida General Galindo,NA,-17.3801742,-66.1418861,osm
3420,NA,CentroMedico,Clínica de Ojos,Calle Chuquisaca,NA,-17.386266,-66.1560722,osm
3421,NA,CentroMedico,Urkupiña,NA,NA,-17.3980689,-66.2763305,osm
3422,NA,CentroMedico,NA,Calle Honduras,NA,-17.4014358,-66.1535063,osm
3423,NA,CentroMedico,Caja Petrolera,NA,NA,-11.0285451,-68.7584831,osm
3424,NA,CentroMedico,"Instituto nacional de Neurología, Neurocirugía y Columna Vertebral",Calle Potosí,NA,-17.3764074,-66.1537997,osm
3425,NA,CentroMedico,CIES,NA,NA,-16.5037778,-68.1370976,osm
3426,NA,CentroMedico,Clinica Boliviana Americana,Calle San Martín,NA,-17.4011022,-66.153171,osm
3427,NA,CentroMedico,Santa Clara,Avenida Pando,NA,-11.0314417,-68.7739566,osm
3428,NA,CentroMedico,Centro de Salud Tarope,NA,NA,-17.7698455,-63.0161263,osm
3429,NA,CentroMedico,Laboratorio Clínico Sabin,NA,NA,-19.5792706,-65.7554832,osm
3430,NA,CentroMedico,Las Carmelitas,Calle Santa Cruz,NA,-20.4604234,-66.8212855,osm
3431,NA,CentroMedico,NA,NA,NA,-18.4130594,-66.5624921,osm
3432,NA,CentroMedico,Centro de Salud y Bienestar Santa Rosa Lima,NA,NA,-16.4570596,-68.1674861,osm
3433,NA,CentroMedico,Clinica Los Ángeles,Avenida Juan de la Rosa,NA,-17.3786859,-66.1645383,osm
3434,NA,CentroMedico,PoliClínico 10 de Noviembre,NA,NA,-19.5840657,-65.7582558,osm
3435,NA,CentroMedico,Instituto Oftalmológico Cochabamba,Calle 16 de Julio,NA,-17.3859363,-66.1522512,osm
3436,NA,CentroMedico,Centro de Salud Lazareto,NA,NA,-17.7837352,-63.1595856,osm
3437,NA,CentroMedico,Caja nacional de Salud,NA,NA,-19.0094983,-66.7760172,osm
3438,NA,CentroMedico,Laboratorio DIAGNOSUR,Calle Ramón Rojas,NA,-21.5322525,-64.7377529,osm
3439,NA,CentroMedico,Clínica Urbarí,NA,NA,-17.7970784,-63.1974749,osm
3440,NA,CentroMedico,Clínica INCOR,NA,NA,-17.7880461,-63.1951865,osm
3441,NA,CentroMedico,Clínica Kamiya,NA,NA,-17.7731626,-63.1826674,osm
3442,NA,CentroMedico,Clínica Atie,Calle Bolívar,NA,-21.534356,-64.7264955,osm
3443,NA,CentroMedico,Centro de Salud,NA,NA,-18.1416398,-63.4799754,osm
3444,NA,CentroMedico,JC Prado,NA,NA,-16.5554751,-68.2403523,osm
3445,NA,CentroMedico,Caja de Salud de Caminos y Ramas Afines,Calle Colombia,NA,-17.3901192,-66.1523822,osm
3446,NA,CentroMedico,CIES,Luis Torres,NA,-16.4979897,-68.1707822,osm
3447,NA,CentroMedico,Prosalud,NA,NA,-21.5311331,-64.718893,osm
3448,NA,CentroMedico,Centro de Salud Arbieto,NA,NA,-17.5832097,-66.0182483,osm
3449,NA,CentroMedico,San Rafael,NA,NA,-17.8019566,-63.1238743,osm
3450,NA,CentroMedico,Clínica de Cliza,NA,NA,-17.5908113,-65.9332513,osm
3451,NA,CentroMedico,San Joaquín,NA,NA,-17.5910133,-65.9326371,osm
3452,NA,CentroMedico,Clínica Solidaria FIDES,Avenida René Vargas,NA,-16.4908635,-68.1769047,osm
3453,NA,CentroMedico,CSA Policlínico 9 de Abril,NA,NA,-16.4820638,-68.1207692,osm
3454,NA,CentroMedico,Centro Medico Ecologia,Avenida 6 de Marzo,NA,-16.5063962,-68.1633796,osm
3455,NA,CentroMedico,Centro Medico De La Piel,Avenida 6 de Marzo,NA,-16.5067167,-68.1634352,osm
3456,NA,CentroMedico,Clinica de Ojos,Avenida 6 de Marzo,NA,-16.5118248,-68.1651507,osm
3457,NA,CentroMedico,Clínica Maurer,Av. Melchor Pinto,NA,-17.7828301,-63.1712258,osm
3458,NA,CentroMedico,Centro de Salud Familiar,NA,NA,-16.5354134,-68.1907851,osm
3459,NA,CentroMedico,Centro Medico y Ecografia,Avenida Bolivia,NA,-16.5338009,-68.1912953,osm
3460,NA,CentroMedico,Centro Medico Y Dental,Avenida America,NA,-16.4931579,-68.1414105,osm
3461,NA,CentroMedico,Clinica de Ojos Codes,Avenida Sánchez Lima,NA,-16.5117567,-68.1263136,osm
3462,NA,CentroMedico,Clinica San Pablo,Calle Boqueron,NA,-16.5039395,-68.137654800000007,osm
3463,NA,CentroMedico,Johrei Center,Calle Pedro Salazar,NA,-16.511307,-68.1265074,osm
3464,NA,CentroMedico,Clinica 6 De Agosto,Avenida 6 de Agosto,NA,-16.5145309,-68.1211076,osm
3465,NA,CentroMedico,Centro Especialidades Medicas Miraflores,NA,NA,-16.495934,-68.121052,osm
3466,NA,CentroMedico,Centro Medico,Avenida Hernando Siles,NA,-16.5254548,-68.109172,osm
3467,NA,CentroMedico,Clinica De Varices,Avenida Hernando Siles,NA,-16.525508,-68.109058,osm
3468,NA,CentroMedico,Illimani,Calle Clavijo,NA,-16.5141562,-68.1204895,osm
3469,NA,CentroMedico,Colchões Ortobom,NA,NA,-17.7823988,-63.1676504,osm
3470,NA,CentroMedico,Medico,NA,NA,-16.5205186,-68.1574603,osm
3471,NA,CentroMedico,Centro Medico Divino Jesus,NA,NA,-16.528115,-68.1607236,osm
3472,NA,CentroMedico,Centro Medico Trinidad,NA,NA,-16.5339981,-68.1897728,osm
3473,NA,CentroMedico,Centro de Salud Avaroa,NA,NA,-16.5295549,-68.1856931,osm
3474,NA,CentroMedico,Centro Medico De Atención,NA,NA,-16.5340392,-68.1907101,osm
3475,NA,CentroMedico,Clinica Dental,NA,NA,-16.5236926,-68.1803008,osm
3476,NA,CentroMedico,Consultorio Dental,NA,NA,-16.5334155,-68.1916447,osm
3477,NA,CentroMedico,Clínica Dental,NA,NA,-16.5313282,-68.1938758,osm
3478,NA,CentroMedico,Clinica Dental,NA,NA,-16.521934,-68.2040722,osm
3479,NA,CentroMedico,Centro De Fisioterapia,NA,NA,-16.5185624,-68.2084111,osm
3480,NA,CentroMedico,Centro Medico Dental San Gabriel,NA,NA,-16.525424,-68.2012815,osm
3481,NA,CentroMedico,Rhesus,Calle Gabriel René Moreno,NA,-16.5417217,-68.078774,osm
3482,NA,CentroMedico,Mi Salud,Calle Gabriel René Moreno,NA,-16.5413778,-68.0798811,osm
3483,NA,CentroMedico,Analisis Clinico Alfa & Omega,Avenida Manuel Víctor García Lanza,NA,-16.5352992,-68.0753229,osm
3484,NA,CentroMedico,Consultorio Medico San Marcos,NA,NA,-16.5335516,-68.2156037,osm
3485,NA,CentroMedico,Clinica Gonzalo Delgadillo,Avenida Costanera,NA,-16.5468273,-68.0725266,osm
3486,NA,CentroMedico,Urgencia Medica Senor De La Cruz,NA,NA,-16.5255941,-68.2009887,osm
3487,NA,CentroMedico,NA,NA,NA,-16.5248542,-68.1993158,osm
3488,NA,CentroMedico,PS Pocoata,NA,NA,-17.6102031,-65.7264042,osm
3489,NA,CentroMedico,P.S. Saga Saga,NA,NA,-17.6545626,-65.6842794,osm
3490,NA,CentroMedico,Caja Salud Arani,NA,NA,-17.5705212,-65.775609,osm
3491,NA,CentroMedico,Policonsultorio Centro Social Japonés,Avenida Beni,NA,-17.7693708,-63.1782451,osm
3492,NA,CentroMedico,Centro de Salud 12 de Octubre,NA,NA,-16.5203155,-68.1661349,osm
3493,NA,CentroMedico,Clinica Virgen de Urkupiña,Avenida Mariano Bautista,NA,-16.4958147,-68.1468246,osm
3494,NA,CentroMedico,NA,NA,NA,-17.7679381,-63.1583028,osm
3495,NA,CentroMedico,Medico,NA,NA,-16.5145311,-68.1563531,osm
3496,NA,CentroMedico,Clinica,NA,NA,-16.5144974,-68.1565957,osm
3497,NA,CentroMedico,Clínica 4 de Noviembre,Tercer Anillo Interno,NA,-17.7792027,-63.2036038,osm
3498,NA,CentroMedico,Centro Medico,NA,NA,-16.5092355,-68.159507,osm
3499,NA,CentroMedico,Consultorio Medico Gabriel,NA,NA,-16.5085691,-68.1598937,osm
3500,NA,CentroMedico,Consultorio Medico Gabriel,NA,NA,-16.5083717,-68.1599751,osm
3501,NA,CentroMedico,Consultorio Medico,NA,NA,-16.509414,-68.1586283,osm
3502,NA,CentroMedico,Consultorio Medico De Pediatria,NA,NA,-16.5073093,-68.1606591,osm
3503,NA,CentroMedico,Clinica Dental,NA,NA,-16.5102296,-68.1593957,osm
3504,NA,CentroMedico,Consultorio Dental,NA,NA,-16.5091954,-68.1592786,osm
3505,NA,CentroMedico,Consultorio Medico,NA,NA,-16.506115,-68.1608321,osm
3506,NA,CentroMedico,Centro Medico,NA,NA,-16.5060648,-68.1608363,osm
3507,NA,CentroMedico,Consultorio Medico,NA,NA,-16.505988,-68.1608474,osm
3508,NA,CentroMedico,Centro Medico Universal,NA,NA,-16.5059573,-68.1608634,osm
3509,NA,CentroMedico,Centro Medico Ecografia,Avenida Buenos Aires,NA,-16.4962955,-68.1442796,osm
3510,NA,CentroMedico,Hospicio,NA,NA,-16.4970032,-68.1743261,osm
3511,NA,CentroMedico,Consultorio Medico,NA,NA,-17.7778622,-63.1719668,osm
3512,NA,CentroMedico,Centro Medico Familiar,Calle Chorolque,NA,-16.498041,-68.1446175,osm
3513,NA,CentroMedico,Ecografia,NA,NA,-16.504086,-68.16154,osm
3514,NA,CentroMedico,Clinica,Avenida Buenos Aires,NA,-16.5073224,-68.1429678,osm
3515,NA,CentroMedico,Clinica De Estetica Dental,NA,NA,-16.4983841,-68.1743618,osm
3516,NA,CentroMedico,Clinica Farmacia Fray Martin,Avenida Alfonso Ugarte,NA,-16.4980565,-68.1742826,osm
3517,NA,CentroMedico,Fisiterapia,NA,NA,-16.4904125,-68.2069001,osm
3518,NA,CentroMedico,Clinica Cruz Azul,NA,NA,-16.49034,-68.2072533,osm
3519,NA,CentroMedico,Centro Medico,NA,NA,-16.4897643,-68.2076079,osm
3520,NA,CentroMedico,Centro Medico De Especialidades,NA,NA,-16.5491721,-68.1915519,osm
3521,NA,CentroMedico,NA,NA,NA,-16.5025827,-68.1221202,osm
3522,NA,CentroMedico,Skin Spa,Avenida Los Cusis,NA,-17.7648683,-63.1722475,osm
3523,NA,CentroMedico,Prosalud - Clínica 1,Calle Sao,NA,-17.7666117,-63.1706199,osm
3524,NA,CentroMedico,Laboratorio de Análisis Clínico Urey,NA,NA,-17.7650817,-63.1580782,osm
3525,NA,CentroMedico,Centro Medico,NA,NA,-17.7600106,-63.1571893,osm
3526,NA,CentroMedico,Clínica Dental,NA,NA,-17.7620073,-63.1589244,osm
3527,NA,CentroMedico,Clinica Brasil,NA,NA,-17.7739176,-63.1538442,osm
3528,NA,CentroMedico,Enfermeria Salud,Calle Libertad,NA,-17.7789005,-63.1830947,osm
3529,NA,CentroMedico,Pil,Avenida Héroes del Chaco,NA,-16.5375326,-68.0482732,osm
3530,NA,CentroMedico,Centro Medico del Sur,Calle 21,NA,-16.5392565,-68.07828,osm
3531,NA,CentroMedico,Clinica Bethel,NA,NA,-17.7751858,-63.1786795,osm
3532,NA,CentroMedico,Diagnos Lab,Calle 21,NA,-16.5460777,-68.0764369,osm
3533,NA,CentroMedico,Labclinics,Calle 21,NA,-16.5405996,-68.0776183,osm
3534,NA,CentroMedico,Embriovid,Calle 21,NA,-16.5405472,-68.0776236,osm
3535,NA,CentroMedico,Neo Medic,Tercer Anillo Externo,NA,-17.7585885,-63.1836825,osm
3536,NA,CentroMedico,Centro de Medicina y Estética Embellece,Tercer Anillo Externo,NA,-17.7587909,-63.185093,osm
3537,NA,CentroMedico,INCOR Salud,NA,NA,-17.788786,-63.1943466,osm
3538,NA,CentroMedico,Clinica Nuclear,NA,NA,-17.7824263,-63.1872924,osm
3539,NA,CentroMedico,Consultorio Medico,NA,NA,-17.7935635,-63.1915535,osm
3540,NA,CentroMedico,SportsClinics,Calle Guatemala,NA,-17.775714,-63.1903085,osm
3541,NA,CentroMedico,Centro medico Foianini,Tercer Anillo Interno,NA,-17.7668968,-63.1987996,osm
3542,NA,CentroMedico,Ecografia,Calle Suárez Arana,NA,-17.7785945,-63.1750932,osm
3543,NA,CentroMedico,Centro Ginemast,Calle Ñuflo de Chávez,NA,-17.7849078,-63.172692,osm
3544,NA,CentroMedico,Ecografias- Rayos,Calle Buenos Aires,NA,-17.7811451,-63.1863702,osm
3545,NA,CentroMedico,Enfermeria,Calle Capitan Manuel Tovar,NA,-17.7608726,-63.1631726,osm
3546,NA,CentroMedico,Bebe Clinica,Avenida Landivar,NA,-17.784651,-63.1936885,osm
3547,NA,CentroMedico,Kanata,Avenida 6 de Agosto,NA,-17.4132695,-66.1590988,osm
3548,NA,CentroMedico,NEFRODIAL,Calle Buenos Aires,NA,-17.373586,-66.1594456,osm
3549,NA,CentroMedico,Laboratorio Clínico INMUNOLAB S.R.L.,Avenida Alemania,NA,-17.7671945,-63.1697477,osm
3550,NA,CentroMedico,Centro de Salud SAFCI + Mi Salud,NA,NA,-16.5457298,-68.1742207,osm
3551,NA,CentroMedico,Centro de Salud Rosas Pampa,Calle 25,NA,-16.5421203,-68.1721512,osm
3552,NA,CentroMedico,Centro de Salud Anexo Rosas Pampa,NA,NA,-16.5444561,-68.165975,osm
3553,NA,CentroMedico,Centro de Salud Villa Exaltación,Calle Alfredo Alexander,NA,-16.5362146,-68.1576704,osm
3554,NA,CentroMedico,Centro de Salud Maria Madre de Dios,Calle 3,NA,-16.5076379,-68.158555,osm
3555,NA,CentroMedico,Centro de Salud Boliviano Japones,NA,NA,-16.5844352,-68.1859835,osm
3556,NA,CentroMedico,Centro de Salud Mercedes G,NA,NA,-16.5670934,-68.2041703,osm
3557,NA,CentroMedico,Centro de Salud Atipiris,NA,NA,-16.5902068,-68.1808974,osm
3558,NA,CentroMedico,Torrecillas,RN1: Tarija-Padcaya,NA,-21.5523102,-64.677036,osm
3559,NA,CentroMedico,Centro de Salud San Carlos,NA,NA,-17.756329,-63.180301300000004,osm
3560,NA,CentroMedico,CODES,Calle Presbítero Medina,NA,-16.5117075,-68.1278007,osm
3561,NA,CentroMedico,Clínica del Ojo,Avenida Montenegro,NA,-16.5430871,-68.0782025,osm
3562,NA,CentroMedico,SISME,Avenida Sudamericana,NA,-17.8049985,-63.1473849,osm
3563,NA,CentroMedico,Santa Lucía,NA,NA,-17.3844668,-66.1547028,osm
3564,NA,CentroMedico,1 de Mayo,NA,NA,-19.5852889,-65.7567485,osm
3565,NA,CentroMedico,PS Las Pampitas,NA,NA,-17.7668701,-63.1192855,osm
3566,NA,CentroMedico,Rehabilitación Integral Especializada Ríe,Calle Oruro,NA,-17.7893243,-63.1724157,osm
3567,NA,CentroMedico,Alto Pampahasi,NA,NA,-16.49117,-68.1038087,osm
3568,NA,CentroMedico,Cruz Roja,NA,NA,-17.1198741,-63.2332783,osm
3569,NA,CentroMedico,Ecografía,Calle 5,NA,-16.5175592,-68.1514153,osm
3570,NA,CentroMedico,Willie Lemaitre,NA,NA,-17.7702134,-63.1978562,osm
3571,NA,CentroMedico,Laboratorio de Anàlisis Clìnico Central,Avenida H. Siles,NA,-19.0447625,-65.2585272,osm
3572,NA,CentroMedico,Clínica 4 de Diciembre,Avenida Ruben Castedo Barba,NA,-11.0045763,-66.0647412,osm
3573,NA,CentroMedico,Policlinico 25 de Mayo CNS,Capitán Agustín Ravelo,NA,-19.0459734,-65.2593971,osm
3574,NA,CentroMedico,Laboratorio BIOSLAB,Avenida Satélite,NA,-16.5236695,-68.152112,osm
3575,NA,CentroMedico,Caja Cordes,La Paz,NA,-21.2663546,-63.4747309,osm
3576,NA,CentroMedico,Clínica Nieves,NA,NA,-16.5134097,-68.1441003,osm
3577,NA,CentroMedico,Centro de Salud Villa Victoria,NA,NA,-16.4911682,-68.1555225,osm
3578,NA,CentroMedico,Dr. Arancibia,Avenida El Palmar del Oratorio,NA,-17.8678701,-63.1669967,osm
3579,NA,CentroMedico,Clinica Preventiva Sur,Calle San Antonio,NA,-17.8304423,-63.122914,osm
3580,NA,CentroMedico,Cruz roja Potosí,NA,NA,-19.5857323,-65.7567211,osm
3581,NA,CentroMedico,Centro de Salud Candelaria,NA,NA,-17.9483806,-67.1061161,osm
3582,NA,CentroMedico,Clínica San Felipe,NA,NA,-17.951257,-67.1100239,osm
3583,NA,CentroMedico,Centro medico,NA,NA,-17.9505874,-67.1131083,osm
3584,NA,CentroMedico,Clínica Remar,NA,NA,-17.9397191,-67.1157197,osm
3585,NA,CentroMedico,Servicio de Salud Integral Luz y Vida,NA,NA,-17.9286929,-67.1192475,osm
3586,NA,CentroMedico,Consultorio Medico Junta de Vecinos Los Pinos,NA,NA,-17.926563,-67.1303853,osm
3587,NA,CentroMedico,Servisio de Salud,NA,NA,-17.9673993,-67.1379097,osm
3588,NA,CentroMedico,Posta de Salud Plan 500,NA,NA,-17.9791987,-67.1422807,osm
3589,NA,CentroMedico,Consultorio Medico Zonal,NA,NA,-17.9812151,-67.1337734,osm
3590,NA,CentroMedico,Centro de Salud Integral Apiterapia,NA,NA,-17.9871363,-67.1336661,osm
3591,NA,CentroMedico,Fraternidad Cristiana de Personas Discapacitadas,NA,NA,-17.9787777,-67.1289253,osm
3592,NA,CentroMedico,Consultorio Medico,NA,NA,-17.9784205,-67.1337962,osm
3593,NA,CentroMedico,Centro de Salud Chiripujio,NA,NA,-17.9774,-67.1362021,osm
3594,NA,CentroMedico,Consultorio Medico Becerra,NA,NA,-17.9525042,-67.1123947,osm
3595,NA,CentroMedico,Fisio Sana,NA,NA,-17.3725739,-66.1723039,osm
3596,NA,CentroMedico,Centro de Rehabilitación Infantil Profesor Mario Parma,Avenida naciones Unidas,NA,-16.4867596,-68.1572259,osm
3597,NA,CentroMedico,Huari,NA,NA,-19.0111543,-66.776556,osm
3598,NA,CentroMedico,Santa Catalina,NA,NA,-17.867289800000002,-63.1407621,osm
3599,NA,CentroMedico,Caja nacional de Salud,NA,NA,-21.8278635,-63.7450033,osm
3600,NA,CentroMedico,Centro de Salud Integral Sica Sica,NA,NA,-17.3332754,-67.7411832,osm
3601,NA,CentroMedico,Centro de Salud Caracollo,NA,NA,-17.637219,-67.2173522,osm
3602,NA,CentroMedico,Centro de Salud de Bella Vista,NA,NA,-16.5303923,-68.0949132,osm
3603,NA,CentroMedico,Consultorio naturista Kolpin,NA,NA,-17.7536923,-62.995199,osm
3604,NA,CentroMedico,Villa Rosario,Av. Destacamento Chuquisaca,NA,-19.0574614,-65.2710794,osm
3605,NA,CentroMedico,Embriovid,Enrique Finot,NA,-17.7706414,-63.1936783,osm
3606,NA,CentroMedico,BioEstética,Calle Gaspar Jurado,NA,-16.5286251,-68.0877082,osm
3607,NA,CentroMedico,Centro de Salud 8 de Diciembre,NA,NA,-16.5183515,-68.1331403,osm
3608,NA,CentroMedico,Munaypata,NA,NA,-16.4873895,-68.1595369,osm
3609,NA,CentroMedico,Puesto de Salud Tablas Monte,NA,NA,-17.0801593,-65.9998144,osm
3610,NA,CentroMedico,Terapia de parbiomagnetismo,NA,NA,-17.348852,-63.281005,osm
3611,NA,CentroMedico,Clínica El Trompillo,Zoilo Flores,NA,-17.8010941,-63.1716915,osm
3612,NA,CentroMedico,Centro de Salud Thola Pampa,NA,NA,-18.4586652,-65.594244,osm
3613,NA,CentroMedico,San Martin,NA,NA,-22.0878869,-65.5961382,osm
3614,NA,CentroMedico,Divino Maestro,NA,NA,-16.5237693,-68.1059386,osm
3615,NA,CentroMedico,España,NA,NA,-17.4574338,-66.1561083,osm
3616,NA,CentroMedico,NA,Manuripi,NA,-17.4099413,-66.1510374,osm
3617,NA,CentroMedico,Clínica Médica Aranes,NA,NA,-17.8476191,-63.0903086,osm
3618,NA,CentroMedico,Los Olivos,Avenida Melchor Pérez de Olguín,NA,-17.3776905,-66.1763088,osm
3619,NA,CentroMedico,Centro de Salud San Juan Kenko,NA,NA,-16.5668781,-68.1931747,osm
3620,NA,CentroMedico,Primeros Auxilios,Calle Plaza Libertad,NA,-16.4947469,-68.1736518,osm
3621,NA,CentroMedico,Caja nacional de Salud,Calle El Retiro,NA,-22.0332555,-63.6808011,osm
3622,NA,CentroMedico,Clínica San Roque,Calle Juan XXIII,NA,-22.0199661,-63.6776959,osm
3623,NA,CentroMedico,AudioCien,NA,NA,-17.3897524,-66.1506889,osm
3624,NA,CentroMedico,Recupel Medicina Capilar,Calle Enrique Penaranda,NA,-16.5422765,-68.0797007,osm
3625,NA,CentroMedico,Orthosystem,Guillermo B. Rodrígez,NA,-17.7677239,-63.1883876,osm
3626,NA,CentroMedico,Centro de Salud Kupini,NA,NA,-16.5118003,-68.0987426,osm
3627,NA,CentroMedico,Centro de Salud Lacma,Calle Virgen del Carmen,NA,-17.4344673,-66.1560302,osm
3628,NA,CentroMedico,Pacata,Avenida Circunvalación Beijing,NA,-17.3735606,-66.1242667,osm
3629,NA,CentroMedico,Clínica Villa México,Calle Virgen de Urkupiña,NA,-17.4387214,-66.1570468,osm
3630,NA,CentroMedico,Kinesio Vida,NA,NA,-14.8349561,-64.9034897,osm
3631,NA,CentroMedico,Insumos Medicos IS MARCE,NA,NA,-14.8312793,-64.8998058,osm
3632,NA,CentroMedico,Policlínica Especialidades La Paz,NA,NA,-16.5015613,-68.1204576,osm
3633,NA,CentroMedico,Odonto Molina,NA,NA,-17.7930184,-63.1794885,osm
3634,NA,CentroMedico,Aranda,NA,NA,-16.4966723,-68.124205,osm
3635,NA,CentroMedico,Centro de salud Los Bosques,NA,NA,-17.8122018,-63.2147835,osm
3636,NA,CentroMedico,Laboratorio Clínico BIO-EXAM,Avenida Diego de Portugal,NA,-16.5191743,-68.1518266,osm
3637,NA,CentroMedico,Cantuta,NA,NA,-17.3971189,-66.194008,osm
3638,NA,CentroMedico,CS Enrique Aponte,NA,NA,-17.7662363,-63.186337,osm
3639,NA,CentroMedico,PROSALUD 16 de Julio,Avenida Juan Pablo II,NA,-16.5011825,-68.1711319,osm
3640,NA,CentroMedico,Clinica Dental,Avenida Circunvalación,NA,-21.5381779,-64.7116694,osm
3641,NA,CentroMedico,Centro de Salud,NA,NA,-16.1334784,-62.0246527,osm
3642,NA,CentroMedico,PS Molleni,NA,NA,-19.7797464,-64.4622959,osm
3643,NA,CentroMedico,Centro de Salud Padre Kolbe,NA,NA,-17.3413713,-63.2657519,osm
3644,NA,CentroMedico,FisioPlus,NA,NA,-17.3763067,-66.1558449,osm
3645,NA,CentroMedico,Consultorio de Pediatria,Avenida Unión,NA,-19.5742525,-65.7630769,osm
3646,NA,CentroMedico,Cruz Roja Boliviana Filial Municipal El Alto,Avenida José Agustín,NA,-16.5320562,-68.1518843,osm
3647,NA,CentroMedico,CENFIDE Centro de Nutricion con Formato Integral de Especialidades San Antonio,Avenida Escalona y Aguero,NA,-16.5270451,-68.1578367,osm
3648,NA,CentroMedico,Centro de Ecografia,NA,NA,-18.9025328,-66.77152,osm
3649,NA,CentroMedico,Centro de Salud Bartolina Sisa,NA,NA,-16.4919652,-68.137294,osm
3650,NA,CentroMedico,Centro Municipal de Salud,NA,NA,-16.5002104,-68.1310759,osm
3651,NA,CentroMedico,SERMEDE,Avenida Ecuador,NA,-16.5103641,-68.1291724,osm
3652,NA,CentroMedico,Centro de Salud Lahuachaca,NA,NA,-17.3724836,-67.6785548,osm
3653,NA,CentroMedico,NA,NA,NA,-17.3863522,-67.6416025,osm
3654,NA,CentroMedico,Centro de Salud San Juan de Dios,Avenida Potosí,NA,-20.4702365,-66.8309875,osm
3655,NA,CentroMedico,NA,NA,NA,-20.7414901,-67.6596058,osm
3656,NA,CentroMedico,Centro de Especialidades Clínicas Vida,NA,NA,-16.4944501,-68.1341868,osm
3657,NA,CentroMedico,NA,NA,NA,-17.6247375,-62.7071046,osm
3658,NA,CentroMedico,Centro de Especialidades Del Norte,Avenida La Paz,NA,-16.4970376,-68.1846285,osm
3659,NA,CentroMedico,NA,NA,NA,-17.3847143,-66.159948,osm
3660,NA,CentroMedico,Paracelsus,NA,NA,-17.3866421,-66.1586241,osm
3661,NA,CentroMedico,Fisio,NA,NA,-17.3852572,-66.1611747,osm
3662,NA,CentroMedico,La Paz,NA,NA,-17.3866359,-66.1584586,osm
3663,NA,CentroMedico,Centro de Salud Juana Azurduy de Padilla,NA,NA,-17.3360539,-63.274765,osm
3664,NA,CentroMedico,CS de Turco,NA,NA,-18.1804979,-68.1936733,osm
3665,NA,CentroMedico,Policonsultorio Anexo 32,NA,NA,-17.3982502,-66.157703,osm
3666,NA,CentroMedico,Policonsultorio Regional La Paz,Calle Capitán Ravelo,NA,-16.5054916,-68.1279813,osm
3667,NA,CentroMedico,Bioclinic's,Avenida del Libertador,NA,-16.5189359,-68.116592,osm
3668,NA,CentroMedico,NA,Avenida General Galindo,NA,-17.3720872,-66.1428197,osm
3669,NA,CentroMedico,NA,NA,NA,-17.3797333,-66.0746699,osm
3670,NA,CentroMedico,CS Roque Aguilera,Santiago Vaca Guzmán,NA,-17.766024,-63.1863867,osm
3671,NA,CentroMedico,Clínica Santo Tomas,NA,NA,-16.4777795,-68.1839441,osm
3672,NA,CentroMedico,C.Medico Noruego Bolivariano,NA,NA,-16.4959048,-68.2110438,osm
3673,NA,CentroMedico,C.Medico Noruego,NA,NA,-16.4959084,-68.2118437,osm
3674,NA,CentroMedico,Policlínico Villa Adela,NA,NA,-16.524011,-68.2109705,osm
3675,NA,CentroMedico,Clínica San Francisco,NA,NA,-16.5174721,-68.160158,osm
3676,NA,CentroMedico,Hospital Monseñor Jesus Perez,Calle Daniel Calvo,NA,-19.0508124,-65.2552088,osm
3677,NA,CentroMedico,PROMED SRL,Ballivián,NA,-17.7832686,-63.1663961,osm
3678,NA,CentroMedico,Clinica Gaer,Calle M. Nuñez del Prado,NA,-16.4915886,-68.1168959,osm
3679,NA,CentroMedico,Clínica Europa,Calle Carrasco,NA,-16.4992477,-68.1206463,osm
3680,NA,CentroMedico,Chavez Rancho,NA,NA,-17.3949634,-66.1895139,osm
3681,NA,CentroMedico,Instituto Boliviano de Radioterapia y Oncologia IBRO,Avenida Unión,NA,-16.5106781,-68.1671907,osm
3682,NA,CentroMedico,Centro de Salud Pacata,NA,NA,-17.3656597,-66.1240989,osm
3683,NA,CentroMedico,Centro de Salud Villa Fátima,NA,NA,-21.4477246,-65.7165075,osm
3684,NA,CentroMedico,Clinica Prosalud,Avenida German Busch,NA,-16.4986707,-68.1207418,osm
3685,NA,CentroMedico,Centro medico internacional hope,Calle Las Retamas,NA,-16.5470196,-68.0892311,osm
3686,NA,CentroMedico,Posta de Salud Tuska Pujio,NA,NA,-17.4139613,-66.055814,osm
3687,NA,CentroMedico,Centro de Salud Potosí,Calle Linares,NA,-19.5892485,-65.7488483,osm
3688,NA,CentroMedico,Centros Medicos Chávez,NA,NA,-17.7892271,-63.1874169,osm
3689,NA,CentroMedico,Oncomed,NA,NA,-16.5000463,-68.1181961,osm
3690,NA,CentroMedico,Oncoclinic,NA,NA,-16.5079858,-68.1271986,osm
3691,NA,CentroMedico,Centro Medico Punata,NA,NA,-17.3747859,-66.2008934,osm
3692,NA,CentroMedico,Posta de Salud Petrolero,NA,NA,-10.9983286,-66.0480018,osm
3693,NA,CentroMedico,Policlínico Consultorio Cristo Rey,NA,NA,-17.3904393,-66.1717883,osm
3694,NA,CentroMedico,NA,NA,NA,-17.3811592,-66.1483684,osm
3695,NA,CentroMedico,NA,NA,NA,-17.4010398,-66.1720251,osm
3696,NA,CentroMedico,Caja de Seguro Social de Choferes,NA,NA,-17.3838004,-66.1592385,osm
3697,NA,CentroMedico,ARTRO CENTRO,Calle Aruma,NA,-17.7924662,-63.1949356,osm
3698,NA,CentroMedico,Asistencia publica,NA,NA,-17.9688922,-67.1158132,osm
3699,NA,CentroMedico,DarSalud,Avenida 20 de Octubre,NA,-16.5040358,-68.1341321,osm
3700,NA,CentroMedico,Be - Medicina Estética,Avenida Alfredo Ovando Candia,NA,-16.5202691,-68.0878946,osm
3701,NA,CentroMedico,C. de Salud,NA,NA,-19.5891441,-65.7561221,osm
3702,NA,CentroMedico,Tembladerani,Calle Canonigo Ayllon,NA,-16.510684,-68.1425878,osm
3703,NA,CentroMedico,FISIOTERAPIA,Calle La Paz,NA,-16.6476936,-68.2935412,osm
3704,NA,CentroMedico,Centro de salud Mallasa,NA,NA,-16.5692062,-68.0895503,osm
3705,NA,CentroMedico,Centro Medico Villa Bolivar,Calle 135,NA,-16.5243552,-68.1805402,osm
3706,NA,CentroMedico,"Centro de Salud ""Prefectural""",Calle 135,NA,-16.5248958,-68.180349,osm
3707,NA,CentroMedico,Clínica de la CSBP,Avenida Héctor Ormachea,NA,-16.5246261,-68.1126353,osm
3708,NA,CentroMedico,Clínica Cordes,NA,NA,-16.5419084,-68.0796552,osm
3709,NA,CentroMedico,Caja de Salud de la Banca Privada,Calle Eucaliptos,NA,-17.815723,-63.2103516,osm
3710,NA,CentroMedico,Fundación CEREFE,Calle 6,NA,-16.5102755,-68.1578948,osm
3711,NA,CentroMedico,Centro de Urología,NA,NA,-21.5263432,-64.7400545,osm
3712,NA,CentroMedico,Laboratorio San Roque,NA,NA,-21.5296898,-64.7331378,osm
3713,NA,CentroMedico,"Clínica de Ojos ""Dr. Aguirre Perez""",NA,NA,-21.5396639,-64.7185894,osm
3714,NA,CentroMedico,Centro de Salud 3 de Mayo,NA,NA,-21.514388,-64.7344789,osm
3715,NA,CentroMedico,NA,NA,NA,-21.5224315,-64.7365844,osm
3716,NA,CentroMedico,Centro de Salud 4 Esquinas,NA,NA,-17.3610954,-66.2278098,osm
3717,NA,CentroMedico,Perpetuo Socorro,NA,NA,-17.7745313,-63.2097522,osm
3718,NA,CentroMedico,Centro de Medicina Tradicional Kallawaya,Avenida Siglo XX,NA,-17.445606,-66.1253499,osm
3719,NA,CentroMedico,DermaSalud,Calle Republiquetas,NA,-17.7874708,-63.179767,osm
3720,NA,CentroMedico,Socorro Medico,Avenida Cívica,NA,-16.5152919,-68.154636,osm
3721,NA,CentroMedico,Prosalud,Calle La Colina,NA,-17.8182482,-63.2020164,osm
3722,NA,CentroMedico,Clinica Rengel,Calle Victor Sanjines,NA,-16.5152294,-68.1288658,osm
3723,NA,CentroMedico,Clinica San Camilo,Avenida Santa Cruz,NA,-15.8917861,-63.1885784,osm
3724,NA,CentroMedico,San Juan de Dios,NA,NA,-17.9774893,-67.1019098,osm
3725,NA,CentroMedico,Primeros Auxilios,NA,NA,-16.522611,-68.1693056,osm
3726,NA,CentroMedico,Clínica del Sur,NA,NA,-16.5256734,-68.1086741,osm
3727,NA,CentroMedico,Centro Medico,Avenida Venezuela,NA,-19.0417754,-65.2621626,osm
3728,NA,CentroMedico,Caja nacional de Salud,Calle Colquechaqua,NA,-18.4657082,-66.5702368,osm
3729,NA,CentroMedico,Delizias,NA,NA,-16.5503471,-68.2092753,osm
3730,NA,CentroMedico,Kolping - San Luis Tasa,NA,NA,-16.5263415,-68.1985536,osm
3731,NA,CentroMedico,Caja Petrolera de Salud,Calle Monseñor Salvatierra,NA,-17.7893061,-63.1827229,osm
3732,NA,CentroMedico,Clinica Dr. Agustin Mendez,Calle Señor de Malta,NA,-18.4909362,-64.1078739,osm
3733,NA,CentroMedico,Centro Ginecologico Pro-Mujer,Avenida Alemania,NA,-17.7564011,-63.1655209,osm
3734,NA,CentroMedico,Clinica Buena Salud,RN4: Santa Cruz-Cotoca,NA,-17.7710726,-63.1250802,osm
3735,NA,CentroMedico,Clinica Virgen de Cotoca,Calle Santa Barbara,NA,-17.7708408,-63.1226692,osm
3736,NA,CentroMedico,Centro de Salud San Martin,Avenida San Felipe,NA,-17.7651673,-63.1243014,osm
3737,NA,CentroMedico,Clinica Medica Viara Srl,Avenida Pando,NA,-17.7828676,-63.1637583,osm
3738,NA,CentroMedico,Centro de salud COPACABAna,NA,NA,-16.5403214,-68.1864707,osm
3739,NA,CentroMedico,OneDay,Calle El Paúro,NA,-17.7907289,-63.2234367,osm
3740,NA,CentroMedico,Centro medico Buen Samaritano,Calle Isaac Arias,NA,-16.5190364,-68.1588838,osm
3741,NA,CentroMedico,Centro de Salud Calama,NA,NA,-16.5227858,-68.1986169,osm
3742,NA,CentroMedico,Centro de Salud 3 de Mayo,Calle Luis Taborga,NA,-16.5509033,-68.211763,osm
3743,NA,CentroMedico,Brain Balance,Avenida República del Japón,NA,-17.7586108,-63.1693375,osm
3744,NA,CentroMedico,NEWLIFE,Avenida del Policía,NA,-16.5257898,-68.1529321,osm
3745,NA,CentroMedico,MedicLife - Diagnóstico Medico,Avenida Germán Busch,NA,-17.9541167,-67.1094124,osm
3746,NA,CentroMedico,Consultorio Medico y Enefermeria Virgen la Merced,"Avenida Froilan Tejerina frente al mercado abasto de norte, Shopin Ely",NA,-21.5123222,-64.7355357,osm
3747,NA,CentroMedico,insudent,NA,NA,-21.5348728,-64.7235203,osm
3748,NA,CentroMedico,Centro de salud de Chua Cocani,NA,NA,-16.1895395,-68.7488755,osm
3749,NA,CentroMedico,Clinica del dolor,NA,NA,-16.5451319,-68.0757943,osm
3750,NA,CentroMedico,Prosalud - Policonsultorio Colcapirhua,Avenida Gualberto Villarroel,NA,-17.3877132,-66.2173338,osm
3751,NA,CentroMedico,Clínica Santa Teresa,NA,NA,-16.4956404,-68.1194828,osm
3752,NA,CentroMedico,ESPERANZA,NA,NA,-16.5243395,-68.1516721,osm
3753,NA,CentroMedico,Oftamológico San Andrés,NA,NA,-16.5249331,-68.1519035,osm
3754,NA,CentroMedico,Centro Medico Verdolago,NA,NA,-11.0185232,-66.0488206,osm
3755,NA,CentroMedico,Clinica para Diabéticos,Avenida Juan Carlos Menini,NA,-11.0042164,-66.0656582,osm
3756,NA,CentroMedico,Marie Stopes Bolivia,Calle Nicolas Acosta,NA,-16.5017922,-68.1342625,osm
3757,NA,CentroMedico,Centro de Salud Alto Miraflores 3,Calle Adriana Pariente,NA,-16.479183,-68.1260085,osm
3758,NA,CentroMedico,Policlinico Central CNS,Calle Ingavi,NA,-16.4950686,-68.1339606,osm
3759,NA,CentroMedico,Caja de Ferroviarios,Calle Mercado,NA,-16.4979668,-68.1344004,osm
3760,NA,CentroMedico,Primeros Auxilios,Avenida Armentia,NA,-16.4902776,-68.1368873,osm
3761,NA,CentroMedico,VIRGEN DE COPACABAna,NA,NA,-16.4964906,-68.208923,osm
3762,NA,CentroMedico,BIOS-LAB,Calle de las Culturas 17 B,NA,-16.5237479,-68.1521731,osm
3763,NA,CentroMedico,Fisioterapia Violeta,Avenida José Manuel Villavicencio,NA,-17.3751565,-66.1957555,osm
3764,NA,CentroMedico,Primeros Auxilios,Avenida Panorámica,NA,-16.5192904,-68.1498999,osm
3765,NA,CentroMedico,Endoscopias,Avenida Diego de Portugal,NA,-16.5192276,-68.1518426,osm
3766,NA,CentroMedico,Rayos X,Avenida Diego de Portugal,NA,-16.5225883,-68.1529949,osm
6948,La Paz,CentroMedico,8 de Diciembre,C. Benedeto Vincenti y Circunvalación,2320913,-68.13306958,-16.51822901,gamlp
6949,La Paz,CentroMedico,Biblioteca,C. Martinez Monje,2472843 - 2325172,-68.1498271,-16.50486429,gamlp
6950,La Paz,CentroMedico,Pasankery,Av. Marcelo Quiroga,2320994,-68.14570939,-16.52290116,gamlp
6951,La Paz,CentroMedico,Kantutani,C. Romecín Campos,NA,-68.12390259,-16.51418748,gamlp
6952,La Paz,CentroMedico,La Gruta,Av. 9 de Abril,2325171,-68.15523409,-16.50654758,gamlp
6953,La Paz,CentroMedico,Llojeta,Av. Troncal Mario Mercado,2320982,-68.1382932,-16.53360406,gamlp
6954,La Paz,CentroMedico,Penal de San Pedro,Pza. San Pedro (Penal de San Pedro Interior),NA,-68.13452628,-16.5029727,gamlp
6955,La Paz,CentroMedico,San Luis,"C. Justo Avila y Chaco, Pza. las Americas",2417927,-68.1357025,-16.51067968,gamlp
6956,La Paz,CentroMedico,San Pedro Bajo,"C. General Gonzales #1328, Pza. Belzu",2495547,-68.1369098,-16.50073291,gamlp
6957,La Paz,CentroMedico,Alto Tacagua,C. Inca Roca e Inca Mayo,NA,-68.14971982,-16.51353595,gamlp
6958,La Paz,CentroMedico,Bajo Tacagua,"Av. Julio Tellez, Parada Minibus 211",2489552,-68.14586734,-16.51033881,gamlp
6959,La Paz,CentroMedico,Tembladerani,C. Canonigo Ayllon,2420002,-68.14266638,-16.51060821,gamlp
6960,La Paz,CentroMedico,Villa Nueva Potosí,C. Manuel Jofre #3614 y C. Ondarza,2489494,-68.14385325,-16.50740265,gamlp
6961,La Paz,CentroMedico,Caja de Caminos,C. Rosendo Gutierrez entre 20 de Octubre y 6 de Agosto #386,NA,-68.12754113,-16.50867793,gamlp
6962,La Paz,CentroMedico,Caja Petrolera de Salud La Paz,Av. 20 de Octubre y Rosendo Gutierrez,NA,-68.12792146,-16.5090324,gamlp
6963,La Paz,CentroMedico,9 de Abril,Av. 6 de Agosto Esq. Belisario Salinas  #2403,NA,-68.12583144,-16.50922699,gamlp
6964,La Paz,CentroMedico,Universitario,Av. 6 de Agosto,NA,-68.12366988,-16.51191078,gamlp
6965,La Paz,CentroMedico,C.I.E.S. La Paz,C. Boquerón y Colombia #1444,NA,-68.13699293,-16.50378746,gamlp
6966,La Paz,CentroMedico,Carmen Llojeta,C. H #4,NA,-68.13777925,-16.53212766,gamlp
6967,La Paz,CentroMedico,Pasankeri,C. 4 de Agosto,NA,-68.14177976,-16.52443941,gamlp
6968,La Paz,CentroMedico,El Carmen San Pedro,C. Canonigo Ayllon Pza. el Carmen,NA,-68.13802013,-16.50938447,gamlp
6969,La Paz,CentroMedico,Las Lomas,Entre C. 7 y C. F,NA,-68.13749931,-16.52386285,gamlp
6970,La Paz,CentroMedico,Marie Stopes - BOLIVIA,C. Conchitas,NA,-68.13365717,-16.50624516,gamlp
6971,La Paz,CentroMedico,Pro Mujer San Pedro,C. Canonigo Ayllón,NA,-68.13502958,-16.50615839,gamlp
6972,La Paz,CentroMedico,CEMEP,C. Reyes Ortiz,NA,-68.13174198,-16.50245629,gamlp
6973,La Paz,CentroMedico,Cemes,Av. 6 de Agosto Edificio Clavijo,NA,-68.12091109,-16.51416033,gamlp
6974,La Paz,CentroMedico,Pediatria Neont.P.,Av. 16 de Julio Edif. San Pablo 1er. Piso,NA,-68.13356129,-16.50135345,gamlp
6975,La Paz,CentroMedico,Reg. Policial #1,C. Colombia,NA,-68.13407733,-16.50060027,gamlp
6976,La Paz,CentroMedico,Sanjinez,Av. Buenos Aires Pza. Ramiro Castillo,NA,-68.14386403,-16.49399028,gamlp
6977,La Paz,CentroMedico,6 de Agosto,Av. 6 de Agosto Esq. Pedro Salazar,NA,-68.12112996,-16.51449534,gamlp
6978,La Paz,CentroMedico,Liendo,C. Aspiazu Esq. Ecuador,NA,-68.13051994,-16.50868996,gamlp
6979,La Paz,CentroMedico,Paraná,C. Sagarnaga #659,NA,-68.14094571,-16.49988136,gamlp
6980,La Paz,CentroMedico,San Pablo,Av. Ecuador #2416 entre Boquerón y Colombia,NA,-68.13761152,-16.50390897,gamlp
6981,La Paz,CentroMedico,Virgen de Asunción,Av. 6 de Agosto #2899 entre c. clavijo,NA,-68.12081217,-16.51433203,gamlp
6982,La Paz,CentroMedico,CLINIMED SRL,Av. 6 de Agosoto #2440,NA,-68.12204573,-16.513543,gamlp
6983,La Paz,CentroMedico,Policial Virgen de Copacabana,C. Luis Uría de la Oliva,NA,-68.12796677,-16.5152657,gamlp
6984,La Paz,CentroMedico,Alto Mcal.Santa Cruz,"Av. Segundo Bascones, Parada Minibus 395",2394011,-68.16232081,-16.49378146,gamlp
6985,La Paz,CentroMedico,Bajo Tejar,Pza. 27 de Mayo,2380928,-68.15420432,-16.49538125,gamlp
6986,La Paz,CentroMedico,Ciudadela Ferroviaria,"C. 1 Sede Social Junta de Vecinos, Frente Escuela Tapia",2324156,-68.15008425,-16.45716862,gamlp
6987,La Paz,CentroMedico,Munaypata,"Av. naciones Unidas, frente Complejo Deportivo",2397756,-68.15939711,-16.48731015,gamlp
6988,La Paz,CentroMedico,Obispo Indaburo,C. Obispo Balderrama  Nº 1448 frente al Col.  Educativo Libertad.,2472084,-68.14917434,-16.50038163,gamlp
6989,La Paz,CentroMedico,Said,C. 21 de Enero #29,2384660,-68.1511406,-16.48219223,gamlp
6990,La Paz,CentroMedico,Panticirca,"Av. 3, Frente a la Escuela Lucio Velasco",NA,-68.15834085,-16.46007406,gamlp
6991,La Paz,CentroMedico,Villa Victoria,Av. República Esq. C. Tupiza #1896,2385938,-68.15590039,-16.49105306,gamlp
6992,La Paz,CentroMedico,Chamoco Chico,"Av. Segundo Bascones, Segundo Puente Topater",2471333,-68.15416435,-16.50162181,gamlp
6993,La Paz,CentroMedico,El Tejar,C. Damas de Cotagaita S/N Pza. Tte. Max Garcia,2471332,-68.15595663,-16.49761114,gamlp
6994,La Paz,CentroMedico,La Portada,Av. Florida y C. Carlos Quintanilla lado  Parroquia Nuestra señora de Copacabana.,2395329,-68.16492861,-16.48933534,gamlp
6995,La Paz,CentroMedico,La Paz,Pza. 14 de Septiembre Garita de Lima,NA,-68.14585827,-16.4960034,gamlp
6996,La Paz,CentroMedico,18 de Mayo,C. Raul Salmón s/n Cj. Salamanca,NA,-68.14691868,-16.49257452,gamlp
6997,La Paz,CentroMedico,Ceprosi,Av. naciones Unidas,NA,-68.15561496,-16.48719114,gamlp
6998,La Paz,CentroMedico,Apumalla,"Av. Apumalla, lado Parque Huallparimachi",NA,-68.15051858,-16.49259896,gamlp
6999,La Paz,CentroMedico,Juan XXII,Av. naciones Unidas C. Juan XXIII,NA,-68.15782647,-16.48738202,gamlp
7000,La Paz,CentroMedico,Suma Warmi,C. Max Paredes #491,NA,-68.144541039999993,-16.49628661,gamlp
7001,La Paz,CentroMedico,Urkupiña,Av. Bautista,NA,-68.14687645,-16.49579824,gamlp
7002,La Paz,CentroMedico,Achachicala,"Av. Chacaltaya #1502, frente Esc. Industrial Pedro Domingo Murillo",2320556,-68.15097219,-16.47555265,gamlp
7003,La Paz,CentroMedico,San Juan Lazareto,Av. Tejada Sorzano esq. San Salvador,2322298,-68.12754574,-16.48781008,gamlp
7004,La Paz,CentroMedico,Alto Miraflores,C. Urias Rodriguez y Adriana Pariente,NA,-68.12596906,-16.4791482,gamlp
7005,La Paz,CentroMedico,El Calvario,Av. Periférica y C. Juan de la Cruz Monje (lado Colegio Adolfo Costa Durels),2320442,-68.13461424,-16.4854959,gamlp
7006,La Paz,CentroMedico,Juancito Pinto,C. Graneros y Murillo,NA,-68.13951666,-16.49464861,gamlp
7007,La Paz,CentroMedico,Plan Autopista,Av. Ramos Gavilan,2320584,-68.14662335,-16.45741464,gamlp
7008,La Paz,CentroMedico,Retén de Emergencias,Av. Simón Bolivar frente Mercado Camacho,NA,-68.13182024,-16.4998713,gamlp
7009,La Paz,CentroMedico,San José de natividad,C. 20 y Av. Costanera #26,2322415,-68.11497267,-16.47541144,gamlp
7010,La Paz,CentroMedico,Agua de la Vida,Av. La Bandera Esq. C. La Cruz,2320446,-68.12987243,-16.49422068,gamlp
7011,La Paz,CentroMedico,Las Delicias,C. San José de Tipuani y Taca #398,NA,-68.12100724,-16.47391094,gamlp
7012,La Paz,CentroMedico,Vino Tinto,Av. Baltazar de Salas #51 Sede Junta de Vecinos,NA,-68.14167039,-16.48275495,gamlp
7013,La Paz,CentroMedico,Centro Penitenciario Miraflores,C. Diaz Romero y Argentina,NA,-68.11906631,-16.50098619,gamlp
7014,La Paz,CentroMedico,Central,C. Ingavi,NA,-68.13392153,-16.4951691,gamlp
7015,La Paz,CentroMedico,Manco Kapac,Av. Manco Kapac S/N,NA,-68.14322854,-16.49312445,gamlp
7016,La Paz,CentroMedico,Miraflores,Diaz Romero entre Av. Busch y Cuba,NA,-68.12042424,-16.50157217,gamlp
7017,La Paz,CentroMedico,Villa Fátima,C. Matias Terrazas S/N,NA,-68.12079175,-16.4821624,gamlp
7018,La Paz,CentroMedico,Banca Privada (Aramayo),C. Felix Reyes Ortiz Esq. Federico Zuazo Ed. Gundlach,NA,-68.13102792,-16.5019436,gamlp
7019,La Paz,CentroMedico,Caja Bancaria Estatal,C. Panama #1162,NA,-68.12324581,-16.49714037,gamlp
7020,La Paz,CentroMedico,C.O.R.D.E.S.,Av. Arce #2419,NA,-68.12480618,-16.50857024,gamlp
7021,La Paz,CentroMedico,PROSALUD (Alto Miraflores),Av. Periferica #12,NA,-68.12956932,-16.48311965,gamlp
7022,La Paz,CentroMedico,PROSALUD (Chuquiaguillo),Av. La Paz  Cotapata #11,NA,-68.11446423,-16.46977847,gamlp
7023,La Paz,CentroMedico,PROSALUD (Tejada Sorzano),Esq. San Salvador S/N,NA,-68.12595613,-16.49465484,gamlp
7024,La Paz,CentroMedico,Villa Fátima,Av. Las Delicias Esq. Yanacachi S/N,NA,-68.1224092,-16.47863909,gamlp
7025,La Paz,CentroMedico,Pro Mujer 3 de Mayo,Av. Periferica Esq. Costanera #1658,NA,-68.15768139,-16.48606994,gamlp
7026,La Paz,CentroMedico,Pro Mujer Vino Tinto,Av Chacaltaya #892 Cruce Achachicala y Vino Tinto,NA,-68.14993339,-16.47730165,gamlp
7027,La Paz,CentroMedico,CEMSE,Entre Pichincha y Sucre Edif. Cemse Piso 3,NA,-68.13494891,-16.49262621,gamlp
7028,La Paz,CentroMedico,San Antonio de Padua,C. Sagarnaga entre Murillo y San Francisco,NA,-68.13787924,-16.49697194,gamlp
7029,La Paz,CentroMedico,San Francisco de Asis,C. Costanera #170,NA,-68.11456655,-16.46962957,gamlp
7030,La Paz,CentroMedico,Señor Exaltación,Av. Final Baltazar de Salas  S/N,NA,-68.14396177,-16.4797545,gamlp
7031,La Paz,CentroMedico,CESDI,C. Suapi esq. Quiquibey #25,NA,-68.10460472,-16.46137411,gamlp
7032,La Paz,CentroMedico,Arco iris,Av. 15 de Abril #400 Barrio Gráfico,NA,-68.12033479,-16.48406207,gamlp
7033,La Paz,CentroMedico,Kupini,"Av. Rogelio Carrillo, Cancha Kupini lado Col. Sergio Villegas",2251810,-68.09867972,-16.5117471,gamlp
7034,La Paz,CentroMedico,Villa Copacabana (Pacasa),Av. Burgaleta cerca del Hospital Luis Uria,2322655,-68.11730057,-16.48420405,gamlp
7035,La Paz,CentroMedico,Pampahasi Alto,"C. K esq. D, Parada Minibus 332",2258222,-68.10377738,-16.49120182,gamlp
7036,La Paz,CentroMedico,Pampahasi Bajo,C. 4 detrás del Colegio Delia Gambarte de Quezada,2256896,-68.10169702,-16.50493999,gamlp
7037,La Paz,CentroMedico,San Antonio Alto,"Av. Josefa Mujia, S/N lado (Sub Alcaldia)",2239352,-68.10798108,-16.50016687,gamlp
7038,La Paz,CentroMedico,San Antonio Bajo,Av. Costanera entre Av. Regimiento Castrillo y 31 de Octubre S/N,2239678,-68.11605111,-16.49885216,gamlp
7039,La Paz,CentroMedico,San Isidro,"Plaza Elizardo Perez, Parada 210",2253837,-68.10845626,-16.514351,gamlp
7040,La Paz,CentroMedico,Kupini,"C. Barrizueta #133, 1/2 cuadra E. Uria",NA,-68.09736401,-16.50896791,gamlp
7041,La Paz,CentroMedico,Pro Mujer Villa Copacabana,Av. 31 de Oct,NA,-68.11678827,-16.49607461,gamlp
7042,La Paz,CentroMedico,San Gabriel,C. Nuñez del Prado Esq. P. Villamil S/N,NA,-68.11715231,-16.49142704,gamlp
7043,La Paz,CentroMedico,Valle Hermoso,"Av. Litoral  y C. Batallon Colorados, parada del mini bus 299",2322660,-68.11061064,-16.48895306,gamlp
7044,La Paz,CentroMedico,Pampahasi,C. E Esq. Av. 5 cerca mercado 23 de Enero,NA,-68.10093608,-16.50495755,gamlp
7045,La Paz,CentroMedico,NA,NA,NA,NA,NA,gamlp
7046,La Paz,CentroMedico,Alto Irpavi,Av. Circunvalación,2723186,-68.0845267,-16.51553203,gamlp
7047,La Paz,CentroMedico,Alto Següencoma,Pza. Cívica,2751550,-68.09993704,-16.53882566,gamlp
7048,La Paz,CentroMedico,Apaña,C. 34 B,NA,-68.05890539,-16.53832866,gamlp
7049,La Paz,CentroMedico,Bajo Llojeta,Av. Los Sargentos - entre C. 5 y C. 4,NA,-68.11720848,-16.52571097,gamlp
7050,La Paz,CentroMedico,NA,NA,NA,NA,NA,gamlp
7051,La Paz,CentroMedico,Mallasa,Pza. 2 de Febrero - C. 2 y 3,2323264,-68.08972236,-16.56932246,gamlp
7052,La Paz,CentroMedico,Mallasilla,C. D,NA,-68.0988511,-16.56566251,gamlp
7053,La Paz,CentroMedico,Obrajes,Av. Ormachea entre C. 15 y C. 16,2751039,-68.1028983,-16.52969411,gamlp
7054,La Paz,CentroMedico,Centro de Orientación Femenina,C. 7 y Diaz Villamil - Carcel de Mujeres,NA,-68.11003069,-16.52703073,gamlp
7055,La Paz,CentroMedico,Achumani,Av. José Manuel Chinchilla Esq. C. 15,2713981,-68.0747929,-16.53098592,gamlp
7056,La Paz,CentroMedico,Chasquipampa,C. General Toro y C. Teniente Morales,2794546,-68.04758292,-16.53873326,gamlp
7057,La Paz,CentroMedico,Bolognia,Av. Jose Garcia Lanza y Av. Caballero,2724785,-68.08720329,-16.52564431,gamlp
7058,La Paz,CentroMedico,Wiñay,Av. Defensores del Chaco #57,NA,-68.04922153,-16.53739263,gamlp
7059,La Paz,CentroMedico,Alto Obrajes,Av. del Maestro - Lado Pza. UFAQ,NA,-68.10589561,-16.52375738,gamlp
7060,La Paz,CentroMedico,San Pablo  (La Paz),C. 8 y 9 de Obrajes Av. Hernando Siles - Detrás de la Iglesia de Exaltación,NA,-68.10809118,-16.5265983,gamlp
7061,La Paz,CentroMedico,Del Sur,Av. Hernando Siles C. 7 #3539,NA,-68.10868856,-16.52570544,gamlp
7062,La Paz,CentroMedico,Metodista,Entre C. 11 y 12,NA,-68.10458206,-16.52696068,gamlp
7063,La Paz,CentroMedico,Trauma CLINIK SA,C. Claudio Aliaga #1271,NA,-68.07970742,-16.54202852,gamlp
7064,La Paz,CentroMedico,De Clínicas,Av. Saavedra,NA,-68.11925644,-16.50716177,gamlp
7065,La Paz,CentroMedico,De La Mujer,Av. Saavedra,NA,-68.11911947,-16.50833192,gamlp
7066,La Paz,CentroMedico,Del Niño,Av. Saavedra frente Estado Mayor,NA,-68.11839857,-16.50833735,gamlp
7067,La Paz,CentroMedico,Instituto nacional Salud Ocupacional,C. Claudio Sanjinez,NA,-68.11947168,-16.50566742,gamlp
7068,La Paz,CentroMedico,Instituto de Gastroenterología,Av. Saavedra,NA,-68.11820089,-16.50755564,gamlp
7069,La Paz,CentroMedico,Instituto nal.De Oftalmologia,C. Claudio Sanjinez,NA,-68.11873763,-16.50636882,gamlp
7070,La Paz,CentroMedico,Instituto nal.Del Torax,C. Claudio Sanjinez #1683,NA,-68.1181728,-16.50669706,gamlp
7071,La Paz,CentroMedico,Piloto,Av. Vasquez,NA,-68.14465345,-16.48855529,gamlp
7072,La Paz,CentroMedico,INLASA,Av. Saavedra #1889,NA,-68.11728071,-16.50874133,gamlp
7073,La Paz,CentroMedico,SELADIS,Av. Saavedra,NA,-68.12017548,-16.50700218,gamlp
7074,La Paz,CentroMedico,Centro de Especialidades,Av. Buenos Aires S/N Z 14 de Septiembre,NA,-68.14300668,-16.50631463,gamlp
7075,La Paz,CentroMedico,Geriátrica,C. Corneta Mamani,NA,-68.13104492,-16.50531268,gamlp
7076,La Paz,CentroMedico,Policlínico de Especialidades,Av. Diaz Romero #1408,NA,-68.12204693,-16.50162734,gamlp
7077,La Paz,CentroMedico,COSSMIL Hospital Militar,Av. Saavedra,NA,-68.12018939,-16.50511363,gamlp
7078,La Paz,CentroMedico,General  L.U.O,Av. Burgaleta,NA,-68.11678166,-16.48271,gamlp
7079,La Paz,CentroMedico,Obrero,Av. Brasil,NA,-68.11809434,-16.49941728,gamlp
7080,La Paz,CentroMedico,Materno Infantil,C. Villalobos,NA,-68.1177258,-16.50188667,gamlp
7081,La Paz,CentroMedico,Instituto de  Rehabilitación,C. 3 Obrajes,NA,-68.11189591,-16.52372939,gamlp
7082,La Paz,CentroMedico,Psiquiatrico San Juan de Dios,C. Braulio Vera,NA,-68.08381178,-16.49760934,gamlp
7083,La Paz,CentroMedico,Villa Salome,Av. La Paz de Ayacucho Esq. C. 7 Nogales,2322837,-68.09581437,-16.48672158,gamlp
7084,La Paz,CentroMedico,Bella Vista,Av. Pio XII,2783200,-68.09487025,-16.53033515,gamlp
7085,La Paz,CentroMedico,NA,NA,NA,NA,NA,gamlp
7086,La Paz,CentroMedico,C.M.I. Niño Kollo,"Tacagua, Av. 12 de Abril y 16 de Julio",2324015,-68.14907985,-16.50999398,gamlp
7087,La Paz,CentroMedico,Los Pinos,"C. 25, Lado del Mercado Los Pinos",NA,-68.07159291,-16.54232977,gamlp
7088,La Paz,CentroMedico,Psiquiatrico #14.,Entre Diaz Romero y Villalobos,NA,-68.12037991,-16.50247644,gamlp
7089,La Paz,CentroMedico,Centro Vocacional SOS,C. 2 de Febrero Esq. C.7,NA,-68.08737289,-16.57181525,gamlp
7090,La Paz,CentroMedico,Colegio aldeas Infantiles SOS,Av. Florida Esq. C. 7,NA,-68.08462859,-16.57007851,gamlp
7091,La Paz,CentroMedico,La Florida,Av. Costanera Esq. Av. Arequipa,NA,-68.09177218,-16.54521937,gamlp
7092,La Paz,CentroMedico,Clínica de Rehabilitación,C. Nicolas Fernandez naranjo Esq. Av Costanera,NA,-68.08169563,-16.54491694,gamlp
7093,La Paz,CentroMedico,Embriovid,Av. 21 Washington entre Adrian Patiño y Mariscal de Montenegro,NA,-68.0774765,-16.5405306,gamlp
7094,La Paz,CentroMedico,CIASE,Av. Defensores del Chaco Esq. C. 13,NA,-68.04603641,-16.53637137,gamlp
7095,La Paz,CentroMedico,Geriátrico Nuevo Amanecer,C. Villegas entre Av. 8 Max Toledo y C. 6 de Julio de la Vega Iturri,NA,-68.08507947,-16.52325317,gamlp
7096,La Paz,CentroMedico,Caja Petrolera,Av. 8 Andres de Santa Cruz entre Antonio Diaz Villamil y Costanera,NA,-68.10910155,-16.52831631,gamlp
7097,La Paz,CentroMedico,COMIBOL,C. 9 entre Antonio Diaz Villamil y Costanera,NA,-68.10837546,-16.52816558,gamlp
7098,La Paz,CentroMedico,Centro Felix Equino Zabala,C. 11 Esq. Final Antonio Diaz Villamil,NA,-68.10698324,-16.52850434,gamlp
7099,La Paz,CentroMedico,COF. OBRAJES,C. Roberto Jordan Cuellar 14 de septiembre,NA,-68.10976453,-16.52326716,gamlp
7100,La Paz,CentroMedico,El Rosal,Calle E y Calle Clivia,2320987,-68.13139501,-16.5342061,gamlp
7101,La Paz,CentroMedico,Sociedad Católica San José,C. 8,NA,-68.13614898,-16.52375589,gamlp
7102,La Paz,CentroMedico,Cotahuma,C. Moxos  C. 5 de Agosto,NA,-68.14469027,-16.51512931,gamlp
7103,La Paz,CentroMedico,COTAHUMA,Av. Jaimes Freyre y Av. Jaime Zudañez,NA,-68.13944689,-16.51542234,gamlp
7104,La Paz,CentroMedico,Húngara,C. Carlos Medinacelli final C. Severo Alonzo,NA,-68.13510553,-16.51289458,gamlp
7105,La Paz,CentroMedico,El Buen Pastor,C. Adan Sardon Z. entre Jaimes Freyre y Melchor Perez de Olguín,NA,-68.13294944,-16.51535249,gamlp
7106,La Paz,CentroMedico,MEDICENTRO,Av. 6 de Agosto casi Esq. Belizario Salinas,NA,-68.12592896,-16.50958784,gamlp
7107,La Paz,CentroMedico,Banco de Sangre,Av. Bautista Saavedra,NA,-68.11956607,-16.50729329,gamlp
7108,La Paz,CentroMedico,Ontológico (V),Av. Bautista Saavedra,NA,-68.11976671,-16.50624436,gamlp
7109,La Paz,CentroMedico,INSO,Av. Bautista Saavedra,NA,-68.11886226,-16.50683098,gamlp
7110,La Paz,CentroMedico,Morgue,Av. Bautista Saavedra,NA,-68.118221,-16.50616659,gamlp
7111,La Paz,CentroMedico,Asistencia Medica Integral,Av. Bautista Saavedra,NA,-68.11908695,-16.50596768,gamlp
7112,La Paz,CentroMedico,12 de Abril,C. Francisco Miranda Esq. Nicaragua,NA,-68.11921525,-16.5036884,gamlp
7113,La Paz,CentroMedico,Sagrado Corazón,Av. German Busch entre Diaz romero y Rosendo Villalobos,NA,-68.1212492,-16.50195237,gamlp
7114,La Paz,CentroMedico,Villa Armonía Policonsultorio,C. Juan XXIII Esq. San Juan,NA,-68.11259224,-16.50840845,gamlp
7115,La Paz,CentroMedico,Villa Armonía,"Av. Tupac Katari y C. 6, Parque Picapiedra",2322913,-68.10979536,-16.5080831,gamlp
7116,La Paz,CentroMedico,Posta Sanitaria San Antonio Cebtral,C. Circunvalación,NA,-68.10107807,-16.50636419,gamlp
7117,La Paz,CentroMedico,San Antonio,C. Mariano Antezana y Pasaje vehicular,NA,-68.11472439,-16.49482665,gamlp
7118,La Paz,CentroMedico,Escobar Uría,Av. H entre C. 7 y C. 9,NA,-68.10889199,-16.49276206,gamlp
7119,La Paz,CentroMedico,San Gabriel,C. Pedro Villamil Antonio Velazco,NA,-68.11663882,-16.49140955,gamlp
7120,La Paz,CentroMedico,Pacasa,C. Unión,NA,-68.11270559,-16.48358725,gamlp
7121,La Paz,CentroMedico,Alcoreza,"C. Alcoreza, 2 cuadras arriba Parada Micro 132",2324019,-68.15153684,-16.50909822,gamlp
7122,La Paz,CentroMedico,Villamil de Rada,C. Villamil de Rada,NA,-68.1516617,-16.50706078,gamlp
7123,La Paz,CentroMedico,Alto Chijini,Av. 9 de Abril,NA,-68.15561561,-16.50656988,gamlp
7124,La Paz,CentroMedico,Alto San Pedro,C. Zeballos Esq.  Buenos Aires,NA,-68.14267514,-16.5075087,gamlp
7125,La Paz,CentroMedico,Brasil,C. Pionero de Rochalde Esq. Canonigo Ayllon,NA,-68.13702572,-16.50676116,gamlp
7126,La Paz,CentroMedico,Rengel,C. Victor Sanjines,NA,-68.12890975,-16.51515922,gamlp
7127,La Paz,CentroMedico,Caja nacional de Salud,C. Almirante Grau Esq. Mariscal Santa Cruz,NA,-68.1349109,-16.49976813,gamlp
7128,La Paz,CentroMedico,La Paz Nro 2 Emergencias,C. Juan de La Riva Casi Esq. Bueno,NA,-68.13210647,-16.49881908,gamlp
7129,La Paz,CentroMedico,Modelo,C. Panamá,NA,-68.12347458,-16.49719715,gamlp
7130,La Paz,CentroMedico,Dermatológica,C. Guerrilleros Lanza,NA,-68.12259282,-16.49716789,gamlp
7131,La Paz,CentroMedico,Arandia,Av. Abel iturralde Esq. Uyuni,NA,-68.12413454,-16.49662071,gamlp
7132,La Paz,CentroMedico,Santa Fé,C. Jorge Saenz Esq. Heroes del pacifico,NA,-68.12382146,-16.49635941,gamlp
7133,La Paz,CentroMedico,Choferes 1º de Mayo,C. Aspiazu,NA,-68.1176445,-16.47063808,gamlp
7134,La Paz,CentroMedico,Caja de Salud,Av. Manco Kapac,NA,-68.14304142,-16.49374552,gamlp
7135,La Paz,CentroMedico,Politecnico 21 de Septiembre,C. Nuestra Señora de La Asunción,NA,-68.15340682,-16.49166652,gamlp
7136,La Paz,CentroMedico,18 de Mayo,C. Rubén Amezaga,2320580,-68.14643762,-16.47541572,gamlp
