[
  {
    "Id": 899,
    "Departamento": "Cochabamba",
    "Tipo": "Medico",
    "Nombre": "Alex Orozco",
    "Direccion": null,
    "Telefono": "68463810",
    "Latitud": null,
    "Longitud": null,
    "Fuente": "web"
  },
  {
    "Id": 900,
    "Departamento": "Cochabamba",
    "Tipo": "Medico",
    "Nombre": "Verónica Suarez",
    "Direccion": null,
    "Telefono": "72277875",
    "Latitud": null,
    "Longitud": null,
    "Fuente": "web"
  },
  {
    "Id": 901,
    "Departamento": "Cochabamba",
    "Tipo": "Medico",
    "Nombre": "Claudia Alejandra Huanca Villca",
    "Direccion": null,
    "Telefono": "72961505",
    "Latitud": null,
    "Longitud": null,
    "Fuente": "web"
  },
  {
    "Id": 902,
    "Departamento": "Cochabamba",
    "Tipo": "Medico",
    "Nombre": "Daniela Bazoalto",
    "Direccion": null,
    "Telefono": "70754241",
    "Latitud": null,
    "Longitud": null,
    "Fuente": "web"
  },
  {
    "Id": 903,
    "Departamento": "Cochabamba",
    "Tipo": "Medico",
    "Nombre": "Katherinne Carolina Espinoza",
    "Direccion": null,
    "Telefono": "70722190",
    "Latitud": null,
    "Longitud": null,
    "Fuente": "web"
  },
  {
    "Id": 904,
    "Departamento": "Cochabamba",
    "Tipo": "Medico",
    "Nombre": "Paola Salazar Rodríguez",
    "Direccion": null,
    "Telefono": "70399894",
    "Latitud": null,
    "Longitud": null,
    "Fuente": "web"
  },
  {
    "Id": 905,
    "Departamento": "Cochabamba",
    "Tipo": "Medico",
    "Nombre": "Rosimeri Flores Camacho",
    "Direccion": null,
    "Telefono": "70399894",
    "Latitud": null,
    "Longitud": null,
    "Fuente": "web"
  },
  {
    "Id": 906,
    "Departamento": "Cochabamba",
    "Tipo": "Medico",
    "Nombre": "Viviana Aliaga",
    "Direccion": null,
    "Telefono": "73089123",
    "Latitud": null,
    "Longitud": null,
    "Fuente": "web"
  },
  {
    "Id": 907,
    "Departamento": "Cochabamba",
    "Tipo": "Medico",
    "Nombre": "Maryfrance del Granado",
    "Direccion": null,
    "Telefono": "76955012",
    "Latitud": null,
    "Longitud": null,
    "Fuente": "web"
  },
  {
    "Id": 908,
    "Departamento": "Cochabamba",
    "Tipo": "Medico",
    "Nombre": "Jaime Escobar",
    "Direccion": null,
    "Telefono": "67406531",
    "Latitud": null,
    "Longitud": null,
    "Fuente": "web"
  },
  {
    "Id": 909,
    "Departamento": "Cochabamba",
    "Tipo": "Medico",
    "Nombre": "Josimar Rodríguez",
    "Direccion": null,
    "Telefono": "79491961",
    "Latitud": null,
    "Longitud": null,
    "Fuente": "web"
  },
  {
    "Id": 910,
    "Departamento": "Cochabamba",
    "Tipo": "Medico",
    "Nombre": "Nestor Hugo Mendieta",
    "Direccion": null,
    "Telefono": "68503743",
    "Latitud": null,
    "Longitud": null,
    "Fuente": "web"
  },
  {
    "Id": 911,
    "Departamento": "Cochabamba",
    "Tipo": "Medico",
    "Nombre": "Daniel Flores Mamani",
    "Direccion": null,
    "Telefono": "70385187",
    "Latitud": null,
    "Longitud": null,
    "Fuente": "web"
  },
  {
    "Id": 930,
    "Departamento": "La Paz",
    "Tipo": "Medico",
    "Nombre": "Dra. Miriam Parada",
    "Direccion": null,
    "Telefono": "72551657",
    "Latitud": null,
    "Longitud": null,
    "Fuente": "web"
  },
  {
    "Id": 931,
    "Departamento": "La Paz",
    "Tipo": "Medico",
    "Nombre": "Est. Fabrizzio Mora",
    "Direccion": null,
    "Telefono": "69927946",
    "Latitud": null,
    "Longitud": null,
    "Fuente": "web"
  },
  {
    "Id": 932,
    "Departamento": "La Paz",
    "Tipo": "Medico",
    "Nombre": "Dra. Marisol Molina",
    "Direccion": null,
    "Telefono": "70615300",
    "Latitud": null,
    "Longitud": null,
    "Fuente": "web"
  },
  {
    "Id": 933,
    "Departamento": "La Paz",
    "Tipo": "Medico",
    "Nombre": "Dra. Gabriela Hinojosa",
    "Direccion": null,
    "Telefono": "75820290",
    "Latitud": null,
    "Longitud": null,
    "Fuente": "web"
  },
  {
    "Id": 934,
    "Departamento": "La Paz",
    "Tipo": "Medico",
    "Nombre": "Dra. Daniela Cordero",
    "Direccion": null,
    "Telefono": "77754204",
    "Latitud": null,
    "Longitud": null,
    "Fuente": "web"
  },
  {
    "Id": 935,
    "Departamento": "La Paz",
    "Tipo": "Medico",
    "Nombre": "nadia Espinoza",
    "Direccion": null,
    "Telefono": "77233318",
    "Latitud": null,
    "Longitud": null,
    "Fuente": "web"
  },
  {
    "Id": 936,
    "Departamento": "La Paz",
    "Tipo": "Medico",
    "Nombre": "Ricardo Guaraz",
    "Direccion": null,
    "Telefono": "70549270",
    "Latitud": null,
    "Longitud": null,
    "Fuente": "web"
  },
  {
    "Id": 937,
    "Departamento": "La Paz",
    "Tipo": "Medico",
    "Nombre": "Raquel Guzman",
    "Direccion": null,
    "Telefono": "73026287",
    "Latitud": null,
    "Longitud": null,
    "Fuente": "web"
  },
  {
    "Id": 938,
    "Departamento": "La Paz",
    "Tipo": "Medico",
    "Nombre": "Monica Alvarez",
    "Direccion": null,
    "Telefono": "68139939",
    "Latitud": null,
    "Longitud": null,
    "Fuente": "web"
  },
  {
    "Id": 939,
    "Departamento": "La Paz",
    "Tipo": "Medico",
    "Nombre": "Mitel Aliaga",
    "Direccion": null,
    "Telefono": "73089923",
    "Latitud": null,
    "Longitud": null,
    "Fuente": "web"
  },
  {
    "Id": 940,
    "Departamento": "La Paz",
    "Tipo": "Medico",
    "Nombre": "Ruddy Blanco",
    "Direccion": null,
    "Telefono": "73036035",
    "Latitud": null,
    "Longitud": null,
    "Fuente": "web"
  },
  {
    "Id": 941,
    "Departamento": "La Paz",
    "Tipo": "Medico",
    "Nombre": "Fabrizzio Mora Polo",
    "Direccion": null,
    "Telefono": "69927946",
    "Latitud": null,
    "Longitud": null,
    "Fuente": "web"
  },
  {
    "Id": 942,
    "Departamento": "La Paz",
    "Tipo": "Medico",
    "Nombre": "Jhonathan Alexis Balcazar",
    "Direccion": null,
    "Telefono": "77500727",
    "Latitud": null,
    "Longitud": null,
    "Fuente": "web"
  },
  {
    "Id": 943,
    "Departamento": "La Paz",
    "Tipo": "Medico",
    "Nombre": "Kerly Villca Miranda",
    "Direccion": null,
    "Telefono": "73274652",
    "Latitud": null,
    "Longitud": null,
    "Fuente": "web"
  },
  {
    "Id": 944,
    "Departamento": "La Paz",
    "Tipo": "Medico",
    "Nombre": "Luis Martinez",
    "Direccion": null,
    "Telefono": "79617517",
    "Latitud": null,
    "Longitud": null,
    "Fuente": "web"
  },
  {
    "Id": 945,
    "Departamento": "La Paz",
    "Tipo": "Medico",
    "Nombre": "Yanela Vargas",
    "Direccion": null,
    "Telefono": "69762232",
    "Latitud": null,
    "Longitud": null,
    "Fuente": "web"
  },
  {
    "Id": 946,
    "Departamento": "La Paz",
    "Tipo": "Medico",
    "Nombre": "Dora Cadena",
    "Direccion": null,
    "Telefono": "73749045",
    "Latitud": null,
    "Longitud": null,
    "Fuente": "web"
  },
  {
    "Id": 947,
    "Departamento": "La Paz",
    "Tipo": "Medico",
    "Nombre": "Aramis Ardaya",
    "Direccion": null,
    "Telefono": "73218160",
    "Latitud": null,
    "Longitud": null,
    "Fuente": "web"
  },
  {
    "Id": 948,
    "Departamento": "La Paz",
    "Tipo": "Medico",
    "Nombre": "Vanessa Chino",
    "Direccion": null,
    "Telefono": "76273572",
    "Latitud": null,
    "Longitud": null,
    "Fuente": "web"
  },
  {
    "Id": 949,
    "Departamento": "La Paz",
    "Tipo": "Medico",
    "Nombre": "Carolina Bustillos",
    "Direccion": null,
    "Telefono": "68666681",
    "Latitud": null,
    "Longitud": null,
    "Fuente": "web"
  },
  {
    "Id": 950,
    "Departamento": "La Paz",
    "Tipo": "Medico",
    "Nombre": "Pablo Baldiviezo",
    "Direccion": null,
    "Telefono": "71176825",
    "Latitud": null,
    "Longitud": null,
    "Fuente": "web"
  },
  {
    "Id": 3767,
    "Departamento": null,
    "Tipo": "Medico",
    "Nombre": "Centro medico",
    "Direccion": null,
    "Telefono": null,
    "Latitud": -17.591,
    "Longitud": -65.935,
    "Fuente": "osm"
  },
  {
    "Id": 3768,
    "Departamento": null,
    "Tipo": "Medico",
    "Nombre": "Curandero Escobar",
    "Direccion": null,
    "Telefono": null,
    "Latitud": -17.5898,
    "Longitud": -65.9346,
    "Fuente": "osm"
  },
  {
    "Id": 3769,
    "Departamento": null,
    "Tipo": "Medico",
    "Nombre": "Puesto de Salud de Epizana Cruce",
    "Direccion": "RN7: Epizana-Comarapa",
    "Telefono": null,
    "Latitud": -17.6371,
    "Longitud": -65.229,
    "Fuente": "osm"
  },
  {
    "Id": 3770,
    "Departamento": null,
    "Tipo": "Medico",
    "Nombre": "Consultorio Medico",
    "Direccion": null,
    "Telefono": null,
    "Latitud": -17.844,
    "Longitud": -60.7437,
    "Fuente": "osm"
  },
  {
    "Id": 3771,
    "Departamento": null,
    "Tipo": "Medico",
    "Nombre": "Posta Municipal",
    "Direccion": null,
    "Telefono": null,
    "Latitud": -17.3965,
    "Longitud": -66.167,
    "Fuente": "osm"
  },
  {
    "Id": 3772,
    "Departamento": null,
    "Tipo": "Medico",
    "Nombre": "Maida",
    "Direccion": "Calle Aurelio Melean",
    "Telefono": null,
    "Latitud": -17.3913,
    "Longitud": -66.1476,
    "Fuente": "osm"
  },
  {
    "Id": 3773,
    "Departamento": null,
    "Tipo": "Medico",
    "Nombre": "Centro medico Callajchullpa",
    "Direccion": null,
    "Telefono": null,
    "Latitud": -17.3534,
    "Longitud": -66.2434,
    "Fuente": "osm"
  },
  {
    "Id": 3774,
    "Departamento": null,
    "Tipo": "Medico",
    "Nombre": null,
    "Direccion": null,
    "Telefono": null,
    "Latitud": -20.4603,
    "Longitud": -66.8215,
    "Fuente": "osm"
  },
  {
    "Id": 3775,
    "Departamento": null,
    "Tipo": "Medico",
    "Nombre": "Centro Medico Hermano Andrés Pedrón",
    "Direccion": null,
    "Telefono": null,
    "Latitud": -17.4605,
    "Longitud": -66.1236,
    "Fuente": "osm"
  },
  {
    "Id": 3776,
    "Departamento": null,
    "Tipo": "Medico",
    "Nombre": "Javier Rivero",
    "Direccion": null,
    "Telefono": null,
    "Latitud": -17.3908,
    "Longitud": -66.1486,
    "Fuente": "osm"
  },
  {
    "Id": 3777,
    "Departamento": null,
    "Tipo": "Medico",
    "Nombre": "Análisis Clínico FCSH",
    "Direccion": null,
    "Telefono": null,
    "Latitud": -17.7767,
    "Longitud": -63.1908,
    "Fuente": "osm"
  },
  {
    "Id": 3778,
    "Departamento": null,
    "Tipo": "Medico",
    "Nombre": "Centro de Salud La Familia",
    "Direccion": null,
    "Telefono": null,
    "Latitud": -17.3966,
    "Longitud": -66.2768,
    "Fuente": "osm"
  },
  {
    "Id": 3779,
    "Departamento": null,
    "Tipo": "Medico",
    "Nombre": "Centro Municipal de Salud San Antonio Bajo",
    "Direccion": null,
    "Telefono": null,
    "Latitud": -16.4989,
    "Longitud": -68.116,
    "Fuente": "osm"
  },
  {
    "Id": 3780,
    "Departamento": null,
    "Tipo": "Medico",
    "Nombre": "Santa Ana de Condebamba",
    "Direccion": null,
    "Telefono": null,
    "Latitud": -17.3571,
    "Longitud": -66.1778,
    "Fuente": "osm"
  },
  {
    "Id": 3781,
    "Departamento": null,
    "Tipo": "Medico",
    "Nombre": null,
    "Direccion": "Avenida Rubén Dario",
    "Telefono": null,
    "Latitud": -17.3916,
    "Longitud": -66.1377,
    "Fuente": "osm"
  },
  {
    "Id": 3782,
    "Departamento": null,
    "Tipo": "Medico",
    "Nombre": "Centro de Fisioterapia",
    "Direccion": "Avenida Circunvalación Beijing",
    "Telefono": null,
    "Latitud": -17.3637,
    "Longitud": -66.1655,
    "Fuente": "osm"
  },
  {
    "Id": 3783,
    "Departamento": null,
    "Tipo": "Medico",
    "Nombre": "Consultorio Psicologico Tukuypaj",
    "Direccion": "Avenida Circunvalación Beijing",
    "Telefono": null,
    "Latitud": -17.3631,
    "Longitud": -66.168,
    "Fuente": "osm"
  },
  {
    "Id": 3784,
    "Departamento": null,
    "Tipo": "Medico",
    "Nombre": "Fisioterapia",
    "Direccion": null,
    "Telefono": null,
    "Latitud": -17.3959,
    "Longitud": -66.1549,
    "Fuente": "osm"
  },
  {
    "Id": 3785,
    "Departamento": null,
    "Tipo": "Medico",
    "Nombre": null,
    "Direccion": null,
    "Telefono": null,
    "Latitud": -17.7831,
    "Longitud": -63.2096,
    "Fuente": "osm"
  },
  {
    "Id": 3786,
    "Departamento": null,
    "Tipo": "Medico",
    "Nombre": null,
    "Direccion": null,
    "Telefono": null,
    "Latitud": -17.7846,
    "Longitud": -63.2097,
    "Fuente": "osm"
  },
  {
    "Id": 3787,
    "Departamento": null,
    "Tipo": "Medico",
    "Nombre": null,
    "Direccion": "Avenida Salamanca",
    "Telefono": null,
    "Latitud": -17.3873,
    "Longitud": -66.1549,
    "Fuente": "osm"
  },
  {
    "Id": 3788,
    "Departamento": null,
    "Tipo": "Medico",
    "Nombre": "Central Médica",
    "Direccion": null,
    "Telefono": null,
    "Latitud": -17.8079,
    "Longitud": -63.2057,
    "Fuente": "osm"
  },
  {
    "Id": 3789,
    "Departamento": null,
    "Tipo": "Medico",
    "Nombre": "Posta de Salud",
    "Direccion": null,
    "Telefono": null,
    "Latitud": -17.3912,
    "Longitud": -66.1182,
    "Fuente": "osm"
  },
  {
    "Id": 3790,
    "Departamento": null,
    "Tipo": "Medico",
    "Nombre": "Dr. Jaime Marañon",
    "Direccion": "Calle J. Crisóstomo Carrillo",
    "Telefono": null,
    "Latitud": -17.383,
    "Longitud": -66.153,
    "Fuente": "osm"
  },
  {
    "Id": 3791,
    "Departamento": null,
    "Tipo": "Medico",
    "Nombre": "Salud & Vida",
    "Direccion": "Avenida República",
    "Telefono": null,
    "Latitud": -17.4086,
    "Longitud": -66.151,
    "Fuente": "osm"
  },
  {
    "Id": 3792,
    "Departamento": null,
    "Tipo": "Medico",
    "Nombre": "Germán Melgarejo",
    "Direccion": null,
    "Telefono": null,
    "Latitud": -17.7716,
    "Longitud": -63.1545,
    "Fuente": "osm"
  },
  {
    "Id": 3793,
    "Departamento": null,
    "Tipo": "Medico",
    "Nombre": "Posta Médica Ovejuyo",
    "Direccion": null,
    "Telefono": null,
    "Latitud": -16.5356,
    "Longitud": -68.0388,
    "Fuente": "osm"
  },
  {
    "Id": 3794,
    "Departamento": null,
    "Tipo": "Medico",
    "Nombre": "Medico",
    "Direccion": null,
    "Telefono": null,
    "Latitud": -17.7407,
    "Longitud": -63.1482,
    "Fuente": "osm"
  },
  {
    "Id": 3795,
    "Departamento": null,
    "Tipo": "Medico",
    "Nombre": "Doctora Gaby Camacho Quezada",
    "Direccion": "Calle Chuquisaca",
    "Telefono": null,
    "Latitud": -17.7864,
    "Longitud": -63.1802,
    "Fuente": "osm"
  },
  {
    "Id": 3796,
    "Departamento": null,
    "Tipo": "Medico",
    "Nombre": "OHM",
    "Direccion": null,
    "Telefono": null,
    "Latitud": -17.7877,
    "Longitud": -63.1801,
    "Fuente": "osm"
  },
  {
    "Id": 3797,
    "Departamento": null,
    "Tipo": "Medico",
    "Nombre": "Doctora Carmen Elsa Calzin de Rueda",
    "Direccion": "Calle Beni",
    "Telefono": null,
    "Latitud": -17.7754,
    "Longitud": -63.1811,
    "Fuente": "osm"
  },
  {
    "Id": 3798,
    "Departamento": null,
    "Tipo": "Medico",
    "Nombre": null,
    "Direccion": "Calle Republiquetas",
    "Telefono": null,
    "Latitud": -17.7863,
    "Longitud": -63.1749,
    "Fuente": "osm"
  },
  {
    "Id": 3799,
    "Departamento": null,
    "Tipo": "Medico",
    "Nombre": "Dr. Jorge B. Verastegui Lijerón",
    "Direccion": null,
    "Telefono": null,
    "Latitud": -17.7946,
    "Longitud": -63.1856,
    "Fuente": "osm"
  },
  {
    "Id": 3800,
    "Departamento": null,
    "Tipo": "Medico",
    "Nombre": "Consultorio Medico Santa Ana",
    "Direccion": null,
    "Telefono": null,
    "Latitud": -17.7958,
    "Longitud": -63.2095,
    "Fuente": "osm"
  },
  {
    "Id": 3801,
    "Departamento": null,
    "Tipo": "Medico",
    "Nombre": "Centro Medico Rayos",
    "Direccion": "Avenida República",
    "Telefono": null,
    "Latitud": -16.4918,
    "Longitud": -68.1513,
    "Fuente": "osm"
  },
  {
    "Id": 3802,
    "Departamento": null,
    "Tipo": "Medico",
    "Nombre": "Consultorio Endocrinológico Integral - Dr. J. Efraín Castro",
    "Direccion": "Calle Asai",
    "Telefono": null,
    "Latitud": -17.7629,
    "Longitud": -63.1686,
    "Fuente": "osm"
  },
  {
    "Id": 3803,
    "Departamento": null,
    "Tipo": "Medico",
    "Nombre": null,
    "Direccion": null,
    "Telefono": null,
    "Latitud": -17.8005,
    "Longitud": -63.159,
    "Fuente": "osm"
  },
  {
    "Id": 3804,
    "Departamento": null,
    "Tipo": "Medico",
    "Nombre": "Consultorio Medico Palacios",
    "Direccion": "Avenida Adolfo Román Hijo",
    "Telefono": null,
    "Latitud": -17.8121,
    "Longitud": -63.1327,
    "Fuente": "osm"
  },
  {
    "Id": 3805,
    "Departamento": null,
    "Tipo": "Medico",
    "Nombre": "GInecologia Consultorio",
    "Direccion": null,
    "Telefono": null,
    "Latitud": -17.8075,
    "Longitud": -63.1369,
    "Fuente": "osm"
  },
  {
    "Id": 3806,
    "Departamento": null,
    "Tipo": "Medico",
    "Nombre": "Puesto de Salud Choquetanga Grande",
    "Direccion": null,
    "Telefono": null,
    "Latitud": -16.8378,
    "Longitud": -67.3185,
    "Fuente": "osm"
  },
  {
    "Id": 3807,
    "Departamento": null,
    "Tipo": "Medico",
    "Nombre": "Gastroservic",
    "Direccion": "Avenida Mutualista",
    "Telefono": null,
    "Latitud": -17.7699,
    "Longitud": -63.1664,
    "Fuente": "osm"
  },
  {
    "Id": 3808,
    "Departamento": null,
    "Tipo": "Medico",
    "Nombre": "Kineser",
    "Direccion": "Tercer Anillo Externo",
    "Telefono": null,
    "Latitud": -17.7586,
    "Longitud": -63.1836,
    "Fuente": "osm"
  },
  {
    "Id": 3809,
    "Departamento": null,
    "Tipo": "Medico",
    "Nombre": "Huayllani Chico",
    "Direccion": "Camino Sacaba-Palca",
    "Telefono": null,
    "Latitud": -17.388,
    "Longitud": -66.0581,
    "Fuente": "osm"
  },
  {
    "Id": 3810,
    "Departamento": null,
    "Tipo": "Medico",
    "Nombre": "Medicos Cristianos Solidarios",
    "Direccion": null,
    "Telefono": null,
    "Latitud": -17.7798,
    "Longitud": -63.1743,
    "Fuente": "osm"
  },
  {
    "Id": 3811,
    "Departamento": null,
    "Tipo": "Medico",
    "Nombre": "Centro de Salud Santa Rosa",
    "Direccion": "Santa Rosa Calle 4",
    "Telefono": null,
    "Latitud": -16.5359,
    "Longitud": -68.1675,
    "Fuente": "osm"
  },
  {
    "Id": 3812,
    "Departamento": null,
    "Tipo": "Medico",
    "Nombre": "Juan de Dios",
    "Direccion": "Calle 8",
    "Telefono": null,
    "Latitud": -16.5135,
    "Longitud": -68.1601,
    "Fuente": "osm"
  },
  {
    "Id": 3813,
    "Departamento": null,
    "Tipo": "Medico",
    "Nombre": "Adolfo Kolping",
    "Direccion": "Calle C Medina",
    "Telefono": null,
    "Latitud": -16.5111,
    "Longitud": -68.1571,
    "Fuente": "osm"
  },
  {
    "Id": 3814,
    "Departamento": null,
    "Tipo": "Medico",
    "Nombre": "Policonsultorio Virgen de Copacabana",
    "Direccion": "Calle 27 B",
    "Telefono": null,
    "Latitud": -16.5286,
    "Longitud": -68.1526,
    "Fuente": "osm"
  },
  {
    "Id": 3815,
    "Departamento": null,
    "Tipo": "Medico",
    "Nombre": "Centro naturopata",
    "Direccion": "Mario Flores",
    "Telefono": null,
    "Latitud": -17.7884,
    "Longitud": -63.1903,
    "Fuente": "osm"
  },
  {
    "Id": 3816,
    "Departamento": null,
    "Tipo": "Medico",
    "Nombre": "Centro Bronco-Pulmonar",
    "Direccion": null,
    "Telefono": null,
    "Latitud": -17.8092,
    "Longitud": -63.1959,
    "Fuente": "osm"
  },
  {
    "Id": 3817,
    "Departamento": null,
    "Tipo": "Medico",
    "Nombre": "ACUMED",
    "Direccion": "Avenida Heroínas",
    "Telefono": null,
    "Latitud": -17.3914,
    "Longitud": -66.1532,
    "Fuente": "osm"
  },
  {
    "Id": 3818,
    "Departamento": null,
    "Tipo": "Medico",
    "Nombre": "Centro de Salud Villa Adela",
    "Direccion": "Brasilia",
    "Telefono": null,
    "Latitud": -16.5228,
    "Longitud": -68.2121,
    "Fuente": "osm"
  },
  {
    "Id": 3819,
    "Departamento": null,
    "Tipo": "Medico",
    "Nombre": "Consultorio Medico Mi Salud",
    "Direccion": null,
    "Telefono": null,
    "Latitud": -16.495,
    "Longitud": -68.1724,
    "Fuente": "osm"
  },
  {
    "Id": 3820,
    "Departamento": null,
    "Tipo": "Medico",
    "Nombre": "Ortopedia Boliviano Aleman",
    "Direccion": "Avenida 6 de Agosto",
    "Telefono": null,
    "Latitud": -16.5115,
    "Longitud": -68.1238,
    "Fuente": "osm"
  },
  {
    "Id": 3821,
    "Departamento": null,
    "Tipo": "Medico",
    "Nombre": null,
    "Direccion": null,
    "Telefono": null,
    "Latitud": -16.2012,
    "Longitud": -68.903,
    "Fuente": "osm"
  },
  {
    "Id": 3822,
    "Departamento": null,
    "Tipo": "Medico",
    "Nombre": "Mirna",
    "Direccion": null,
    "Telefono": null,
    "Latitud": -20.4592,
    "Longitud": -66.8271,
    "Fuente": "osm"
  },
  {
    "Id": 3823,
    "Departamento": null,
    "Tipo": "Medico",
    "Nombre": "APS",
    "Direccion": null,
    "Telefono": null,
    "Latitud": -17.3791,
    "Longitud": -66.154,
    "Fuente": "osm"
  },
  {
    "Id": 3824,
    "Departamento": null,
    "Tipo": "Medico",
    "Nombre": "Vida Sana",
    "Direccion": "Calle 20 C",
    "Telefono": null,
    "Latitud": -16.5263,
    "Longitud": -68.1494,
    "Fuente": "osm"
  },
  {
    "Id": 3825,
    "Departamento": null,
    "Tipo": "Medico",
    "Nombre": "MEDICAR",
    "Direccion": "Avenida América",
    "Telefono": null,
    "Latitud": -17.3732,
    "Longitud": -66.1574,
    "Fuente": "osm"
  },
  {
    "Id": 3826,
    "Departamento": null,
    "Tipo": "Medico",
    "Nombre": "San Francisco de Asís",
    "Direccion": null,
    "Telefono": null,
    "Latitud": -17.3878,
    "Longitud": -66.1541,
    "Fuente": "osm"
  },
  {
    "Id": 3827,
    "Departamento": null,
    "Tipo": "Medico",
    "Nombre": "Consultorio Medico Profamilia",
    "Direccion": "Avenida Plan Tres Mil",
    "Telefono": null,
    "Latitud": -17.8261,
    "Longitud": -63.1332,
    "Fuente": "osm"
  },
  {
    "Id": 3828,
    "Departamento": null,
    "Tipo": "Medico",
    "Nombre": "Maria Inmaculada",
    "Direccion": null,
    "Telefono": null,
    "Latitud": -17.3703,
    "Longitud": -66.1235,
    "Fuente": "osm"
  },
  {
    "Id": 3829,
    "Departamento": null,
    "Tipo": "Medico",
    "Nombre": "Consultorio Medico integral del Brazo social",
    "Direccion": null,
    "Telefono": null,
    "Latitud": -16.5037,
    "Longitud": -68.1613,
    "Fuente": "osm"
  },
  {
    "Id": 3830,
    "Departamento": null,
    "Tipo": "Medico",
    "Nombre": "La Merced",
    "Direccion": "José María Asin",
    "Telefono": null,
    "Latitud": -16.495,
    "Longitud": -68.1521,
    "Fuente": "osm"
  },
  {
    "Id": 3831,
    "Departamento": null,
    "Tipo": "Medico",
    "Nombre": "ACUHOMED",
    "Direccion": "Avenida Papa Paulo",
    "Telefono": null,
    "Latitud": -17.3815,
    "Longitud": -66.1533,
    "Fuente": "osm"
  },
  {
    "Id": 3832,
    "Departamento": null,
    "Tipo": "Medico",
    "Nombre": null,
    "Direccion": null,
    "Telefono": null,
    "Latitud": -16.5039,
    "Longitud": -68.0828,
    "Fuente": "osm"
  },
  {
    "Id": 3833,
    "Departamento": null,
    "Tipo": "Medico",
    "Nombre": "Centro de salud Cota Cota",
    "Direccion": null,
    "Telefono": null,
    "Latitud": -16.5436,
    "Longitud": -68.0508,
    "Fuente": "osm"
  },
  {
    "Id": 3834,
    "Departamento": null,
    "Tipo": "Medico",
    "Nombre": null,
    "Direccion": null,
    "Telefono": null,
    "Latitud": -16.4799,
    "Longitud": -68.1207,
    "Fuente": "osm"
  },
  {
    "Id": 3835,
    "Departamento": null,
    "Tipo": "Medico",
    "Nombre": "Consultorio Medico San Pablo",
    "Direccion": null,
    "Telefono": null,
    "Latitud": -19.8057,
    "Longitud": -63.9576,
    "Fuente": "osm"
  },
  {
    "Id": 3836,
    "Departamento": null,
    "Tipo": "Medico",
    "Nombre": "Credisalud",
    "Direccion": null,
    "Telefono": null,
    "Latitud": -16.5076,
    "Longitud": -68.1245,
    "Fuente": "osm"
  },
  {
    "Id": 3837,
    "Departamento": null,
    "Tipo": "Medico",
    "Nombre": "GAES Bolivia",
    "Direccion": null,
    "Telefono": null,
    "Latitud": -17.3901,
    "Longitud": -66.1518,
    "Fuente": "osm"
  },
  {
    "Id": 3838,
    "Departamento": null,
    "Tipo": "Medico",
    "Nombre": "AudioProd",
    "Direccion": null,
    "Telefono": null,
    "Latitud": -17.3876,
    "Longitud": -66.1542,
    "Fuente": "osm"
  },
  {
    "Id": 3839,
    "Departamento": null,
    "Tipo": "Medico",
    "Nombre": null,
    "Direccion": null,
    "Telefono": null,
    "Latitud": -15.5117,
    "Longitud": -67.4281,
    "Fuente": "osm"
  },
  {
    "Id": 3840,
    "Departamento": null,
    "Tipo": "Medico",
    "Nombre": "Laboratorio de Análisis Clínicos C.E.D.",
    "Direccion": "Calle Cuéllar",
    "Telefono": null,
    "Latitud": -17.7791,
    "Longitud": -63.1849,
    "Fuente": "osm"
  },
  {
    "Id": 3841,
    "Departamento": null,
    "Tipo": "Medico",
    "Nombre": "AlianSAlud",
    "Direccion": null,
    "Telefono": null,
    "Latitud": -16.5109,
    "Longitud": -68.1257,
    "Fuente": "osm"
  },
  {
    "Id": 3842,
    "Departamento": null,
    "Tipo": "Medico",
    "Nombre": "Consultorio Medico Mi Pediatra",
    "Direccion": "Calle Capitán Ravelo",
    "Telefono": null,
    "Latitud": -16.5053,
    "Longitud": -68.1278,
    "Fuente": "osm"
  },
  {
    "Id": 3843,
    "Departamento": null,
    "Tipo": "Medico",
    "Nombre": "Centro Medico MEDICA CENTRAL",
    "Direccion": "Avenida 6 de Agosto",
    "Telefono": null,
    "Latitud": -16.51,
    "Longitud": -68.1256,
    "Fuente": "osm"
  },
  {
    "Id": 3844,
    "Departamento": null,
    "Tipo": "Medico",
    "Nombre": "Consultorio Vecinal B. \"Los Parrales\"",
    "Direccion": null,
    "Telefono": null,
    "Latitud": -21.5157,
    "Longitud": -64.7584,
    "Fuente": "osm"
  },
  {
    "Id": 3845,
    "Departamento": null,
    "Tipo": "Medico",
    "Nombre": "Consultorio Psicologico",
    "Direccion": null,
    "Telefono": null,
    "Latitud": -16.518,
    "Longitud": -68.1509,
    "Fuente": "osm"
  },
  {
    "Id": 3846,
    "Departamento": null,
    "Tipo": "Medico",
    "Nombre": "Enfermeria nazareth",
    "Direccion": "Tercer Anillo Externo",
    "Telefono": null,
    "Latitud": -17.7723,
    "Longitud": -63.1543,
    "Fuente": "osm"
  },
  {
    "Id": 3847,
    "Departamento": null,
    "Tipo": "Medico",
    "Nombre": "Consultorio",
    "Direccion": null,
    "Telefono": null,
    "Latitud": -17.8437,
    "Longitud": -63.109,
    "Fuente": "osm"
  },
  {
    "Id": 3848,
    "Departamento": null,
    "Tipo": "Medico",
    "Nombre": null,
    "Direccion": null,
    "Telefono": null,
    "Latitud": -16.1649,
    "Longitud": -69.0856,
    "Fuente": "osm"
  },
  {
    "Id": 3849,
    "Departamento": null,
    "Tipo": "Medico",
    "Nombre": "Atención Integral en Nefrología",
    "Direccion": null,
    "Telefono": null,
    "Latitud": -17.3831,
    "Longitud": -66.1488,
    "Fuente": "osm"
  },
  {
    "Id": 3850,
    "Departamento": null,
    "Tipo": "Medico",
    "Nombre": null,
    "Direccion": null,
    "Telefono": null,
    "Latitud": -16.5222,
    "Longitud": -68.2096,
    "Fuente": "osm"
  },
  {
    "Id": 3851,
    "Departamento": null,
    "Tipo": "Medico",
    "Nombre": "Consultorio Medico Genesis",
    "Direccion": "Pasaje 10 de Agosto",
    "Telefono": null,
    "Latitud": -17.7766,
    "Longitud": -63.1754,
    "Fuente": "osm"
  },
  {
    "Id": 3852,
    "Departamento": null,
    "Tipo": "Medico",
    "Nombre": "Belen",
    "Direccion": null,
    "Telefono": null,
    "Latitud": -17.4725,
    "Longitud": -66.1711,
    "Fuente": "osm"
  },
  {
    "Id": 3853,
    "Departamento": null,
    "Tipo": "Medico",
    "Nombre": "Policlínica Miraflores CNS",
    "Direccion": "Calle Nicaragua",
    "Telefono": null,
    "Latitud": -16.504,
    "Longitud": -68.1202,
    "Fuente": "osm"
  },
  {
    "Id": 3854,
    "Departamento": null,
    "Tipo": "Medico",
    "Nombre": "Estetica Medica",
    "Direccion": "Calle Buenos Aires",
    "Telefono": null,
    "Latitud": -17.3745,
    "Longitud": -66.1491,
    "Fuente": "osm"
  },
  {
    "Id": 3855,
    "Departamento": null,
    "Tipo": "Medico",
    "Nombre": "San Juan de Dios",
    "Direccion": null,
    "Telefono": null,
    "Latitud": -17.4119,
    "Longitud": -66.1426,
    "Fuente": "osm"
  },
  {
    "Id": 3856,
    "Departamento": null,
    "Tipo": "Medico",
    "Nombre": "Alianza Cristianas (manos abiertas)",
    "Direccion": null,
    "Telefono": null,
    "Latitud": -16.655,
    "Longitud": -68.2985,
    "Fuente": "osm"
  },
  {
    "Id": 3857,
    "Departamento": null,
    "Tipo": "Medico",
    "Nombre": "Medico Oftalmológico \"Sumaj nayra\"",
    "Direccion": "Calle Guerrilleros Lanza",
    "Telefono": null,
    "Latitud": -16.495,
    "Longitud": -68.123,
    "Fuente": "osm"
  },
  {
    "Id": 3858,
    "Departamento": null,
    "Tipo": "Medico",
    "Nombre": "Medico Oftalmólogo",
    "Direccion": null,
    "Telefono": null,
    "Latitud": -17.3874,
    "Longitud": -66.1457,
    "Fuente": "osm"
  },
  {
    "Id": 3859,
    "Departamento": null,
    "Tipo": "Medico",
    "Nombre": "OncoMedica",
    "Direccion": null,
    "Telefono": null,
    "Latitud": -17.3843,
    "Longitud": -66.1523,
    "Fuente": "osm"
  },
  {
    "Id": 3860,
    "Departamento": null,
    "Tipo": "Medico",
    "Nombre": "CEMETRA Centro de Medicina Tradicional",
    "Direccion": null,
    "Telefono": null,
    "Latitud": -17.8363,
    "Longitud": -63.224,
    "Fuente": "osm"
  },
  {
    "Id": 3861,
    "Departamento": null,
    "Tipo": "Medico",
    "Nombre": "Consultorio Parroquial",
    "Direccion": "Avenida Juan de la Rosa",
    "Telefono": null,
    "Latitud": -17.3765,
    "Longitud": -66.1737,
    "Fuente": "osm"
  },
  {
    "Id": 3862,
    "Departamento": null,
    "Tipo": "Medico",
    "Nombre": "Puesto de Salud Vila Vila",
    "Direccion": null,
    "Telefono": null,
    "Latitud": -17.5575,
    "Longitud": -67.362,
    "Fuente": "osm"
  },
  {
    "Id": 3863,
    "Departamento": null,
    "Tipo": "Medico",
    "Nombre": "Centro medico Quirúrgico Bolivar",
    "Direccion": null,
    "Telefono": null,
    "Latitud": -17.3797,
    "Longitud": -66.1604,
    "Fuente": "osm"
  },
  {
    "Id": 3864,
    "Departamento": null,
    "Tipo": "Medico",
    "Nombre": "Intermedic",
    "Direccion": null,
    "Telefono": null,
    "Latitud": -17.3809,
    "Longitud": -66.1662,
    "Fuente": "osm"
  },
  {
    "Id": 3865,
    "Departamento": null,
    "Tipo": "Medico",
    "Nombre": null,
    "Direccion": null,
    "Telefono": null,
    "Latitud": -16.5032,
    "Longitud": -68.1439,
    "Fuente": "osm"
  },
  {
    "Id": 3866,
    "Departamento": null,
    "Tipo": "Medico",
    "Nombre": "Dar Salud",
    "Direccion": "Calle Mexico",
    "Telefono": null,
    "Latitud": -16.5019,
    "Longitud": -68.1335,
    "Fuente": "osm"
  },
  {
    "Id": 3867,
    "Departamento": null,
    "Tipo": "Medico",
    "Nombre": "Servicio Móvil de Rayos X",
    "Direccion": null,
    "Telefono": null,
    "Latitud": -16.4953,
    "Longitud": -68.1176,
    "Fuente": "osm"
  },
  {
    "Id": 3868,
    "Departamento": null,
    "Tipo": "Medico",
    "Nombre": "Centro de Partos",
    "Direccion": null,
    "Telefono": null,
    "Latitud": -17.3825,
    "Longitud": -66.1499,
    "Fuente": "osm"
  },
  {
    "Id": 3869,
    "Departamento": null,
    "Tipo": "Medico",
    "Nombre": null,
    "Direccion": null,
    "Telefono": null,
    "Latitud": -17.3835,
    "Longitud": -66.1479,
    "Fuente": "osm"
  },
  {
    "Id": 3870,
    "Departamento": null,
    "Tipo": "Medico",
    "Nombre": "Nefrologia",
    "Direccion": null,
    "Telefono": null,
    "Latitud": -17.3809,
    "Longitud": -66.1488,
    "Fuente": "osm"
  },
  {
    "Id": 3871,
    "Departamento": null,
    "Tipo": "Medico",
    "Nombre": null,
    "Direccion": null,
    "Telefono": null,
    "Latitud": -17.3909,
    "Longitud": -66.1563,
    "Fuente": "osm"
  },
  {
    "Id": 3872,
    "Departamento": null,
    "Tipo": "Medico",
    "Nombre": "POLICONSULTORIO Medico GUARDIA AÑEZ -Varimed",
    "Direccion": "Zona universitaria Calle 3",
    "Telefono": null,
    "Latitud": -14.8203,
    "Longitud": -64.8979,
    "Fuente": "osm"
  },
  {
    "Id": 3873,
    "Departamento": null,
    "Tipo": "Medico",
    "Nombre": "Centro medico Chimboco",
    "Direccion": null,
    "Telefono": null,
    "Latitud": -17.3884,
    "Longitud": -66.0412,
    "Fuente": "osm"
  },
  {
    "Id": 3874,
    "Departamento": null,
    "Tipo": "Medico",
    "Nombre": "C.E.PED.",
    "Direccion": null,
    "Telefono": null,
    "Latitud": -21.5314,
    "Longitud": -64.7331,
    "Fuente": "osm"
  },
  {
    "Id": 3875,
    "Departamento": null,
    "Tipo": "Medico",
    "Nombre": "Blanca Liliana Vaca Diez",
    "Direccion": "Río Quimorí",
    "Telefono": null,
    "Latitud": -17.7562,
    "Longitud": -63.1698,
    "Fuente": "osm"
  },
  {
    "Id": 3876,
    "Departamento": null,
    "Tipo": "Medico",
    "Nombre": "Dr. Zuna",
    "Direccion": null,
    "Telefono": null,
    "Latitud": -17.7682,
    "Longitud": -63.1559,
    "Fuente": "osm"
  },
  {
    "Id": 3877,
    "Departamento": null,
    "Tipo": "Medico",
    "Nombre": "Horizontes",
    "Direccion": null,
    "Telefono": null,
    "Latitud": -15.4363,
    "Longitud": -67.5867,
    "Fuente": "osm"
  },
  {
    "Id": 3878,
    "Departamento": null,
    "Tipo": "Medico",
    "Nombre": "Dr candia",
    "Direccion": null,
    "Telefono": null,
    "Latitud": -17.8236,
    "Longitud": -63.1388,
    "Fuente": "osm"
  },
  {
    "Id": 3879,
    "Departamento": null,
    "Tipo": "Medico",
    "Nombre": "El Carmen",
    "Direccion": null,
    "Telefono": null,
    "Latitud": -16.6264,
    "Longitud": -68.1879,
    "Fuente": "osm"
  },
  {
    "Id": 3880,
    "Departamento": null,
    "Tipo": "Medico",
    "Nombre": "Rostov",
    "Direccion": null,
    "Telefono": null,
    "Latitud": -16.5576,
    "Longitud": -68.1971,
    "Fuente": "osm"
  },
  {
    "Id": 3881,
    "Departamento": null,
    "Tipo": "Medico",
    "Nombre": "Dr.Marquez",
    "Direccion": null,
    "Telefono": null,
    "Latitud": -16.5444,
    "Longitud": -68.19,
    "Fuente": "osm"
  },
  {
    "Id": 3882,
    "Departamento": null,
    "Tipo": "Medico",
    "Nombre": "Dr.Sandra Blacutt",
    "Direccion": null,
    "Telefono": null,
    "Latitud": -16.5088,
    "Longitud": -68.164,
    "Fuente": "osm"
  },
  {
    "Id": 3883,
    "Departamento": null,
    "Tipo": "Medico",
    "Nombre": "Ginecologo Obstetra",
    "Direccion": "Calle Sucre",
    "Telefono": null,
    "Latitud": -18.4908,
    "Longitud": -64.1073,
    "Fuente": "osm"
  },
  {
    "Id": 3884,
    "Departamento": null,
    "Tipo": "Medico",
    "Nombre": "Centro TRACIENDE",
    "Direccion": "Av. Hernando Siles",
    "Telefono": null,
    "Latitud": -16.5227,
    "Longitud": -68.1142,
    "Fuente": "osm"
  },
  {
    "Id": 3885,
    "Departamento": null,
    "Tipo": "Medico",
    "Nombre": "Centro de Salud Campo Via",
    "Direccion": "RN4: Colomi-Villa Tunari",
    "Telefono": null,
    "Latitud": -17.0302,
    "Longitud": -65.6571,
    "Fuente": "osm"
  },
  {
    "Id": 3886,
    "Departamento": null,
    "Tipo": "Medico",
    "Nombre": "Casa \"Mi Salud\"",
    "Direccion": null,
    "Telefono": null,
    "Latitud": -15.8931,
    "Longitud": -63.1859,
    "Fuente": "osm"
  },
  {
    "Id": 3887,
    "Departamento": null,
    "Tipo": "Medico",
    "Nombre": "Consultorio Medico Vargas",
    "Direccion": null,
    "Telefono": null,
    "Latitud": -16.5055,
    "Longitud": -68.1189,
    "Fuente": "osm"
  },
  {
    "Id": 3888,
    "Departamento": null,
    "Tipo": "Medico",
    "Nombre": "Consultorio Medico Emanuel",
    "Direccion": "San José",
    "Telefono": null,
    "Latitud": -16.5458,
    "Longitud": -68.1882,
    "Fuente": "osm"
  },
  {
    "Id": 3889,
    "Departamento": null,
    "Tipo": "Medico",
    "Nombre": "CEGNI (Centro de Gastroenterología y Nutricion Infantil)",
    "Direccion": "Calle Antezana",
    "Telefono": null,
    "Latitud": -17.383,
    "Longitud": -66.1561,
    "Fuente": "osm"
  },
  {
    "Id": 3890,
    "Departamento": null,
    "Tipo": "Medico",
    "Nombre": "Centro de Salud Integral Torrepampa",
    "Direccion": null,
    "Telefono": null,
    "Latitud": -16.831,
    "Longitud": -67.5811,
    "Fuente": "osm"
  },
  {
    "Id": 3891,
    "Departamento": null,
    "Tipo": "Medico",
    "Nombre": "CENTRO MEDIDO DE LA PIEL",
    "Direccion": "Calle Colon",
    "Telefono": null,
    "Latitud": -21.5367,
    "Longitud": -64.733,
    "Fuente": "osm"
  },
  {
    "Id": 3892,
    "Departamento": null,
    "Tipo": "Medico",
    "Nombre": "Puesto Medico Caja nacional de Salud",
    "Direccion": null,
    "Telefono": null,
    "Latitud": -22.736,
    "Longitud": -64.3323,
    "Fuente": "osm"
  },
  {
    "Id": 3893,
    "Departamento": null,
    "Tipo": "Medico",
    "Nombre": "Centro de Salud Señor de Mayo",
    "Direccion": "Calle Perú",
    "Telefono": null,
    "Latitud": -20.4566,
    "Longitud": -66.8229,
    "Fuente": "osm"
  }
]