[
  {
    "Departamento": "Cochabamba",
    "Tipo": "Medico",
    "Nombre": "Alex Orozco",
    "Telefono": "68463810",
    "Latitud": "null",
    "Longitud": "null",
    "Fuente": "web"
  },
  {
    "Departamento": "Cochabamba",
    "Tipo": "Medico",
    "Nombre": "Verónica Suarez",
    "Telefono": "72277875",
    "Latitud": "null",
    "Longitud": "null",
    "Fuente": "web"
  },
  {
    "Departamento": "Cochabamba",
    "Tipo": "Medico",
    "Nombre": "Claudia Alejandra Huanca Villca",
    "Telefono": "72961505",
    "Latitud": "null",
    "Longitud": "null",
    "Fuente": "web"
  },
  {
    "Departamento": "Cochabamba",
    "Tipo": "Medico",
    "Nombre": "Daniela Bazoalto",
    "Telefono": "70754241",
    "Latitud": "null",
    "Longitud": "null",
    "Fuente": "web"
  },
  {
    "Departamento": "Cochabamba",
    "Tipo": "Medico",
    "Nombre": "Katherinne Carolina Espinoza",
    "Telefono": "70722190",
    "Latitud": "null",
    "Longitud": "null",
    "Fuente": "web"
  },
  {
    "Departamento": "Cochabamba",
    "Tipo": "Medico",
    "Nombre": "Paola Salazar Rodríguez",
    "Telefono": "70399894",
    "Latitud": "null",
    "Longitud": "null",
    "Fuente": "web"
  },
  {
    "Departamento": "Cochabamba",
    "Tipo": "Medico",
    "Nombre": "Rosimeri Flores Camacho",
    "Telefono": "70399894",
    "Latitud": "null",
    "Longitud": "null",
    "Fuente": "web"
  },
  {
    "Departamento": "Cochabamba",
    "Tipo": "Medico",
    "Nombre": "Viviana Aliaga",
    "Telefono": "73089123",
    "Latitud": "null",
    "Longitud": "null",
    "Fuente": "web"
  },
  {
    "Departamento": "Cochabamba",
    "Tipo": "Medico",
    "Nombre": "Maryfrance del Granado",
    "Telefono": "76955012",
    "Latitud": "null",
    "Longitud": "null",
    "Fuente": "web"
  },
  {
    "Departamento": "Cochabamba",
    "Tipo": "Medico",
    "Nombre": "Jaime Escobar",
    "Telefono": "67406531",
    "Latitud": "null",
    "Longitud": "null",
    "Fuente": "web"
  },
  {
    "Departamento": "Cochabamba",
    "Tipo": "Medico",
    "Nombre": "Josimar Rodríguez",
    "Telefono": "79491961",
    "Latitud": "null",
    "Longitud": "null",
    "Fuente": "web"
  },
  {
    "Departamento": "Cochabamba",
    "Tipo": "Medico",
    "Nombre": "Nestor Hugo Mendieta",
    "Telefono": "68503743",
    "Latitud": "null",
    "Longitud": "null",
    "Fuente": "web"
  },
  {
    "Departamento": "Cochabamba",
    "Tipo": "Medico",
    "Nombre": "Daniel Flores Mamani",
    "Telefono": "70385187",
    "Latitud": "null",
    "Longitud": "null",
    "Fuente": "web"
  },
  {
    "Departamento": "La Paz",
    "Tipo": "Medico",
    "Nombre": "Dra. Miriam Parada",
    "Telefono": "72551657",
    "Latitud": "null",
    "Longitud": "null",
    "Fuente": "web"
  },
  {
    "Departamento": "La Paz",
    "Tipo": "Medico",
    "Nombre": "Est. Fabrizzio Mora",
    "Telefono": "69927946",
    "Latitud": "null",
    "Longitud": "null",
    "Fuente": "web"
  },
  {
    "Departamento": "La Paz",
    "Tipo": "Medico",
    "Nombre": "Dra. Marisol Molina",
    "Telefono": "70615300",
    "Latitud": "null",
    "Longitud": "null",
    "Fuente": "web"
  },
  {
    "Departamento": "La Paz",
    "Tipo": "Medico",
    "Nombre": "Dra. Gabriela Hinojosa",
    "Telefono": "75820290",
    "Latitud": "null",
    "Longitud": "null",
    "Fuente": "web"
  },
  {
    "Departamento": "La Paz",
    "Tipo": "Medico",
    "Nombre": "Dra. Daniela Cordero",
    "Telefono": "77754204",
    "Latitud": "null",
    "Longitud": "null",
    "Fuente": "web"
  },
  {
    "Departamento": "La Paz",
    "Tipo": "Medico",
    "Nombre": "nadia Espinoza",
    "Telefono": "77233318",
    "Latitud": "null",
    "Longitud": "null",
    "Fuente": "web"
  },
  {
    "Departamento": "La Paz",
    "Tipo": "Medico",
    "Nombre": "Ricardo Guaraz",
    "Telefono": "70549270",
    "Latitud": "null",
    "Longitud": "null",
    "Fuente": "web"
  },
  {
    "Departamento": "La Paz",
    "Tipo": "Medico",
    "Nombre": "Raquel Guzman",
    "Telefono": "73026287",
    "Latitud": "null",
    "Longitud": "null",
    "Fuente": "web"
  },
  {
    "Departamento": "La Paz",
    "Tipo": "Medico",
    "Nombre": "Monica Alvarez",
    "Telefono": "68139939",
    "Latitud": "null",
    "Longitud": "null",
    "Fuente": "web"
  },
  {
    "Departamento": "La Paz",
    "Tipo": "Medico",
    "Nombre": "Mitel Aliaga",
    "Telefono": "73089923",
    "Latitud": "null",
    "Longitud": "null",
    "Fuente": "web"
  },
  {
    "Departamento": "La Paz",
    "Tipo": "Medico",
    "Nombre": "Ruddy Blanco",
    "Telefono": "73036035",
    "Latitud": "null",
    "Longitud": "null",
    "Fuente": "web"
  },
  {
    "Departamento": "La Paz",
    "Tipo": "Medico",
    "Nombre": "Fabrizzio Mora Polo",
    "Telefono": "69927946",
    "Latitud": "null",
    "Longitud": "null",
    "Fuente": "web"
  },
  {
    "Departamento": "La Paz",
    "Tipo": "Medico",
    "Nombre": "Jhonathan Alexis Balcazar",
    "Telefono": "77500727",
    "Latitud": "null",
    "Longitud": "null",
    "Fuente": "web"
  },
  {
    "Departamento": "La Paz",
    "Tipo": "Medico",
    "Nombre": "Kerly Villca Miranda",
    "Telefono": "73274652",
    "Latitud": "null",
    "Longitud": "null",
    "Fuente": "web"
  },
  {
    "Departamento": "La Paz",
    "Tipo": "Medico",
    "Nombre": "Luis Martinez",
    "Telefono": "79617517",
    "Latitud": "null",
    "Longitud": "null",
    "Fuente": "web"
  },
  {
    "Departamento": "La Paz",
    "Tipo": "Medico",
    "Nombre": "Yanela Vargas",
    "Telefono": "69762232",
    "Latitud": "null",
    "Longitud": "null",
    "Fuente": "web"
  },
  {
    "Departamento": "La Paz",
    "Tipo": "Medico",
    "Nombre": "Dora Cadena",
    "Telefono": "73749045",
    "Latitud": "null",
    "Longitud": "null",
    "Fuente": "web"
  },
  {
    "Departamento": "La Paz",
    "Tipo": "Medico",
    "Nombre": "Aramis Ardaya",
    "Telefono": "73218160",
    "Latitud": "null",
    "Longitud": "null",
    "Fuente": "web"
  },
  {
    "Departamento": "La Paz",
    "Tipo": "Medico",
    "Nombre": "Vanessa Chino",
    "Telefono": "76273572",
    "Latitud": "null",
    "Longitud": "null",
    "Fuente": "web"
  },
  {
    "Departamento": "La Paz",
    "Tipo": "Medico",
    "Nombre": "Carolina Bustillos",
    "Telefono": "68666681",
    "Latitud": "null",
    "Longitud": "null",
    "Fuente": "web"
  },
  {
    "Departamento": "La Paz",
    "Tipo": "Medico",
    "Nombre": "Pablo Baldiviezo",
    "Telefono": "71176825",
    "Latitud": "null",
    "Longitud": "null",
    "Fuente": "web"
  },
  {
    "Departamento": "null",
    "Tipo": "Medico",
    "Nombre": "Centro medico",
    "Telefono": "null",
    "Latitud": "-17.5909561",
    "Longitud": "-65.9349576",
    "Fuente": "osm"
  },
  {
    "Departamento": "null",
    "Tipo": "Medico",
    "Nombre": "Curandero Escobar",
    "Telefono": "null",
    "Latitud": "-17.589757",
    "Longitud": "-65.9346329",
    "Fuente": "osm"
  },
  {
    "Departamento": "null",
    "Tipo": "Medico",
    "Nombre": "Puesto de Salud de Epizana Cruce",
    "Direccion": "RN7: Epizana-Comarapa",
    "Telefono": "null",
    "Latitud": "-17.6370999",
    "Longitud": "-65.2289803",
    "Fuente": "osm"
  },
  {
    "Departamento": "null",
    "Tipo": "Medico",
    "Nombre": "Consultorio Medico",
    "Telefono": "null",
    "Latitud": "-17.8440308",
    "Longitud": "-60.7437097",
    "Fuente": "osm"
  },
  {
    "Departamento": "null",
    "Tipo": "Medico",
    "Nombre": "Posta Municipal",
    "Telefono": "null",
    "Latitud": "-17.396528",
    "Longitud": "-66.1670119",
    "Fuente": "osm"
  },
  {
    "Departamento": "null",
    "Tipo": "Medico",
    "Nombre": "Maida",
    "Direccion": "Calle Aurelio Melean",
    "Telefono": "null",
    "Latitud": "-17.3913216",
    "Longitud": "-66.1476226",
    "Fuente": "osm"
  },
  {
    "Departamento": "null",
    "Tipo": "Medico",
    "Nombre": "Centro medico Callajchullpa",
    "Telefono": "null",
    "Latitud": "-17.3534349",
    "Longitud": "-66.2433597",
    "Fuente": "osm"
  },
  {
    "Departamento": "null",
    "Tipo": "Medico",
    "Telefono": "null",
    "Latitud": "-20.4602517",
    "Longitud": "-66.8214673",
    "Fuente": "osm"
  },
  {
    "Departamento": "null",
    "Tipo": "Medico",
    "Nombre": "Centro Medico Hermano Andrés Pedrón",
    "Telefono": "null",
    "Latitud": "-17.4604943",
    "Longitud": "-66.1235744",
    "Fuente": "osm"
  },
  {
    "Departamento": "null",
    "Tipo": "Medico",
    "Nombre": "Javier Rivero",
    "Telefono": "null",
    "Latitud": "-17.3908195",
    "Longitud": "-66.148632",
    "Fuente": "osm"
  },
  {
    "Departamento": "null",
    "Tipo": "Medico",
    "Nombre": "Análisis Clínico FCSH",
    "Telefono": "null",
    "Latitud": "-17.7766904",
    "Longitud": "-63.1907833",
    "Fuente": "osm"
  },
  {
    "Departamento": "null",
    "Tipo": "Medico",
    "Nombre": "Centro de Salud La Familia",
    "Telefono": "null",
    "Latitud": "-17.3966317",
    "Longitud": "-66.2767672",
    "Fuente": "osm"
  },
  {
    "Departamento": "null",
    "Tipo": "Medico",
    "Nombre": "Centro Municipal de Salud San Antonio Bajo",
    "Telefono": "null",
    "Latitud": "-16.4988724",
    "Longitud": "-68.116043",
    "Fuente": "osm"
  },
  {
    "Departamento": "null",
    "Tipo": "Medico",
    "Nombre": "Santa Ana de Condebamba",
    "Telefono": "null",
    "Latitud": "-17.35705",
    "Longitud": "-66.1778004",
    "Fuente": "osm"
  },
  {
    "Departamento": "null",
    "Tipo": "Medico",
    "Direccion": "Avenida Rubén Dario",
    "Telefono": "null",
    "Latitud": "-17.3916051",
    "Longitud": "-66.1376748",
    "Fuente": "osm"
  },
  {
    "Departamento": "null",
    "Tipo": "Medico",
    "Nombre": "Centro de Fisioterapia",
    "Direccion": "Avenida Circunvalación Beijing",
    "Telefono": "null",
    "Latitud": "-17.3636621",
    "Longitud": "-66.1655388",
    "Fuente": "osm"
  },
  {
    "Departamento": "null",
    "Tipo": "Medico",
    "Nombre": "Consultorio Psicologico Tukuypaj",
    "Direccion": "Avenida Circunvalación Beijing",
    "Telefono": "null",
    "Latitud": "-17.3631279",
    "Longitud": "-66.1680116",
    "Fuente": "osm"
  },
  {
    "Departamento": "null",
    "Tipo": "Medico",
    "Nombre": "Fisioterapia",
    "Telefono": "null",
    "Latitud": "-17.3959261",
    "Longitud": "-66.1549154",
    "Fuente": "osm"
  },
  {
    "Departamento": "null",
    "Tipo": "Medico",
    "Telefono": "null",
    "Latitud": "-17.7831043",
    "Longitud": "-63.2095615",
    "Fuente": "osm"
  },
  {
    "Departamento": "null",
    "Tipo": "Medico",
    "Telefono": "null",
    "Latitud": "-17.7845928",
    "Longitud": "-63.2096522",
    "Fuente": "osm"
  },
  {
    "Departamento": "null",
    "Tipo": "Medico",
    "Direccion": "Avenida Salamanca",
    "Telefono": "null",
    "Latitud": "-17.3873065",
    "Longitud": "-66.1549266",
    "Fuente": "osm"
  },
  {
    "Departamento": "null",
    "Tipo": "Medico",
    "Nombre": "Central Médica",
    "Telefono": "null",
    "Latitud": "-17.8079071",
    "Longitud": "-63.2056875",
    "Fuente": "osm"
  },
  {
    "Departamento": "null",
    "Tipo": "Medico",
    "Nombre": "Posta de Salud",
    "Telefono": "null",
    "Latitud": "-17.3912129",
    "Longitud": "-66.1182335",
    "Fuente": "osm"
  },
  {
    "Departamento": "null",
    "Tipo": "Medico",
    "Nombre": "Dr. Jaime Marañon",
    "Direccion": "Calle J. Crisóstomo Carrillo",
    "Telefono": "null",
    "Latitud": "-17.3829637",
    "Longitud": "-66.1529869",
    "Fuente": "osm"
  },
  {
    "Departamento": "null",
    "Tipo": "Medico",
    "Nombre": "Salud & Vida",
    "Direccion": "Avenida República",
    "Telefono": "null",
    "Latitud": "-17.4086297",
    "Longitud": "-66.1509676",
    "Fuente": "osm"
  },
  {
    "Departamento": "null",
    "Tipo": "Medico",
    "Nombre": "Germán Melgarejo",
    "Telefono": "null",
    "Latitud": "-17.7716201",
    "Longitud": "-63.1544952",
    "Fuente": "osm"
  },
  {
    "Departamento": "null",
    "Tipo": "Medico",
    "Nombre": "Posta Médica Ovejuyo",
    "Telefono": "null",
    "Latitud": "-16.5355727",
    "Longitud": "-68.0388276",
    "Fuente": "osm"
  },
  {
    "Departamento": "null",
    "Tipo": "Medico",
    "Nombre": "Medico",
    "Telefono": "null",
    "Latitud": "-17.7406508",
    "Longitud": "-63.1482158",
    "Fuente": "osm"
  },
  {
    "Departamento": "null",
    "Tipo": "Medico",
    "Nombre": "Doctora Gaby Camacho Quezada",
    "Direccion": "Calle Chuquisaca",
    "Telefono": "null",
    "Latitud": "-17.7863608",
    "Longitud": "-63.1802296",
    "Fuente": "osm"
  },
  {
    "Departamento": "null",
    "Tipo": "Medico",
    "Nombre": "OHM",
    "Telefono": "null",
    "Latitud": "-17.7876853",
    "Longitud": "-63.1800924",
    "Fuente": "osm"
  },
  {
    "Departamento": "null",
    "Tipo": "Medico",
    "Nombre": "Doctora Carmen Elsa Calzin de Rueda",
    "Direccion": "Calle Beni",
    "Telefono": "null",
    "Latitud": "-17.7753614",
    "Longitud": "-63.1810534",
    "Fuente": "osm"
  },
  {
    "Departamento": "null",
    "Tipo": "Medico",
    "Direccion": "Calle Republiquetas",
    "Telefono": "null",
    "Latitud": "-17.7862666",
    "Longitud": "-63.1749366",
    "Fuente": "osm"
  },
  {
    "Departamento": "null",
    "Tipo": "Medico",
    "Nombre": "Dr. Jorge B. Verastegui Lijerón",
    "Telefono": "null",
    "Latitud": "-17.7946351",
    "Longitud": "-63.1856229",
    "Fuente": "osm"
  },
  {
    "Departamento": "null",
    "Tipo": "Medico",
    "Nombre": "Consultorio Medico Santa Ana",
    "Telefono": "null",
    "Latitud": "-17.7957558",
    "Longitud": "-63.2095002",
    "Fuente": "osm"
  },
  {
    "Departamento": "null",
    "Tipo": "Medico",
    "Nombre": "Centro Medico Rayos",
    "Direccion": "Avenida República",
    "Telefono": "null",
    "Latitud": "-16.4918307",
    "Longitud": "-68.1512729",
    "Fuente": "osm"
  },
  {
    "Departamento": "null",
    "Tipo": "Medico",
    "Nombre": "Consultorio Endocrinológico Integral - Dr. J. Efraín Castro",
    "Direccion": "Calle Asai",
    "Telefono": "null",
    "Latitud": "-17.7629494",
    "Longitud": "-63.1686322",
    "Fuente": "osm"
  },
  {
    "Departamento": "null",
    "Tipo": "Medico",
    "Telefono": "null",
    "Latitud": "-17.8004983",
    "Longitud": "-63.1589847",
    "Fuente": "osm"
  },
  {
    "Departamento": "null",
    "Tipo": "Medico",
    "Nombre": "Consultorio Medico Palacios",
    "Direccion": "Avenida Adolfo Román Hijo",
    "Telefono": "null",
    "Latitud": "-17.8120503",
    "Longitud": "-63.1326796",
    "Fuente": "osm"
  },
  {
    "Departamento": "null",
    "Tipo": "Medico",
    "Nombre": "GInecologia Consultorio",
    "Telefono": "null",
    "Latitud": "-17.8075339",
    "Longitud": "-63.1369496",
    "Fuente": "osm"
  },
  {
    "Departamento": "null",
    "Tipo": "Medico",
    "Nombre": "Puesto de Salud Choquetanga Grande",
    "Telefono": "null",
    "Latitud": "-16.837814",
    "Longitud": "-67.3184762",
    "Fuente": "osm"
  },
  {
    "Departamento": "null",
    "Tipo": "Medico",
    "Nombre": "Gastroservic",
    "Direccion": "Avenida Mutualista",
    "Telefono": "null",
    "Latitud": "-17.7699034",
    "Longitud": "-63.1663868",
    "Fuente": "osm"
  },
  {
    "Departamento": "null",
    "Tipo": "Medico",
    "Nombre": "Kineser",
    "Direccion": "Tercer Anillo Externo",
    "Telefono": "null",
    "Latitud": "-17.7585689",
    "Longitud": "-63.183578",
    "Fuente": "osm"
  },
  {
    "Departamento": "null",
    "Tipo": "Medico",
    "Nombre": "Huayllani Chico",
    "Direccion": "Camino Sacaba-Palca",
    "Telefono": "null",
    "Latitud": "-17.387995",
    "Longitud": "-66.0581154",
    "Fuente": "osm"
  },
  {
    "Departamento": "null",
    "Tipo": "Medico",
    "Nombre": "Medicos Cristianos Solidarios",
    "Telefono": "null",
    "Latitud": "-17.7797879",
    "Longitud": "-63.1742522",
    "Fuente": "osm"
  },
  {
    "Departamento": "null",
    "Tipo": "Medico",
    "Nombre": "Centro de Salud Santa Rosa",
    "Direccion": "Santa Rosa Calle 4",
    "Telefono": "null",
    "Latitud": "-16.5358569",
    "Longitud": "-68.1674575",
    "Fuente": "osm"
  },
  {
    "Departamento": "null",
    "Tipo": "Medico",
    "Nombre": "Juan de Dios",
    "Direccion": "Calle 8",
    "Telefono": "null",
    "Latitud": "-16.5135252",
    "Longitud": "-68.1600859",
    "Fuente": "osm"
  },
  {
    "Departamento": "null",
    "Tipo": "Medico",
    "Nombre": "Adolfo Kolping",
    "Direccion": "Calle C Medina",
    "Telefono": "null",
    "Latitud": "-16.5111059",
    "Longitud": "-68.1570879",
    "Fuente": "osm"
  },
  {
    "Departamento": "null",
    "Tipo": "Medico",
    "Nombre": "Policonsultorio Virgen de Copacabana",
    "Direccion": "Calle 27 B",
    "Telefono": "null",
    "Latitud": "-16.528602",
    "Longitud": "-68.1526338",
    "Fuente": "osm"
  },
  {
    "Departamento": "null",
    "Tipo": "Medico",
    "Nombre": "Centro naturopata",
    "Direccion": "Mario Flores",
    "Telefono": "null",
    "Latitud": "-17.7884249",
    "Longitud": "-63.190328",
    "Fuente": "osm"
  },
  {
    "Departamento": "null",
    "Tipo": "Medico",
    "Nombre": "Centro Bronco-Pulmonar",
    "Telefono": "null",
    "Latitud": "-17.809238",
    "Longitud": "-63.1958706",
    "Fuente": "osm"
  },
  {
    "Departamento": "null",
    "Tipo": "Medico",
    "Nombre": "ACUMED",
    "Direccion": "Avenida Heroínas",
    "Telefono": "null",
    "Latitud": "-17.3914021",
    "Longitud": "-66.1532199",
    "Fuente": "osm"
  },
  {
    "Departamento": "null",
    "Tipo": "Medico",
    "Nombre": "Centro de Salud Villa Adela",
    "Direccion": "Brasilia",
    "Telefono": "null",
    "Latitud": "-16.5228198",
    "Longitud": "-68.2120547",
    "Fuente": "osm"
  },
  {
    "Departamento": "null",
    "Tipo": "Medico",
    "Nombre": "Consultorio Medico Mi Salud",
    "Telefono": "null",
    "Latitud": "-16.4949861",
    "Longitud": "-68.1723768",
    "Fuente": "osm"
  },
  {
    "Departamento": "null",
    "Tipo": "Medico",
    "Nombre": "Ortopedia Boliviano Aleman",
    "Direccion": "Avenida 6 de Agosto",
    "Telefono": "null",
    "Latitud": "-16.5114677",
    "Longitud": "-68.1238035",
    "Fuente": "osm"
  },
  {
    "Departamento": "null",
    "Tipo": "Medico",
    "Telefono": "null",
    "Latitud": "-16.2011886",
    "Longitud": "-68.9030017",
    "Fuente": "osm"
  },
  {
    "Departamento": "null",
    "Tipo": "Medico",
    "Nombre": "Mirna",
    "Telefono": "null",
    "Latitud": "-20.4591575",
    "Longitud": "-66.8271164",
    "Fuente": "osm"
  },
  {
    "Departamento": "null",
    "Tipo": "Medico",
    "Nombre": "APS",
    "Telefono": "null",
    "Latitud": "-17.3791062",
    "Longitud": "-66.1540329",
    "Fuente": "osm"
  },
  {
    "Departamento": "null",
    "Tipo": "Medico",
    "Nombre": "Vida Sana",
    "Direccion": "Calle 20 C",
    "Telefono": "null",
    "Latitud": "-16.5263455",
    "Longitud": "-68.1493918",
    "Fuente": "osm"
  },
  {
    "Departamento": "null",
    "Tipo": "Medico",
    "Nombre": "MEDICAR",
    "Direccion": "Avenida América",
    "Telefono": "null",
    "Latitud": "-17.3732349",
    "Longitud": "-66.157377",
    "Fuente": "osm"
  },
  {
    "Departamento": "null",
    "Tipo": "Medico",
    "Nombre": "San Francisco de Asís",
    "Telefono": "null",
    "Latitud": "-17.3877595",
    "Longitud": "-66.1541322",
    "Fuente": "osm"
  },
  {
    "Departamento": "null",
    "Tipo": "Medico",
    "Nombre": "Consultorio Medico Profamilia",
    "Direccion": "Avenida Plan Tres Mil",
    "Telefono": "null",
    "Latitud": "-17.8261326",
    "Longitud": "-63.1332056",
    "Fuente": "osm"
  },
  {
    "Departamento": "null",
    "Tipo": "Medico",
    "Nombre": "Maria Inmaculada",
    "Telefono": "null",
    "Latitud": "-17.3703472",
    "Longitud": "-66.1235401",
    "Fuente": "osm"
  },
  {
    "Departamento": "null",
    "Tipo": "Medico",
    "Nombre": "Consultorio Medico integral del Brazo social",
    "Telefono": "null",
    "Latitud": "-16.5037135",
    "Longitud": "-68.1612561",
    "Fuente": "osm"
  },
  {
    "Departamento": "null",
    "Tipo": "Medico",
    "Nombre": "La Merced",
    "Direccion": "José María Asin",
    "Telefono": "null",
    "Latitud": "-16.4949732",
    "Longitud": "-68.1520764",
    "Fuente": "osm"
  },
  {
    "Departamento": "null",
    "Tipo": "Medico",
    "Nombre": "ACUHOMED",
    "Direccion": "Avenida Papa Paulo",
    "Telefono": "null",
    "Latitud": "-17.3814939",
    "Longitud": "-66.1533362",
    "Fuente": "osm"
  },
  {
    "Departamento": "null",
    "Tipo": "Medico",
    "Telefono": "null",
    "Latitud": "-16.5038915",
    "Longitud": "-68.0828271",
    "Fuente": "osm"
  },
  {
    "Departamento": "null",
    "Tipo": "Medico",
    "Nombre": "Centro de salud Cota Cota",
    "Telefono": "null",
    "Latitud": "-16.5436037",
    "Longitud": "-68.050753",
    "Fuente": "osm"
  },
  {
    "Departamento": "null",
    "Tipo": "Medico",
    "Telefono": "null",
    "Latitud": "-16.4798636",
    "Longitud": "-68.1206964",
    "Fuente": "osm"
  },
  {
    "Departamento": "null",
    "Tipo": "Medico",
    "Nombre": "Consultorio Medico San Pablo",
    "Telefono": "null",
    "Latitud": "-19.8057119",
    "Longitud": "-63.9576259",
    "Fuente": "osm"
  },
  {
    "Departamento": "null",
    "Tipo": "Medico",
    "Nombre": "Credisalud",
    "Telefono": "null",
    "Latitud": "-16.5075843",
    "Longitud": "-68.1244782",
    "Fuente": "osm"
  },
  {
    "Departamento": "null",
    "Tipo": "Medico",
    "Nombre": "GAES Bolivia",
    "Telefono": "null",
    "Latitud": "-17.3901464",
    "Longitud": "-66.151782",
    "Fuente": "osm"
  },
  {
    "Departamento": "null",
    "Tipo": "Medico",
    "Nombre": "AudioProd",
    "Telefono": "null",
    "Latitud": "-17.3876097",
    "Longitud": "-66.1541622",
    "Fuente": "osm"
  },
  {
    "Departamento": "null",
    "Tipo": "Medico",
    "Telefono": "null",
    "Latitud": "-15.51173",
    "Longitud": "-67.4281034",
    "Fuente": "osm"
  },
  {
    "Departamento": "null",
    "Tipo": "Medico",
    "Nombre": "Laboratorio de Análisis Clínicos C.E.D.",
    "Direccion": "Calle Cuéllar",
    "Telefono": "null",
    "Latitud": "-17.7790807",
    "Longitud": "-63.1849299",
    "Fuente": "osm"
  },
  {
    "Departamento": "null",
    "Tipo": "Medico",
    "Nombre": "AlianSAlud",
    "Telefono": "null",
    "Latitud": "-16.5108614",
    "Longitud": "-68.125655",
    "Fuente": "osm"
  },
  {
    "Departamento": "null",
    "Tipo": "Medico",
    "Nombre": "Consultorio Medico Mi Pediatra",
    "Direccion": "Calle Capitán Ravelo",
    "Telefono": "null",
    "Latitud": "-16.5053388",
    "Longitud": "-68.1277686",
    "Fuente": "osm"
  },
  {
    "Departamento": "null",
    "Tipo": "Medico",
    "Nombre": "Centro Medico MEDICA CENTRAL",
    "Direccion": "Avenida 6 de Agosto",
    "Telefono": "null",
    "Latitud": "-16.5100183",
    "Longitud": "-68.1255623",
    "Fuente": "osm"
  },
  {
    "Departamento": "null",
    "Tipo": "Medico",
    "Nombre": "Consultorio Vecinal B. \"Los Parrales\"",
    "Telefono": "null",
    "Latitud": "-21.5157242",
    "Longitud": "-64.758364",
    "Fuente": "osm"
  },
  {
    "Departamento": "null",
    "Tipo": "Medico",
    "Nombre": "Consultorio Psicologico",
    "Telefono": "null",
    "Latitud": "-16.5179939",
    "Longitud": "-68.1508974",
    "Fuente": "osm"
  },
  {
    "Departamento": "null",
    "Tipo": "Medico",
    "Nombre": "Enfermeria nazareth",
    "Direccion": "Tercer Anillo Externo",
    "Telefono": "null",
    "Latitud": "-17.7722936",
    "Longitud": "-63.1542929",
    "Fuente": "osm"
  },
  {
    "Departamento": "null",
    "Tipo": "Medico",
    "Nombre": "Consultorio",
    "Telefono": "null",
    "Latitud": "-17.8437264",
    "Longitud": "-63.1089637",
    "Fuente": "osm"
  },
  {
    "Departamento": "null",
    "Tipo": "Medico",
    "Telefono": "null",
    "Latitud": "-16.1648896",
    "Longitud": "-69.0855812",
    "Fuente": "osm"
  },
  {
    "Departamento": "null",
    "Tipo": "Medico",
    "Nombre": "Atención Integral en Nefrología",
    "Telefono": "null",
    "Latitud": "-17.3831397",
    "Longitud": "-66.1487777",
    "Fuente": "osm"
  },
  {
    "Departamento": "null",
    "Tipo": "Medico",
    "Telefono": "null",
    "Latitud": "-16.5221643",
    "Longitud": "-68.2096071",
    "Fuente": "osm"
  },
  {
    "Departamento": "null",
    "Tipo": "Medico",
    "Nombre": "Consultorio Medico Genesis",
    "Direccion": "Pasaje 10 de Agosto",
    "Telefono": "null",
    "Latitud": "-17.7765967",
    "Longitud": "-63.1753503",
    "Fuente": "osm"
  },
  {
    "Departamento": "null",
    "Tipo": "Medico",
    "Nombre": "Belen",
    "Telefono": "null",
    "Latitud": "-17.4725464",
    "Longitud": "-66.1710845",
    "Fuente": "osm"
  },
  {
    "Departamento": "null",
    "Tipo": "Medico",
    "Nombre": "Policlínica Miraflores CNS",
    "Direccion": "Calle Nicaragua",
    "Telefono": "null",
    "Latitud": "-16.5039924",
    "Longitud": "-68.1202375",
    "Fuente": "osm"
  },
  {
    "Departamento": "null",
    "Tipo": "Medico",
    "Nombre": "Estetica Medica",
    "Direccion": "Calle Buenos Aires",
    "Telefono": "null",
    "Latitud": "-17.3744931",
    "Longitud": "-66.1491176",
    "Fuente": "osm"
  },
  {
    "Departamento": "null",
    "Tipo": "Medico",
    "Nombre": "San Juan de Dios",
    "Telefono": "null",
    "Latitud": "-17.4118918",
    "Longitud": "-66.1426287",
    "Fuente": "osm"
  },
  {
    "Departamento": "null",
    "Tipo": "Medico",
    "Nombre": "Alianza Cristianas (manos abiertas)",
    "Telefono": "null",
    "Latitud": "-16.6550292",
    "Longitud": "-68.2984637",
    "Fuente": "osm"
  },
  {
    "Departamento": "null",
    "Tipo": "Medico",
    "Nombre": "Medico Oftalmológico \"Sumaj nayra\"",
    "Direccion": "Calle Guerrilleros Lanza",
    "Telefono": "null",
    "Latitud": "-16.4950307",
    "Longitud": "-68.1230078",
    "Fuente": "osm"
  },
  {
    "Departamento": "null",
    "Tipo": "Medico",
    "Nombre": "Medico Oftalmólogo",
    "Telefono": "null",
    "Latitud": "-17.387439",
    "Longitud": "-66.1457305",
    "Fuente": "osm"
  },
  {
    "Departamento": "null",
    "Tipo": "Medico",
    "Nombre": "OncoMedica",
    "Telefono": "null",
    "Latitud": "-17.3843131",
    "Longitud": "-66.1522543",
    "Fuente": "osm"
  },
  {
    "Departamento": "null",
    "Tipo": "Medico",
    "Nombre": "CEMETRA Centro de Medicina Tradicional",
    "Telefono": "null",
    "Latitud": "-17.8363413",
    "Longitud": "-63.2240067",
    "Fuente": "osm"
  },
  {
    "Departamento": "null",
    "Tipo": "Medico",
    "Nombre": "Consultorio Parroquial",
    "Direccion": "Avenida Juan de la Rosa",
    "Telefono": "null",
    "Latitud": "-17.3764995",
    "Longitud": "-66.1737373",
    "Fuente": "osm"
  },
  {
    "Departamento": "null",
    "Tipo": "Medico",
    "Nombre": "Puesto de Salud Vila Vila",
    "Telefono": "null",
    "Latitud": "-17.5574918",
    "Longitud": "-67.3619673",
    "Fuente": "osm"
  },
  {
    "Departamento": "null",
    "Tipo": "Medico",
    "Nombre": "Centro medico Quirúrgico Bolivar",
    "Telefono": "null",
    "Latitud": "-17.3796621",
    "Longitud": "-66.1603501",
    "Fuente": "osm"
  },
  {
    "Departamento": "null",
    "Tipo": "Medico",
    "Nombre": "Intermedic",
    "Telefono": "null",
    "Latitud": "-17.3808781",
    "Longitud": "-66.1662416",
    "Fuente": "osm"
  },
  {
    "Departamento": "null",
    "Tipo": "Medico",
    "Telefono": "null",
    "Latitud": "-16.5032326",
    "Longitud": "-68.1438904",
    "Fuente": "osm"
  },
  {
    "Departamento": "null",
    "Tipo": "Medico",
    "Nombre": "Dar Salud",
    "Direccion": "Calle Mexico",
    "Telefono": "null",
    "Latitud": "-16.5019074",
    "Longitud": "-68.1335267",
    "Fuente": "osm"
  },
  {
    "Departamento": "null",
    "Tipo": "Medico",
    "Nombre": "Servicio Móvil de Rayos X",
    "Telefono": "null",
    "Latitud": "-16.495289",
    "Longitud": "-68.1176472",
    "Fuente": "osm"
  },
  {
    "Departamento": "null",
    "Tipo": "Medico",
    "Nombre": "Centro de Partos",
    "Telefono": "null",
    "Latitud": "-17.3825417",
    "Longitud": "-66.1499007",
    "Fuente": "osm"
  },
  {
    "Departamento": "null",
    "Tipo": "Medico",
    "Telefono": "null",
    "Latitud": "-17.3834615",
    "Longitud": "-66.1478701",
    "Fuente": "osm"
  },
  {
    "Departamento": "null",
    "Tipo": "Medico",
    "Nombre": "Nefrologia",
    "Telefono": "null",
    "Latitud": "-17.3809205",
    "Longitud": "-66.14884",
    "Fuente": "osm"
  },
  {
    "Departamento": "null",
    "Tipo": "Medico",
    "Telefono": "null",
    "Latitud": "-17.3909276",
    "Longitud": "-66.1562939",
    "Fuente": "osm"
  },
  {
    "Departamento": "null",
    "Tipo": "Medico",
    "Nombre": "POLICONSULTORIO Medico GUARDIA AÑEZ -Varimed",
    "Direccion": "Zona universitaria Calle 3",
    "Telefono": "null",
    "Latitud": "-14.8203018",
    "Longitud": "-64.8978854",
    "Fuente": "osm"
  },
  {
    "Departamento": "null",
    "Tipo": "Medico",
    "Nombre": "Centro medico Chimboco",
    "Telefono": "null",
    "Latitud": "-17.3884103",
    "Longitud": "-66.0411723",
    "Fuente": "osm"
  },
  {
    "Departamento": "null",
    "Tipo": "Medico",
    "Nombre": "C.E.PED.",
    "Telefono": "null",
    "Latitud": "-21.531354",
    "Longitud": "-64.7330546",
    "Fuente": "osm"
  },
  {
    "Departamento": "null",
    "Tipo": "Medico",
    "Nombre": "Blanca Liliana Vaca Diez",
    "Direccion": "Río Quimorí",
    "Telefono": "null",
    "Latitud": "-17.7562352",
    "Longitud": "-63.1697606",
    "Fuente": "osm"
  },
  {
    "Departamento": "null",
    "Tipo": "Medico",
    "Nombre": "Dr. Zuna",
    "Telefono": "null",
    "Latitud": "-17.7681927",
    "Longitud": "-63.1559061",
    "Fuente": "osm"
  },
  {
    "Departamento": "null",
    "Tipo": "Medico",
    "Nombre": "Horizontes",
    "Telefono": "null",
    "Latitud": "-15.4362994",
    "Longitud": "-67.5866547",
    "Fuente": "osm"
  },
  {
    "Departamento": "null",
    "Tipo": "Medico",
    "Nombre": "Dr candia",
    "Telefono": "null",
    "Latitud": "-17.8236362",
    "Longitud": "-63.1388198",
    "Fuente": "osm"
  },
  {
    "Departamento": "null",
    "Tipo": "Medico",
    "Nombre": "El Carmen",
    "Telefono": "null",
    "Latitud": "-16.6264323",
    "Longitud": "-68.1878838",
    "Fuente": "osm"
  },
  {
    "Departamento": "null",
    "Tipo": "Medico",
    "Nombre": "Rostov",
    "Telefono": "null",
    "Latitud": "-16.5575921",
    "Longitud": "-68.1970711",
    "Fuente": "osm"
  },
  {
    "Departamento": "null",
    "Tipo": "Medico",
    "Nombre": "Dr.Marquez",
    "Telefono": "null",
    "Latitud": "-16.5444133",
    "Longitud": "-68.1899658",
    "Fuente": "osm"
  },
  {
    "Departamento": "null",
    "Tipo": "Medico",
    "Nombre": "Dr.Sandra Blacutt",
    "Telefono": "null",
    "Latitud": "-16.5088343",
    "Longitud": "-68.1639875",
    "Fuente": "osm"
  },
  {
    "Departamento": "null",
    "Tipo": "Medico",
    "Nombre": "Ginecologo Obstetra",
    "Direccion": "Calle Sucre",
    "Telefono": "null",
    "Latitud": "-18.4908326",
    "Longitud": "-64.1073014",
    "Fuente": "osm"
  },
  {
    "Departamento": "null",
    "Tipo": "Medico",
    "Nombre": "Centro TRACIENDE",
    "Direccion": "Av. Hernando Siles",
    "Telefono": "null",
    "Latitud": "-16.5227106",
    "Longitud": "-68.1142073",
    "Fuente": "osm"
  },
  {
    "Departamento": "null",
    "Tipo": "Medico",
    "Nombre": "Centro de Salud Campo Via",
    "Direccion": "RN4: Colomi-Villa Tunari",
    "Telefono": "null",
    "Latitud": "-17.0301599",
    "Longitud": "-65.6571155",
    "Fuente": "osm"
  },
  {
    "Departamento": "null",
    "Tipo": "Medico",
    "Nombre": "Casa \"Mi Salud\"",
    "Telefono": "null",
    "Latitud": "-15.8931351",
    "Longitud": "-63.1859301",
    "Fuente": "osm"
  },
  {
    "Departamento": "null",
    "Tipo": "Medico",
    "Nombre": "Consultorio Medico Vargas",
    "Telefono": "null",
    "Latitud": "-16.5055044",
    "Longitud": "-68.1189062",
    "Fuente": "osm"
  },
  {
    "Departamento": "null",
    "Tipo": "Medico",
    "Nombre": "Consultorio Medico Emanuel",
    "Direccion": "San José",
    "Telefono": "null",
    "Latitud": "-16.5458211",
    "Longitud": "-68.1882472",
    "Fuente": "osm"
  },
  {
    "Departamento": "null",
    "Tipo": "Medico",
    "Nombre": "CEGNI (Centro de Gastroenterología y Nutricion Infantil)",
    "Direccion": "Calle Antezana",
    "Telefono": "null",
    "Latitud": "-17.3829523",
    "Longitud": "-66.1561481",
    "Fuente": "osm"
  },
  {
    "Departamento": "null",
    "Tipo": "Medico",
    "Nombre": "Centro de Salud Integral Torrepampa",
    "Telefono": "null",
    "Latitud": "-16.8309926",
    "Longitud": "-67.5810987",
    "Fuente": "osm"
  },
  {
    "Departamento": "null",
    "Tipo": "Medico",
    "Nombre": "CENTRO MEDIDO DE LA PIEL",
    "Direccion": "Calle Colon",
    "Telefono": "null",
    "Latitud": "-21.5366821",
    "Longitud": "-64.7330145",
    "Fuente": "osm"
  },
  {
    "Departamento": "null",
    "Tipo": "Medico",
    "Nombre": "Puesto Medico Caja nacional de Salud",
    "Telefono": "null",
    "Latitud": "-22.735981",
    "Longitud": "-64.3322924",
    "Fuente": "osm"
  },
  {
    "Departamento": "null",
    "Tipo": "Medico",
    "Nombre": "Centro de Salud Señor de Mayo",
    "Direccion": "Calle Perú",
    "Telefono": "null",
    "Latitud": "-20.4565647",
    "Longitud": "-66.8229434",
    "Fuente": "osm"
  }
]