[
  {
    "Departamento": "Beni",
    "Tipo": "ServiciosFinancieros",
    "Nombre": "BANCO UNION",
    "Direccion": "CALLE BALLIVIAN SN",
    "Telefono": "null",
    "Latitud": "null",
    "Longitud": "null",
    "Fuente": "web"
  },
  {
    "Departamento": "Beni",
    "Tipo": "ServiciosFinancieros",
    "Nombre": "BANCO UNION",
    "Direccion": "CFEDERICO ROMAN FRENTE PLAZA PRINCIPAL GERMAN",
    "Telefono": "null",
    "Latitud": "null",
    "Longitud": "null",
    "Fuente": "web"
  },
  {
    "Departamento": "Beni",
    "Tipo": "ServiciosFinancieros",
    "Nombre": "BANCO UNION",
    "Direccion": "Calle Luis Suarez esq. nataniel Garcia",
    "Telefono": "null",
    "Latitud": "null",
    "Longitud": "null",
    "Fuente": "web"
  },
  {
    "Departamento": "Beni",
    "Tipo": "ServiciosFinancieros",
    "Nombre": "BANCO UNION",
    "Direccion": "CALLE SUCRE ESQ. 18 DE NOVIEMBRE",
    "Telefono": "null",
    "Latitud": "null",
    "Longitud": "null",
    "Fuente": "web"
  },
  {
    "Departamento": "Beni",
    "Tipo": "ServiciosFinancieros",
    "Nombre": "BANCO UNION",
    "Direccion": "INTERSECCION DE LAS C/JUAN DE DIOS MARTINEZ Y MED",
    "Telefono": "null",
    "Latitud": "null",
    "Longitud": "null",
    "Fuente": "web"
  },
  {
    "Departamento": "Beni",
    "Tipo": "ServiciosFinancieros",
    "Nombre": "CIDRE IFD",
    "Direccion": "AV. NICOLAS SUAREZ N 481 CASI ESQUIna MEDARDO CHA",
    "Telefono": "null",
    "Latitud": "null",
    "Longitud": "null",
    "Fuente": "web"
  },
  {
    "Departamento": "Beni",
    "Tipo": "ServiciosFinancieros",
    "Nombre": "COOP.LA MERCED",
    "Direccion": "Av.Nicolas Suarez esq placido mendez frente a la",
    "Telefono": "null",
    "Latitud": "null",
    "Longitud": "null",
    "Fuente": "web"
  },
  {
    "Departamento": "Beni",
    "Tipo": "ServiciosFinancieros",
    "Nombre": "IDEPRO",
    "Direccion": "AV. MAXIMO HENICKEN S/N. RIBERALTA",
    "Telefono": "null",
    "Latitud": "null",
    "Longitud": "null",
    "Fuente": "web"
  },
  {
    "Departamento": "Beni",
    "Tipo": "ServiciosFinancieros",
    "Nombre": "PRO-MUJER",
    "Direccion": "Av. Placido Mendez y Gabriel Rene Moreno",
    "Telefono": "null",
    "Latitud": "null",
    "Longitud": "null",
    "Fuente": "web"
  },
  {
    "Departamento": "Beni",
    "Tipo": "ServiciosFinancieros",
    "Nombre": "BANCO UNION",
    "Direccion": "AV. COMERCIO ENTRE CALLE VACA DIEZ Y SANTA CRUZ",
    "Telefono": "null",
    "Latitud": "null",
    "Longitud": "null",
    "Fuente": "web"
  },
  {
    "Departamento": "Beni",
    "Tipo": "ServiciosFinancieros",
    "Nombre": "DIACONIA",
    "Direccion": "Calle Bolivar Nro . 32",
    "Telefono": "null",
    "Latitud": "null",
    "Longitud": "null",
    "Fuente": "web"
  },
  {
    "Departamento": "Beni",
    "Tipo": "ServiciosFinancieros",
    "Nombre": "BANCO UNION",
    "Direccion": "C/LA PAZ MEDIA CUADRA DEL LADO SUR DE LA PLAZA 10",
    "Telefono": "null",
    "Latitud": "null",
    "Longitud": "null",
    "Fuente": "web"
  },
  {
    "Departamento": "Beni",
    "Tipo": "ServiciosFinancieros",
    "Nombre": "CACTRI",
    "Direccion": "PLAZA PRINCIPAL ACERA NORTE",
    "Telefono": "null",
    "Latitud": "null",
    "Longitud": "null",
    "Fuente": "web"
  },
  {
    "Departamento": "Beni",
    "Tipo": "ServiciosFinancieros",
    "Nombre": "DIACONIA",
    "Direccion": "C/ ANTOFAGASTA ENTRE SUCRE Y TARIJA S/N",
    "Telefono": "null",
    "Latitud": "null",
    "Longitud": "null",
    "Fuente": "web"
  },
  {
    "Departamento": "Beni",
    "Tipo": "ServiciosFinancieros",
    "Nombre": "BANCO UNION",
    "Direccion": "C Santisteban S frente plaza principal 31 de Julio",
    "Telefono": "null",
    "Latitud": "null",
    "Longitud": "null",
    "Fuente": "web"
  },
  {
    "Departamento": "Beni",
    "Tipo": "ServiciosFinancieros",
    "Nombre": "BANCO UNION",
    "Direccion": "Av.Padre Alfonso Elorriaga entre 18deNoviembre y",
    "Telefono": "null",
    "Latitud": "null",
    "Longitud": "null",
    "Fuente": "web"
  },
  {
    "Departamento": "Beni",
    "Tipo": "ServiciosFinancieros",
    "Nombre": "BANCO UNION",
    "Direccion": "CALLE 18 DE NOVIEMBRE",
    "Telefono": "null",
    "Latitud": "null",
    "Longitud": "null",
    "Fuente": "web"
  },
  {
    "Departamento": "Beni",
    "Tipo": "ServiciosFinancieros",
    "Nombre": "BANCO UNION",
    "Direccion": "C/MANUELITA SUAREZ Y PLAZA BALCAZAR ESPINOZA",
    "Telefono": "null",
    "Latitud": "null",
    "Longitud": "null",
    "Fuente": "web"
  },
  {
    "Departamento": "Beni",
    "Tipo": "ServiciosFinancieros",
    "Nombre": "BANCO UNION",
    "Direccion": "Calle German Busch Esquina Beni",
    "Telefono": "null",
    "Latitud": "null",
    "Longitud": "null",
    "Fuente": "web"
  },
  {
    "Departamento": "Beni",
    "Tipo": "ServiciosFinancieros",
    "Nombre": "BANCO ECOFUTURO",
    "Direccion": "C. Manuel Limpias No. 76",
    "Telefono": "null",
    "Latitud": "-14.834604",
    "Longitud": "-64.901653",
    "Fuente": "web"
  },
  {
    "Departamento": "Beni",
    "Tipo": "ServiciosFinancieros",
    "Nombre": "BANCO PRODEM",
    "Direccion": "Calle Antonio Vaca Diez",
    "Telefono": "null",
    "Latitud": "-14.834422",
    "Longitud": "-64.904802",
    "Fuente": "web"
  },
  {
    "Departamento": "Beni",
    "Tipo": "ServiciosFinancieros",
    "Nombre": "BANCO UNION",
    "Direccion": "Av. Cipriano Baracé # 604",
    "Telefono": "null",
    "Latitud": "null",
    "Longitud": "null",
    "Fuente": "web"
  },
  {
    "Departamento": "Beni",
    "Tipo": "ServiciosFinancieros",
    "Nombre": "BANCO UNION",
    "Direccion": "Av. Bolivar Esquina Alberto Reyes",
    "Telefono": "null",
    "Latitud": "-14.830536",
    "Longitud": "-64.895310",
    "Fuente": "web"
  },
  {
    "Departamento": "Beni",
    "Tipo": "ServiciosFinancieros",
    "Nombre": "CACTRI",
    "Direccion": "C. COCHABAMBA No. 100",
    "Telefono": "null",
    "Latitud": "null",
    "Longitud": "null",
    "Fuente": "web"
  },
  {
    "Departamento": "Beni",
    "Tipo": "ServiciosFinancieros",
    "Nombre": "CRECER IFD",
    "Direccion": "Calle Joaquin de Sierra esq. Mamore",
    "Telefono": "null",
    "Latitud": "-14.837849",
    "Longitud": "-64.903807",
    "Fuente": "web"
  },
  {
    "Departamento": "Beni",
    "Tipo": "ServiciosFinancieros",
    "Nombre": "DIACONIA",
    "Direccion": "C. Torope SN, entre calle Hernan Velarde Rojas",
    "Telefono": "null",
    "Latitud": "null",
    "Longitud": "null",
    "Fuente": "web"
  },
  {
    "Departamento": "Beni",
    "Tipo": "ServiciosFinancieros",
    "Nombre": "LA PROMOTORA",
    "Direccion": "AV. GERMAN BUSCH No. 65",
    "Telefono": "null",
    "Latitud": "null",
    "Longitud": "null",
    "Fuente": "web"
  },
  {
    "Departamento": "Beni",
    "Tipo": "ServiciosFinancieros",
    "Nombre": "PRO-MUJER",
    "Direccion": "CALLE RAUL MONJE ROCA #48,MEDIA CUADRA AV.BOLIVAR",
    "Telefono": "null",
    "Latitud": "null",
    "Longitud": "null",
    "Fuente": "web"
  },
  {
    "Departamento": "Beni",
    "Tipo": "ServiciosFinancieros",
    "Nombre": "BANCO PRODEM",
    "Direccion": "Carretera a Rurrenabaque sn frente a mercado san",
    "Telefono": "null",
    "Latitud": "null",
    "Longitud": "null",
    "Fuente": "web"
  },
  {
    "Departamento": "Beni",
    "Tipo": "ServiciosFinancieros",
    "Nombre": "BANCO UNION",
    "Direccion": "AV. RUREnaBAQUE S",
    "Telefono": "null",
    "Latitud": "null",
    "Longitud": "null",
    "Fuente": "web"
  },
  {
    "Departamento": "Beni",
    "Tipo": "ServiciosFinancieros",
    "Nombre": "DIACONIA",
    "Direccion": "Carretera Principal A Rurrenabaque s/n",
    "Telefono": "null",
    "Latitud": "null",
    "Longitud": "null",
    "Fuente": "web"
  },
  {
    "Departamento": "Cochabamba",
    "Tipo": "ServiciosFinancieros",
    "Nombre": "COOP.SAN PEDRO DE AIQUILE",
    "Direccion": "Calle Sucre, entre Arevalo y Heroes del Chaco",
    "Telefono": "null",
    "Latitud": "null",
    "Longitud": "null",
    "Fuente": "web"
  },
  {
    "Departamento": "Cochabamba",
    "Tipo": "ServiciosFinancieros",
    "Nombre": "COOP.SAN CARLOS BORROMEO",
    "Direccion": "Frente Plaza Principal 12 de Octubre",
    "Telefono": "null",
    "Latitud": "null",
    "Longitud": "null",
    "Fuente": "web"
  },
  {
    "Departamento": "Cochabamba",
    "Tipo": "ServiciosFinancieros",
    "Nombre": "COOP.SAN CARLOS BORROMEO",
    "Direccion": "Calle Obispo La Fuente N.56",
    "Telefono": "null",
    "Latitud": "null",
    "Longitud": "null",
    "Fuente": "web"
  },
  {
    "Departamento": "Cochabamba",
    "Tipo": "ServiciosFinancieros",
    "Nombre": "COOP.LA CANTERA",
    "Direccion": "Plaza 24 de Septiembre acera Norte s.n",
    "Telefono": "null",
    "Latitud": "null",
    "Longitud": "null",
    "Fuente": "web"
  },
  {
    "Departamento": "Cochabamba",
    "Tipo": "ServiciosFinancieros",
    "Nombre": "FUBODE",
    "Direccion": "Plaza Principal acera Sud sn lado H.A.M. de Capin",
    "Telefono": "null",
    "Latitud": "null",
    "Longitud": "null",
    "Fuente": "web"
  },
  {
    "Departamento": "Cochabamba",
    "Tipo": "ServiciosFinancieros",
    "Nombre": "CIDRE IFD",
    "Direccion": "Avenida Panamericana S y Manzanitos",
    "Telefono": "null",
    "Latitud": "null",
    "Longitud": "null",
    "Fuente": "web"
  },
  {
    "Departamento": "Cochabamba",
    "Tipo": "ServiciosFinancieros",
    "Nombre": "BANCO FASSIL",
    "Direccion": "Calle nataniel Aguirre esq. Calama",
    "Telefono": "null",
    "Latitud": "-17.396549",
    "Longitud": "-66.157043",
    "Fuente": "web"
  },
  {
    "Departamento": "Cochabamba",
    "Tipo": "ServiciosFinancieros",
    "Nombre": "BANCO FORTALEZA",
    "Direccion": "Av.Ballivian No.739, entre calles Teniente Ar‚val",
    "Telefono": "null",
    "Latitud": "null",
    "Longitud": "null",
    "Fuente": "web"
  },
  {
    "Departamento": "Cochabamba",
    "Tipo": "ServiciosFinancieros",
    "Nombre": "BANCO PRODEM",
    "Direccion": "c/Calama entre Ayacucho y nataniel Aguirre No.164",
    "Telefono": "null",
    "Latitud": "-17.396624",
    "Longitud": "-66.157418",
    "Fuente": "web"
  },
  {
    "Departamento": "Cochabamba",
    "Tipo": "ServiciosFinancieros",
    "Nombre": "BANCO UNION",
    "Direccion": "Calle 25 de Mayo, esquina Sucre Nø 0385",
    "Telefono": "null",
    "Latitud": "-17.394045",
    "Longitud": "-66.155254",
    "Fuente": "web"
  },
  {
    "Departamento": "Cochabamba",
    "Tipo": "ServiciosFinancieros",
    "Nombre": "BANCO UNION",
    "Direccion": "Plaza Sucre entre Pasteur y Aurelio Melean N.1033",
    "Telefono": "null",
    "Latitud": "-17.391764",
    "Longitud": "-66.148338",
    "Fuente": "web"
  },
  {
    "Departamento": "Cochabamba",
    "Tipo": "ServiciosFinancieros",
    "Nombre": "C.A.C. ASUNCION",
    "Direccion": "C 25 DE MAYO N.818 ENTRE AV. AROMA Y BRAZIL",
    "Telefono": "null",
    "Latitud": "null",
    "Longitud": "null",
    "Fuente": "web"
  },
  {
    "Departamento": "Cochabamba",
    "Tipo": "ServiciosFinancieros",
    "Nombre": "CACEF LTDA",
    "Direccion": "Av.Ayacucho N.331",
    "Telefono": "null",
    "Latitud": "-17.390373",
    "Longitud": "-66.159323",
    "Fuente": "web"
  },
  {
    "Departamento": "Cochabamba",
    "Tipo": "ServiciosFinancieros",
    "Nombre": "CIDRE IFD",
    "Direccion": "Av. Capitan Ustariz Nro. 2003",
    "Telefono": "null",
    "Latitud": "-17.396415",
    "Longitud": "-66.179082",
    "Fuente": "web"
  },
  {
    "Departamento": "Cochabamba",
    "Tipo": "ServiciosFinancieros",
    "Nombre": "CIDRE IFD",
    "Direccion": "Calle Juan de La Cruz Torrez N.1674",
    "Telefono": "null",
    "Latitud": "null",
    "Longitud": "null",
    "Fuente": "web"
  },
  {
    "Departamento": "Cochabamba",
    "Tipo": "ServiciosFinancieros",
    "Nombre": "COOP. COMARAPA LTDA.",
    "Direccion": "Av. Republica Nro. 1947 esq. Av. 6 de agosto",
    "Telefono": "null",
    "Latitud": "-17.410556",
    "Longitud": "-66.150875",
    "Fuente": "web"
  },
  {
    "Departamento": "Cochabamba",
    "Tipo": "ServiciosFinancieros",
    "Nombre": "COOP. EMPETROL",
    "Direccion": "C/LANZA No. 548 ENTRE SALAMANCA Y PACCIERI",
    "Telefono": "null",
    "Latitud": "-17.386995",
    "Longitud": "-66.154446",
    "Fuente": "web"
  },
  {
    "Departamento": "Cochabamba",
    "Tipo": "ServiciosFinancieros",
    "Nombre": "COOP. PIO X",
    "Direccion": "Av. Mancokapac No.924",
    "Telefono": "null",
    "Latitud": "-17.402672",
    "Longitud": "-66.166822",
    "Fuente": "web"
  },
  {
    "Departamento": "Cochabamba",
    "Tipo": "ServiciosFinancieros",
    "Nombre": "COOP. SAN ANTONIO",
    "Direccion": "Av.Libertador N.1567 casi Av.America",
    "Telefono": "null",
    "Latitud": "-17.372510",
    "Longitud": "-66.163388",
    "Fuente": "web"
  },
  {
    "Departamento": "Cochabamba",
    "Tipo": "ServiciosFinancieros",
    "Nombre": "COOP. SAN MARTIN DE PORRES",
    "Direccion": "Av. Ayacucho N.290 Esq.Santivanez",
    "Telefono": "null",
    "Latitud": "-17.394598",
    "Longitud": "-66.158511",
    "Fuente": "web"
  },
  {
    "Departamento": "Cochabamba",
    "Tipo": "ServiciosFinancieros",
    "Nombre": "COOP. CRISTO REY",
    "Direccion": "Av. Peru Nro. 593",
    "Telefono": "null",
    "Latitud": "null",
    "Longitud": "null",
    "Fuente": "web"
  },
  {
    "Departamento": "Cochabamba",
    "Tipo": "ServiciosFinancieros",
    "Nombre": "COOP. LOYOLA LTDA.",
    "Direccion": "Antezana No. S-0397 Esq. Jordan",
    "Telefono": "null",
    "Latitud": "-17.394506",
    "Longitud": "-66.151763",
    "Fuente": "web"
  },
  {
    "Departamento": "Cochabamba",
    "Tipo": "ServiciosFinancieros",
    "Nombre": "COOP. SAN CARLOS BORROMEO",
    "Direccion": "Av.Republica N.1644 entre Calle Guayaramerin y Av",
    "Telefono": "null",
    "Latitud": "-17.407501",
    "Longitud": "-66.150866",
    "Fuente": "web"
  },
  {
    "Departamento": "Cochabamba",
    "Tipo": "ServiciosFinancieros",
    "Nombre": "COOP. SAN JOAQUIN LTDA.",
    "Direccion": "AV. VICTOR USTARIZ No.3119 ESQ. POnaNSKI",
    "Telefono": "null",
    "Latitud": "null",
    "Longitud": "null",
    "Fuente": "web"
  },
  {
    "Departamento": "Cochabamba",
    "Tipo": "ServiciosFinancieros",
    "Nombre": "COOP. SAN JOAQUIN LTDA.",
    "Direccion": "AV. CIRCUNVALACION N.889, ESQUIna AV. CALAMPAMPA",
    "Telefono": "null",
    "Latitud": "-17.360869",
    "Longitud": "-66.170668",
    "Fuente": "web"
  },
  {
    "Departamento": "Cochabamba",
    "Tipo": "ServiciosFinancieros",
    "Nombre": "COOP. SAN JOAQUIN LTDA.",
    "Direccion": "AV. DE LA PATRIA NO.1961",
    "Telefono": "null",
    "Latitud": "-17.413206",
    "Longitud": "-66.164108",
    "Fuente": "web"
  },
  {
    "Departamento": "Cochabamba",
    "Tipo": "ServiciosFinancieros",
    "Nombre": "COOP. SARCO",
    "Direccion": "AV. AMERICA OESTE Nro. 1386",
    "Telefono": "null",
    "Latitud": "-17.371367",
    "Longitud": "-66.176941",
    "Fuente": "web"
  },
  {
    "Departamento": "Cochabamba",
    "Tipo": "ServiciosFinancieros",
    "Nombre": "COOP. TUKUYPAJ",
    "Direccion": "Av. Simon Lopez N.2685 entre Ma.Ballivian y Humbe",
    "Telefono": "null",
    "Latitud": "-17.355340",
    "Longitud": "-66.187019",
    "Fuente": "web"
  },
  {
    "Departamento": "Cochabamba",
    "Tipo": "ServiciosFinancieros",
    "Nombre": "DIACONIA",
    "Direccion": "Av. Republica Nro. 1185",
    "Telefono": "null",
    "Latitud": "-17.407514",
    "Longitud": "-66.150866",
    "Fuente": "web"
  },
  {
    "Departamento": "Cochabamba",
    "Tipo": "ServiciosFinancieros",
    "Nombre": "FUBODE",
    "Direccion": "C/ANTEZAna 216 ENTRE ECUADOR Y COLOMBIA",
    "Telefono": "null",
    "Latitud": "null",
    "Longitud": "null",
    "Fuente": "web"
  },
  {
    "Departamento": "Cochabamba",
    "Tipo": "ServiciosFinancieros",
    "Nombre": "FUBODE",
    "Direccion": "AV. PAnaMERICAna 2806",
    "Telefono": "null",
    "Latitud": "-17.422705",
    "Longitud": "-66.158300",
    "Fuente": "web"
  },
  {
    "Departamento": "Cochabamba",
    "Tipo": "ServiciosFinancieros",
    "Nombre": "HOSPICIO",
    "Direccion": "AV. BEIJING NRO.285 ESQ. IDELFONSO",
    "Telefono": "null",
    "Latitud": "null",
    "Longitud": "null",
    "Fuente": "web"
  },
  {
    "Departamento": "Cochabamba",
    "Tipo": "ServiciosFinancieros",
    "Nombre": "HOSPICIO",
    "Direccion": "c/25 de Mayo entre Colombia y Ecuador",
    "Telefono": "null",
    "Latitud": "-17.390229",
    "Longitud": "-66.156098",
    "Fuente": "web"
  },
  {
    "Departamento": "Cochabamba",
    "Tipo": "ServiciosFinancieros",
    "Nombre": "LA PROMOTORA",
    "Direccion": "c/Espana esq. Heroinas No.0111",
    "Telefono": "null",
    "Latitud": "-17.392341",
    "Longitud": "-66.156580",
    "Fuente": "web"
  },
  {
    "Departamento": "Cochabamba",
    "Tipo": "ServiciosFinancieros",
    "Nombre": "SEMBRAR SARTAWI",
    "Direccion": "AV. BLANCO GALINDO N.1158 ENTRE AV. PERU Y S. ALB",
    "Telefono": "null",
    "Latitud": "null",
    "Longitud": "null",
    "Fuente": "web"
  },
  {
    "Departamento": "Cochabamba",
    "Tipo": "ServiciosFinancieros",
    "Nombre": "CIDRE IFD",
    "Direccion": "C. MAN CESPED S.N. KM. 49 CARRETERA CBBA STA. CRU",
    "Telefono": "null",
    "Latitud": "null",
    "Longitud": "null",
    "Fuente": "web"
  },
  {
    "Departamento": "Cochabamba",
    "Tipo": "ServiciosFinancieros",
    "Nombre": "BANCO UNION",
    "Direccion": "Calle Eduardo Avaroa s esq. Bolívar (Plaza Princip",
    "Telefono": "null",
    "Latitud": "null",
    "Longitud": "null",
    "Fuente": "web"
  },
  {
    "Departamento": "Cochabamba",
    "Tipo": "ServiciosFinancieros",
    "Nombre": "CIDRE IFD",
    "Direccion": "CARRETERA PRINCIPAL A SCZ Km. 271,ACERA NORTE",
    "Telefono": "null",
    "Latitud": "null",
    "Longitud": "null",
    "Fuente": "web"
  },
  {
    "Departamento": "Cochabamba",
    "Tipo": "ServiciosFinancieros",
    "Nombre": "COOP.MAGISTERIO RURAL TARIJA LTDA",
    "Direccion": "Calle Froilan Tejerina y Alianza",
    "Telefono": "null",
    "Latitud": "null",
    "Longitud": "null",
    "Fuente": "web"
  },
  {
    "Departamento": "Cochabamba",
    "Tipo": "ServiciosFinancieros",
    "Nombre": "C.A.C. SAN FRANCISCO DE ASIS LTDA.",
    "Direccion": "PLZ. 6 DE AGOSTO Villa Indep Prov. Ayopaya acera",
    "Telefono": "null",
    "Latitud": "null",
    "Longitud": "null",
    "Fuente": "web"
  },
  {
    "Departamento": "Cochabamba",
    "Tipo": "ServiciosFinancieros",
    "Nombre": "CIDRE IFD",
    "Direccion": "AV. MORTENSSON S.N. PLAZA PRINCIPAL",
    "Telefono": "null",
    "Latitud": "null",
    "Longitud": "null",
    "Fuente": "web"
  },
  {
    "Departamento": "Cochabamba",
    "Tipo": "ServiciosFinancieros",
    "Nombre": "COOP. PIO X",
    "Direccion": "AV. MONTESORI ESQ. LEOnaRDO QUISPE",
    "Telefono": "null",
    "Latitud": "null",
    "Longitud": "null",
    "Fuente": "web"
  },
  {
    "Departamento": "Cochabamba",
    "Tipo": "ServiciosFinancieros",
    "Nombre": "CIDRE IFD",
    "Direccion": "CALLE LITORAL S.N. ENTRE COCHABAMBA Y MORALES",
    "Telefono": "null",
    "Latitud": "null",
    "Longitud": "null",
    "Fuente": "web"
  },
  {
    "Departamento": "Cochabamba",
    "Tipo": "ServiciosFinancieros",
    "Nombre": "SEMBRAR SARTAWI",
    "Direccion": "C. Tapia s.n. Plaza Independencia",
    "Telefono": "null",
    "Latitud": "null",
    "Longitud": "null",
    "Fuente": "web"
  },
  {
    "Departamento": "Cochabamba",
    "Tipo": "ServiciosFinancieros",
    "Nombre": "COOP. COMARAPA LTDA.",
    "Direccion": "Plaza 9 de Mayo esq. Bolivar",
    "Telefono": "null",
    "Latitud": "null",
    "Longitud": "null",
    "Fuente": "web"
  },
  {
    "Departamento": "Cochabamba",
    "Tipo": "ServiciosFinancieros",
    "Nombre": "COOP.SAN PEDRO DE AIQUILE",
    "Direccion": "Plaza 9 de mayo",
    "Telefono": "null",
    "Latitud": "null",
    "Longitud": "null",
    "Fuente": "web"
  },
  {
    "Departamento": "Cochabamba",
    "Tipo": "ServiciosFinancieros",
    "Nombre": "FUBODE",
    "Direccion": "Calle Andrés María Torrico, Esquina Ingavi",
    "Telefono": "null",
    "Latitud": "-17.543816",
    "Longitud": "-65.837360",
    "Fuente": "web"
  },
  {
    "Departamento": "Cochabamba",
    "Tipo": "ServiciosFinancieros",
    "Nombre": "HOSPICIO",
    "Direccion": "Av Gualberto Villarroel",
    "Telefono": "null",
    "Latitud": "-17.547026",
    "Longitud": "-65.836225",
    "Fuente": "web"
  },
  {
    "Departamento": "Cochabamba",
    "Tipo": "ServiciosFinancieros",
    "Nombre": "SEMBRAR SARTAWI",
    "Direccion": "AV. GUALBERTO VILLARROEL NO.107",
    "Telefono": "null",
    "Latitud": "-17.547412",
    "Longitud": "-65.836254",
    "Fuente": "web"
  },
  {
    "Departamento": "Cochabamba",
    "Tipo": "ServiciosFinancieros",
    "Nombre": "BANCO FORTALEZA",
    "Direccion": "Calle Cochabamba s.n entre Heroes del Acre y Ball",
    "Telefono": "null",
    "Latitud": "-17.396534",
    "Longitud": "-66.280776",
    "Fuente": "web"
  },
  {
    "Departamento": "Cochabamba",
    "Tipo": "ServiciosFinancieros",
    "Nombre": "BANCO UNION",
    "Direccion": "Calle 14 de septiembre #E-138",
    "Telefono": "null",
    "Latitud": "null",
    "Longitud": "null",
    "Fuente": "web"
  },
  {
    "Departamento": "Cochabamba",
    "Tipo": "ServiciosFinancieros",
    "Nombre": "CAC COOPROLE LTDA.",
    "Direccion": "Calle Carmela Serruto casi esq.Av.Santa Cruz",
    "Telefono": "null",
    "Latitud": "-17.393015",
    "Longitud": "-66.282882",
    "Fuente": "web"
  },
  {
    "Departamento": "Cochabamba",
    "Tipo": "ServiciosFinancieros",
    "Nombre": "CIDRE IFD",
    "Direccion": "Av. Albina Pati¤o No.220 entre Av. Sta. Cruz y Co",
    "Telefono": "null",
    "Latitud": "null",
    "Longitud": "null",
    "Fuente": "web"
  },
  {
    "Departamento": "Cochabamba",
    "Tipo": "ServiciosFinancieros",
    "Nombre": "COOP.CRISTO REY",
    "Direccion": "Plaza 27 de mayo",
    "Telefono": "null",
    "Latitud": "null",
    "Longitud": "null",
    "Fuente": "web"
  },
  {
    "Departamento": "Cochabamba",
    "Tipo": "ServiciosFinancieros",
    "Nombre": "HOSPICIO",
    "Direccion": "Plaza Bolivar",
    "Telefono": "null",
    "Latitud": "null",
    "Longitud": "null",
    "Fuente": "web"
  },
  {
    "Departamento": "Cochabamba",
    "Tipo": "ServiciosFinancieros",
    "Nombre": "PRO-MUJER",
    "Direccion": "Av. Blanco Galindo entre 23 de Marzo y Suarez Mir",
    "Telefono": "null",
    "Latitud": "null",
    "Longitud": "null",
    "Fuente": "web"
  },
  {
    "Departamento": "Cochabamba",
    "Tipo": "ServiciosFinancieros",
    "Nombre": "SEMBRAR SARTAWI",
    "Direccion": "CALLE CARMELA SERRUTO N.126 ENTRE W.BALLIVIAN Y S",
    "Telefono": "null",
    "Latitud": "null",
    "Longitud": "null",
    "Fuente": "web"
  },
  {
    "Departamento": "Cochabamba",
    "Tipo": "ServiciosFinancieros",
    "Nombre": "BANCO FORTALEZA",
    "Direccion": "CALLE BOLIVAR Nro. 366 ENTRE AYACUCHO Y COLON",
    "Telefono": "null",
    "Latitud": "-17.403704",
    "Longitud": "-66.038502",
    "Fuente": "web"
  },
  {
    "Departamento": "Cochabamba",
    "Tipo": "ServiciosFinancieros",
    "Nombre": "BANCO UNION",
    "Direccion": "AVENIDA BARRIENTOS ESQUIna MONSE¥OR ALCOCER SN",
    "Telefono": "null",
    "Latitud": "null",
    "Longitud": "null",
    "Fuente": "web"
  },
  {
    "Departamento": "Cochabamba",
    "Tipo": "ServiciosFinancieros",
    "Nombre": "CACEF LTDA",
    "Direccion": "Plaza 06 de Agosto acera Norte",
    "Telefono": "null",
    "Latitud": "-17.403507",
    "Longitud": "-66.040038",
    "Fuente": "web"
  },
  {
    "Departamento": "Cochabamba",
    "Tipo": "ServiciosFinancieros",
    "Nombre": "COOP. PIO X",
    "Direccion": "Calle Junin N.155",
    "Telefono": "null",
    "Latitud": "null",
    "Longitud": "null",
    "Fuente": "web"
  },
  {
    "Departamento": "Cochabamba",
    "Tipo": "ServiciosFinancieros",
    "Nombre": "FUBODE",
    "Direccion": "CALLE BOLIVAR 100 ESQ. COLON",
    "Telefono": "null",
    "Latitud": "-17.404111",
    "Longitud": "-66.038630",
    "Fuente": "web"
  },
  {
    "Departamento": "Cochabamba",
    "Tipo": "ServiciosFinancieros",
    "Nombre": "SEMBRAR SARTAWI",
    "Direccion": "Calle Ingavi N. 614 esq. Calle Bolivar",
    "Telefono": "null",
    "Latitud": "null",
    "Longitud": "null",
    "Fuente": "web"
  },
  {
    "Departamento": "Cochabamba",
    "Tipo": "ServiciosFinancieros",
    "Nombre": "CACEF LTDA",
    "Direccion": "Av. Panamericana esq. Calle Miraflores",
    "Telefono": "null",
    "Latitud": "null",
    "Longitud": "null",
    "Fuente": "web"
  },
  {
    "Departamento": "Cochabamba",
    "Tipo": "ServiciosFinancieros",
    "Nombre": "CACEF LTDA",
    "Direccion": "Plaza 30 de Abril Acera Sud",
    "Telefono": "null",
    "Latitud": "null",
    "Longitud": "null",
    "Fuente": "web"
  },
  {
    "Departamento": "Cochabamba",
    "Tipo": "ServiciosFinancieros",
    "Nombre": "CACEF LTDA",
    "Direccion": "Plaza Principla lado oeste",
    "Telefono": "null",
    "Latitud": "null",
    "Longitud": "null",
    "Fuente": "web"
  },
  {
    "Departamento": "Cochabamba",
    "Tipo": "ServiciosFinancieros",
    "Nombre": "CIDRE IFD",
    "Direccion": "CALLE SANTA CRUZ S ENTRE CALLES VANDIOLA Y COSTAN",
    "Telefono": "null",
    "Latitud": "null",
    "Longitud": "null",
    "Fuente": "web"
  },
  {
    "Departamento": "Cochabamba",
    "Tipo": "ServiciosFinancieros",
    "Nombre": "COOP.CRISTO REY",
    "Direccion": "Plaza Ladislao Cabrera",
    "Telefono": "null",
    "Latitud": "null",
    "Longitud": "null",
    "Fuente": "web"
  },
  {
    "Departamento": "Cochabamba",
    "Tipo": "ServiciosFinancieros",
    "Nombre": "COOP.SAN CARLOS BORROMEO",
    "Direccion": "Calle Junin y Calle Aroma s.n Mercado central ace",
    "Telefono": "null",
    "Latitud": "null",
    "Longitud": "null",
    "Fuente": "web"
  },
  {
    "Departamento": "Cochabamba",
    "Tipo": "ServiciosFinancieros",
    "Nombre": "COOP. SAN ANTONIO",
    "Direccion": "Av.Integracion esq.Chuquisaca s.n Central",
    "Telefono": "null",
    "Latitud": "null",
    "Longitud": "null",
    "Fuente": "web"
  },
  {
    "Departamento": "La Paz",
    "Tipo": "ServiciosFinancieros",
    "Nombre": "BANCO FIE",
    "Direccion": "Plaza Mcal. Andres de Santa Cruz No.50",
    "Telefono": "null",
    "Latitud": "null",
    "Longitud": "null",
    "Fuente": "web"
  },
  {
    "Departamento": "La Paz",
    "Tipo": "ServiciosFinancieros",
    "Nombre": "BANCO PRODEM",
    "Direccion": "Maximiiano Paredes N§ 15 esquina Yanacocha",
    "Telefono": "null",
    "Latitud": "null",
    "Longitud": "null",
    "Fuente": "web"
  },
  {
    "Departamento": "La Paz",
    "Tipo": "ServiciosFinancieros",
    "Nombre": "BANCO ECOFUTURO",
    "Direccion": "PLAZA BOLIVAR, ACERA NORTE",
    "Telefono": "null",
    "Latitud": "null",
    "Longitud": "null",
    "Fuente": "web"
  },
  {
    "Departamento": "La Paz",
    "Tipo": "ServiciosFinancieros",
    "Nombre": "BANCO PRODEM",
    "Direccion": "Avenida 30 de Agosto SN",
    "Telefono": "null",
    "Latitud": "null",
    "Longitud": "null",
    "Fuente": "web"
  },
  {
    "Departamento": "La Paz",
    "Tipo": "ServiciosFinancieros",
    "Nombre": "BANCO FIE",
    "Direccion": "Plaza Rene Barrientos S/N",
    "Telefono": "null",
    "Latitud": "null",
    "Longitud": "null",
    "Fuente": "web"
  },
  {
    "Departamento": "La Paz",
    "Tipo": "ServiciosFinancieros",
    "Nombre": "SEMBRAR SARTAWI",
    "Direccion": "PLAZA PRINCIPAL DE LA LOCALIDAD DE BATALLAS",
    "Telefono": "null",
    "Latitud": "null",
    "Longitud": "null",
    "Fuente": "web"
  },
  {
    "Departamento": "La Paz",
    "Tipo": "ServiciosFinancieros",
    "Nombre": "SEMBRAR SARTAWI",
    "Direccion": "Plaza 16 de Julio S.N.",
    "Telefono": "null",
    "Latitud": "null",
    "Longitud": "null",
    "Fuente": "web"
  },
  {
    "Departamento": "La Paz",
    "Tipo": "ServiciosFinancieros",
    "Nombre": "BANCO UNION",
    "Direccion": "Av. Mariscal Santa Cruz s entre Litoral y Kilómet",
    "Telefono": "null",
    "Latitud": "null",
    "Longitud": "null",
    "Fuente": "web"
  },
  {
    "Departamento": "La Paz",
    "Tipo": "ServiciosFinancieros",
    "Nombre": "SEMBRAR SARTAWI",
    "Direccion": "Av. Mcal. Santa Cruz entre c. Batallon de ing.",
    "Telefono": "null",
    "Latitud": "null",
    "Longitud": "null",
    "Fuente": "web"
  },
  {
    "Departamento": "La Paz",
    "Tipo": "ServiciosFinancieros",
    "Nombre": "BANCO PRODEM",
    "Direccion": "Plaza Martin Villalobos, esq. Gral Pando",
    "Telefono": "null",
    "Latitud": "null",
    "Longitud": "null",
    "Fuente": "web"
  },
  {
    "Departamento": "La Paz",
    "Tipo": "ServiciosFinancieros",
    "Nombre": "BANCO PRODEM",
    "Direccion": "Av. 6 de Agosto s.n. entre Calles Oruro y Pando",
    "Telefono": "null",
    "Latitud": "-16.165757",
    "Longitud": "-69.086505",
    "Fuente": "web"
  },
  {
    "Departamento": "La Paz",
    "Tipo": "ServiciosFinancieros",
    "Nombre": "BANCO PRODEM",
    "Direccion": "Saturnino Guerra s lado Plaza 16 de Julio",
    "Telefono": "null",
    "Latitud": "-16.313777",
    "Longitud": "-67.606427",
    "Fuente": "web"
  },
  {
    "Departamento": "La Paz",
    "Tipo": "ServiciosFinancieros",
    "Nombre": "BANCO PRODEM",
    "Direccion": "C. Julio Suazo s.n, Plaza Principal",
    "Telefono": "null",
    "Latitud": "-16.188595",
    "Longitud": "-67.727108",
    "Fuente": "web"
  },
  {
    "Departamento": "La Paz",
    "Tipo": "ServiciosFinancieros",
    "Nombre": "SEMBRAR SARTAWI",
    "Direccion": "C. Tomas Monje esq. pje. Adalid Linares",
    "Telefono": "null",
    "Latitud": "null",
    "Longitud": "null",
    "Fuente": "web"
  },
  {
    "Departamento": "La Paz",
    "Tipo": "ServiciosFinancieros",
    "Nombre": "BANCO ECOFUTURO",
    "Direccion": "C. 3 No. 1304-CEJA",
    "Telefono": "null",
    "Latitud": "null",
    "Longitud": "null",
    "Fuente": "web"
  },
  {
    "Departamento": "La Paz",
    "Tipo": "ServiciosFinancieros",
    "Nombre": "BANCO FASSIL",
    "Direccion": "AV. JORGE CARRASCO No.61",
    "Telefono": "null",
    "Latitud": "-16.507681",
    "Longitud": "-68.162976",
    "Fuente": "web"
  },
  {
    "Departamento": "La Paz",
    "Tipo": "ServiciosFinancieros",
    "Nombre": "BANCO FIE",
    "Direccion": "Calle Jorge Carrasco No. 63 Zona 12 de Octubre",
    "Telefono": "null",
    "Latitud": "null",
    "Longitud": "null",
    "Fuente": "web"
  },
  {
    "Departamento": "La Paz",
    "Tipo": "ServiciosFinancieros",
    "Nombre": "BANCO FIE",
    "Direccion": "Av. Bolivia No. 1101 (cruce Villa Adela)",
    "Telefono": "null",
    "Latitud": "-16.534346",
    "Longitud": "-68.190648",
    "Fuente": "web"
  },
  {
    "Departamento": "La Paz",
    "Tipo": "ServiciosFinancieros",
    "Nombre": "BANCO FIE",
    "Direccion": "Av. Juan Pablo II No.60 (ex tranca Rio Seco)",
    "Telefono": "null",
    "Latitud": "-16.490178",
    "Longitud": "-68.207141",
    "Fuente": "web"
  },
  {
    "Departamento": "La Paz",
    "Tipo": "ServiciosFinancieros",
    "Nombre": "BANCO FIE",
    "Direccion": "Av. Aconcagua No. 8394",
    "Telefono": "null",
    "Latitud": "null",
    "Longitud": "null",
    "Fuente": "web"
  },
  {
    "Departamento": "La Paz",
    "Tipo": "ServiciosFinancieros",
    "Nombre": "BANCO FORTALEZA",
    "Direccion": "Av. 6 de marzo Nro 41",
    "Telefono": "null",
    "Latitud": "null",
    "Longitud": "null",
    "Fuente": "web"
  },
  {
    "Departamento": "La Paz",
    "Tipo": "ServiciosFinancieros",
    "Nombre": "BANCO FORTALEZA",
    "Direccion": "Av. Ladislao Cabrera No.15",
    "Telefono": "null",
    "Latitud": "-16.535287",
    "Longitud": "-68.190927",
    "Fuente": "web"
  },
  {
    "Departamento": "La Paz",
    "Tipo": "ServiciosFinancieros",
    "Nombre": "BANCO PRODEM",
    "Direccion": "Av. 6 de marzo Nro 41",
    "Telefono": "null",
    "Latitud": "-16.507522",
    "Longitud": "-68.164169",
    "Fuente": "web"
  },
  {
    "Departamento": "La Paz",
    "Tipo": "ServiciosFinancieros",
    "Nombre": "BANCO UNION",
    "Direccion": "Avenida Juan Pablo II Nø 2885 casi esq. Banzer",
    "Telefono": "null",
    "Latitud": "null",
    "Longitud": "null",
    "Fuente": "web"
  },
  {
    "Departamento": "La Paz",
    "Tipo": "ServiciosFinancieros",
    "Nombre": "BANCO UNION",
    "Direccion": "Calle Ladislao Cabrera N§ 1017, cruce Villa Adela",
    "Telefono": "null",
    "Latitud": "-16.535136",
    "Longitud": "-68.190794",
    "Fuente": "web"
  },
  {
    "Departamento": "La Paz",
    "Tipo": "ServiciosFinancieros",
    "Nombre": "BANCO UNION",
    "Direccion": "Calle 1 Nø 1 entre Calle Franco Valle y Avenida J",
    "Telefono": "null",
    "Latitud": "null",
    "Longitud": "null",
    "Fuente": "web"
  },
  {
    "Departamento": "La Paz",
    "Tipo": "ServiciosFinancieros",
    "Nombre": "COOP. LA SAGRADA FAMILIA",
    "Direccion": "AV. ALFONSO UGARTE No. 1230",
    "Telefono": "null",
    "Latitud": "-16.489938",
    "Longitud": "-68.172326",
    "Fuente": "web"
  },
  {
    "Departamento": "La Paz",
    "Tipo": "ServiciosFinancieros",
    "Nombre": "CRECER IFD",
    "Direccion": "Plan 405 Calle 17 Nro 984",
    "Telefono": "null",
    "Latitud": "null",
    "Longitud": "null",
    "Fuente": "web"
  },
  {
    "Departamento": "La Paz",
    "Tipo": "ServiciosFinancieros",
    "Nombre": "DIACONIA",
    "Direccion": "Av. Juan Pablo II Nro. 125 esq. Jorge Eulert",
    "Telefono": "null",
    "Latitud": "-16.500180",
    "Longitud": "-68.173633",
    "Fuente": "web"
  },
  {
    "Departamento": "La Paz",
    "Tipo": "ServiciosFinancieros",
    "Nombre": "DIACONIA",
    "Direccion": "Av. Franco Valle Nro. 900",
    "Telefono": "null",
    "Latitud": "-16.500180",
    "Longitud": "-68.173633",
    "Fuente": "web"
  },
  {
    "Departamento": "La Paz",
    "Tipo": "ServiciosFinancieros",
    "Nombre": "DIACONIA",
    "Direccion": "Av. Juan Pablo II Nro 60,Zona Rio Seco(Ex-Tranca)",
    "Telefono": "null",
    "Latitud": "null",
    "Longitud": "null",
    "Fuente": "web"
  },
  {
    "Departamento": "La Paz",
    "Tipo": "ServiciosFinancieros",
    "Nombre": "DIACONIA",
    "Direccion": "Carretera Viacha Nro 11",
    "Telefono": "null",
    "Latitud": "null",
    "Longitud": "null",
    "Fuente": "web"
  },
  {
    "Departamento": "La Paz",
    "Tipo": "ServiciosFinancieros",
    "Nombre": "FUBODE",
    "Direccion": "Z. Tejada Rectangular entre Av. C¡vica,C.9, N.50",
    "Telefono": "null",
    "Latitud": "null",
    "Longitud": "null",
    "Fuente": "web"
  },
  {
    "Departamento": "La Paz",
    "Tipo": "ServiciosFinancieros",
    "Nombre": "HOSPICIO",
    "Direccion": "Av. Alfonso Ugarte",
    "Telefono": "null",
    "Latitud": "null",
    "Longitud": "null",
    "Fuente": "web"
  },
  {
    "Departamento": "La Paz",
    "Tipo": "ServiciosFinancieros",
    "Nombre": "IDEPRO",
    "Direccion": "AV. 6 DE MARZO. ESQ. CALLE 3 N§. 100. 1er PISO.",
    "Telefono": "null",
    "Latitud": "null",
    "Longitud": "null",
    "Fuente": "web"
  },
  {
    "Departamento": "La Paz",
    "Tipo": "ServiciosFinancieros",
    "Nombre": "LA PRIMERA EFV",
    "Direccion": "Av. Raul Salmon No.24, Zona 12 de Octubre",
    "Telefono": "null",
    "Latitud": "null",
    "Longitud": "null",
    "Fuente": "web"
  },
  {
    "Departamento": "La Paz",
    "Tipo": "ServiciosFinancieros",
    "Nombre": "PRO-MUJER",
    "Direccion": "Av. Santiago de Machaca No. 1005, esq. Av. Muro P",
    "Telefono": "null",
    "Latitud": "null",
    "Longitud": "null",
    "Fuente": "web"
  },
  {
    "Departamento": "La Paz",
    "Tipo": "ServiciosFinancieros",
    "Nombre": "SEMBRAR SARTAWI",
    "Direccion": "AV. JUAN PABLO II CALLE 1 Nº 8 FRENTE A IDENTIFIC",
    "Telefono": "null",
    "Latitud": "null",
    "Longitud": "null",
    "Fuente": "web"
  },
  {
    "Departamento": "La Paz",
    "Tipo": "ServiciosFinancieros",
    "Nombre": "SEMBRAR SARTAWI",
    "Direccion": "CAMINO A VIACHA ESQ AV BOLIVIA N°13",
    "Telefono": "null",
    "Latitud": "null",
    "Longitud": "null",
    "Fuente": "web"
  },
  {
    "Departamento": "La Paz",
    "Tipo": "ServiciosFinancieros",
    "Nombre": "SEMBRAR SARTAWI",
    "Direccion": "AV.FRANCO VALLE NRO 11 ENTRE C 5 Y 6, ZOna 12 DE",
    "Telefono": "null",
    "Latitud": "null",
    "Longitud": "null",
    "Fuente": "web"
  },
  {
    "Departamento": "La Paz",
    "Tipo": "ServiciosFinancieros",
    "Nombre": "SEMBRAR SARTAWI",
    "Direccion": "Av. 6 de Agosto N. 2125",
    "Telefono": "null",
    "Latitud": "null",
    "Longitud": "null",
    "Fuente": "web"
  },
  {
    "Departamento": "La Paz",
    "Tipo": "ServiciosFinancieros",
    "Nombre": "BANCO PRODEM",
    "Direccion": "Plaza Victorio Lanza s Zona Central",
    "Telefono": "null",
    "Latitud": "null",
    "Longitud": "null",
    "Fuente": "web"
  },
  {
    "Departamento": "La Paz",
    "Tipo": "ServiciosFinancieros",
    "Nombre": "BANCO PRODEM",
    "Direccion": "Avenida Rene Barrientos S.N.",
    "Telefono": "null",
    "Latitud": "-16.125070",
    "Longitud": "-67.194475",
    "Fuente": "web"
  },
  {
    "Departamento": "La Paz",
    "Tipo": "ServiciosFinancieros",
    "Nombre": "SEMBRAR SARTAWI",
    "Direccion": "AV.RENE BARRIENTOS ORTUÑO entre 1 de Enero y Oswa",
    "Telefono": "null",
    "Latitud": "-16.127574",
    "Longitud": "-67.194246",
    "Fuente": "web"
  },
  {
    "Departamento": "La Paz",
    "Tipo": "ServiciosFinancieros",
    "Nombre": "BANCO ECOFUTURO",
    "Direccion": "AVENIDA CAMACHO Nø 1377-1389 ESQ.CALLE LOAYZA, ZO",
    "Telefono": "null",
    "Latitud": "null",
    "Longitud": "null",
    "Fuente": "web"
  },
  {
    "Departamento": "La Paz",
    "Tipo": "ServiciosFinancieros",
    "Nombre": "BANCO FASSIL",
    "Direccion": "AV 16 DE JULIO N 1642 ESQ LADISLAO CABRERA",
    "Telefono": "null",
    "Latitud": "-16.502531",
    "Longitud": "-68.132431",
    "Fuente": "web"
  },
  {
    "Departamento": "La Paz",
    "Tipo": "ServiciosFinancieros",
    "Nombre": "BANCO FIE",
    "Direccion": "Calle Montenegro Nro. 1454 Bloque B3 Zona San Mig",
    "Telefono": "null",
    "Latitud": "-16.540765",
    "Longitud": "-68.079348",
    "Fuente": "web"
  },
  {
    "Departamento": "La Paz",
    "Tipo": "ServiciosFinancieros",
    "Nombre": "BANCO FIE",
    "Direccion": "C. General Gonzales No.1272",
    "Telefono": "null",
    "Latitud": "-16.501674",
    "Longitud": "-68.136754",
    "Fuente": "web"
  },
  {
    "Departamento": "La Paz",
    "Tipo": "ServiciosFinancieros",
    "Nombre": "BANCO FORTALEZA",
    "Direccion": "Calle 21 Calacoto esq Av. Costanera sn",
    "Telefono": "null",
    "Latitud": "-16.546458",
    "Longitud": "-68.076541",
    "Fuente": "web"
  },
  {
    "Departamento": "La Paz",
    "Tipo": "ServiciosFinancieros",
    "Nombre": "BANCO FORTALEZA",
    "Direccion": "Av. Las Americas No.353",
    "Telefono": "null",
    "Latitud": "-16.477264",
    "Longitud": "-68.119601",
    "Fuente": "web"
  },
  {
    "Departamento": "La Paz",
    "Tipo": "ServiciosFinancieros",
    "Nombre": "BANCO FORTALEZA",
    "Direccion": "Av. Arce n§ 2799 esq. Cordero",
    "Telefono": "null",
    "Latitud": "-16.512891",
    "Longitud": "-68.120679",
    "Fuente": "web"
  },
  {
    "Departamento": "La Paz",
    "Tipo": "ServiciosFinancieros",
    "Nombre": "BANCO FORTALEZA",
    "Direccion": "Av.16 de Julio No.1440 (Plaza Venezuela)",
    "Telefono": "null",
    "Latitud": "-16.501170",
    "Longitud": "-68.133181",
    "Fuente": "web"
  },
  {
    "Departamento": "La Paz",
    "Tipo": "ServiciosFinancieros",
    "Nombre": "BANCO PRODEM",
    "Direccion": "Av. Camacho No.xxx, esq. Colon",
    "Telefono": "null",
    "Latitud": "null",
    "Longitud": "null",
    "Fuente": "web"
  },
  {
    "Departamento": "La Paz",
    "Tipo": "ServiciosFinancieros",
    "Nombre": "BANCO PRODEM",
    "Direccion": "Av. Montes N. 515",
    "Telefono": "null",
    "Latitud": "-16.498776",
    "Longitud": "-68.134214",
    "Fuente": "web"
  },
  {
    "Departamento": "La Paz",
    "Tipo": "ServiciosFinancieros",
    "Nombre": "BANCO UNION",
    "Direccion": "Avenida 16 de Julio Nro 1544, El Prado",
    "Telefono": "null",
    "Latitud": "-16.501545",
    "Longitud": "-68.133100",
    "Fuente": "web"
  },
  {
    "Departamento": "La Paz",
    "Tipo": "ServiciosFinancieros",
    "Nombre": "BANCO UNION",
    "Direccion": "Av. Camacho Nø 1416 esq. calle Loayza",
    "Telefono": "null",
    "Latitud": "-16.499464",
    "Longitud": "-68.133214",
    "Fuente": "web"
  },
  {
    "Departamento": "La Paz",
    "Tipo": "ServiciosFinancieros",
    "Nombre": "BANCO UNION",
    "Direccion": "C.JOSE AGUIRRE ACHA,NRO.8484,C.21,ESQUIna JOS MA",
    "Telefono": "null",
    "Latitud": "-16.545125",
    "Longitud": "-68.076870",
    "Fuente": "web"
  },
  {
    "Departamento": "La Paz",
    "Tipo": "ServiciosFinancieros",
    "Nombre": "COOP. LA SAGRADA FAMILIA",
    "Direccion": "C. Sagarnaga No. 547 EDIF. MARIA.ENTRE CALLE MAX",
    "Telefono": "null",
    "Latitud": "-16.497962",
    "Longitud": "-68.139112",
    "Fuente": "web"
  },
  {
    "Departamento": "La Paz",
    "Tipo": "ServiciosFinancieros",
    "Nombre": "COOP. SAN MARTIN DE PORRES",
    "Direccion": "AV.SAAVEDRA N.1975,ED.MIRAFLORES ENTRE VILLALOBOS",
    "Telefono": "null",
    "Latitud": "-16.502297",
    "Longitud": "-68.122036",
    "Fuente": "web"
  },
  {
    "Departamento": "La Paz",
    "Tipo": "ServiciosFinancieros",
    "Nombre": "CRECER IFD",
    "Direccion": "CALLE DEMETRIO CANELAS N.27 ENTRE C 16 Y 17 DE ZO",
    "Telefono": "null",
    "Latitud": "-16.528554",
    "Longitud": "-68.101168",
    "Fuente": "web"
  },
  {
    "Departamento": "La Paz",
    "Tipo": "ServiciosFinancieros",
    "Nombre": "DIACONIA",
    "Direccion": "Av. Tumusla Entre plaza Eguino e Isaac Tamayo Nro",
    "Telefono": "null",
    "Latitud": "-16.494387",
    "Longitud": "-68.141232",
    "Fuente": "web"
  },
  {
    "Departamento": "La Paz",
    "Tipo": "ServiciosFinancieros",
    "Nombre": "LA PRIMERA EFV",
    "Direccion": "Av. Mcal. Santa Cruz No.1364",
    "Telefono": "null",
    "Latitud": "-16.500214",
    "Longitud": "-68.134328",
    "Fuente": "web"
  },
  {
    "Departamento": "La Paz",
    "Tipo": "ServiciosFinancieros",
    "Nombre": "PRO-MUJER",
    "Direccion": "AV. 31 DE OCTUBRE 1530",
    "Telefono": "null",
    "Latitud": "-16.496571",
    "Longitud": "-68.116533",
    "Fuente": "web"
  },
  {
    "Departamento": "La Paz",
    "Tipo": "ServiciosFinancieros",
    "Nombre": "SEMBRAR SARTAWI",
    "Direccion": "AV. BUENOS AIRES 1548 TEMBLADERANI",
    "Telefono": "null",
    "Latitud": "-16.509344",
    "Longitud": "-68.143483",
    "Fuente": "web"
  },
  {
    "Departamento": "La Paz",
    "Tipo": "ServiciosFinancieros",
    "Nombre": "SEMBRAR SARTAWI",
    "Direccion": "AV DEFENSORES DEL CHACO ESQ CALLE 50 N°59",
    "Telefono": "null",
    "Latitud": "-16.537636",
    "Longitud": "-68.048744",
    "Fuente": "web"
  },
  {
    "Departamento": "La Paz",
    "Tipo": "ServiciosFinancieros",
    "Nombre": "SEMBRAR SARTAWI",
    "Direccion": "CALLE PEDRO SALAZAR Nº 509",
    "Telefono": "null",
    "Latitud": "-16.511610",
    "Longitud": "-68.127039",
    "Fuente": "web"
  },
  {
    "Departamento": "La Paz",
    "Tipo": "ServiciosFinancieros",
    "Nombre": "SEMBRAR SARTAWI",
    "Direccion": "AV. TITO YUPANQUI ESQ. RAFAEL BALLIVIAN N°1286",
    "Telefono": "null",
    "Latitud": "-16.493578",
    "Longitud": "-68.117300",
    "Fuente": "web"
  },
  {
    "Departamento": "La Paz",
    "Tipo": "ServiciosFinancieros",
    "Nombre": "SEMBRAR SARTAWI",
    "Direccion": "CALLE BOQUERON #1500,ENTRE NICOLAS ACOSTA Y OTERO",
    "Telefono": "null",
    "Latitud": "-16.504657",
    "Longitud": "-68.137110",
    "Fuente": "web"
  },
  {
    "Departamento": "La Paz",
    "Tipo": "ServiciosFinancieros",
    "Nombre": "SOLUCREDIT SAN SILVESTRE LTDA",
    "Direccion": "AV MANCO KAPAC Nro 310 PLAZA EGUINO",
    "Telefono": "null",
    "Latitud": "-16.493855",
    "Longitud": "-68.141585",
    "Fuente": "web"
  },
  {
    "Departamento": "La Paz",
    "Tipo": "ServiciosFinancieros",
    "Nombre": "BANCO FIE",
    "Direccion": "Av. Panamericana Nro 74 esq. C. Santa Cruz",
    "Telefono": "null",
    "Latitud": "null",
    "Longitud": "null",
    "Fuente": "web"
  },
  {
    "Departamento": "La Paz",
    "Tipo": "ServiciosFinancieros",
    "Nombre": "CIDRE IFD",
    "Direccion": "Calle pasaje florida,S entre Av. Panamericana y V",
    "Telefono": "null",
    "Latitud": "null",
    "Longitud": "null",
    "Fuente": "web"
  },
  {
    "Departamento": "La Paz",
    "Tipo": "ServiciosFinancieros",
    "Nombre": "SEMBRAR SARTAWI",
    "Direccion": "AV. PAnaMERICAna ESQ. PANDO",
    "Telefono": "null",
    "Latitud": "null",
    "Longitud": "null",
    "Fuente": "web"
  },
  {
    "Departamento": "La Paz",
    "Tipo": "ServiciosFinancieros",
    "Nombre": "BANCO FIE",
    "Direccion": "Av. Pando casi Esq. Ingavi No. 47",
    "Telefono": "null",
    "Latitud": "null",
    "Longitud": "null",
    "Fuente": "web"
  },
  {
    "Departamento": "Oruro",
    "Tipo": "ServiciosFinancieros",
    "Nombre": "BANCO FIE",
    "Direccion": "La Bandera esquina Ejercito",
    "Telefono": "null",
    "Latitud": "null",
    "Longitud": "null",
    "Fuente": "web"
  },
  {
    "Departamento": "Oruro",
    "Tipo": "ServiciosFinancieros",
    "Nombre": "BANCO UNION",
    "Direccion": "C. BANDERAS ENTRE C.MURILLO DORADO Y EJERCITO",
    "Telefono": "null",
    "Latitud": "-18.901098",
    "Longitud": "-66.774464",
    "Fuente": "web"
  },
  {
    "Departamento": "Oruro",
    "Tipo": "ServiciosFinancieros",
    "Nombre": "CIDRE IFD",
    "Direccion": "CALLE EJERCITO S/N, ENTRE VILLARROEL Y ORURO",
    "Telefono": "null",
    "Latitud": "null",
    "Longitud": "null",
    "Fuente": "web"
  },
  {
    "Departamento": "Oruro",
    "Tipo": "ServiciosFinancieros",
    "Nombre": "COOP. PAULO VI LTDA.",
    "Direccion": "Calle La Bandera Ejercito Murillo",
    "Telefono": "null",
    "Latitud": "null",
    "Longitud": "null",
    "Fuente": "web"
  },
  {
    "Departamento": "Oruro",
    "Tipo": "ServiciosFinancieros",
    "Nombre": "FUBODE",
    "Direccion": "C. LA BANDERA S, E. EJERCITO Y MURILLO DORADO (AC",
    "Telefono": "null",
    "Latitud": "null",
    "Longitud": "null",
    "Fuente": "web"
  },
  {
    "Departamento": "Oruro",
    "Tipo": "ServiciosFinancieros",
    "Nombre": "IDEPRO",
    "Direccion": "Av. Ladislao Cabrera S entre Beni y La Paz",
    "Telefono": "null",
    "Latitud": "null",
    "Longitud": "null",
    "Fuente": "web"
  },
  {
    "Departamento": "Oruro",
    "Tipo": "ServiciosFinancieros",
    "Nombre": "SEMBRAR SARTAWI",
    "Direccion": "C/LA PAZ S/N ENTRE LADISLAO CABRERA Y SUCRE",
    "Telefono": "null",
    "Latitud": "null",
    "Longitud": "null",
    "Fuente": "web"
  },
  {
    "Departamento": "Oruro",
    "Tipo": "ServiciosFinancieros",
    "Nombre": "C.A.C. ASUNCION",
    "Direccion": "Ag. 16 de Julio sn.",
    "Telefono": "null",
    "Latitud": "-18.285260",
    "Longitud": "-66.841375",
    "Fuente": "web"
  },
  {
    "Departamento": "Oruro",
    "Tipo": "ServiciosFinancieros",
    "Nombre": "BANCO ECOFUTURO",
    "Direccion": "C. Soria Galvarro n§ 1625 esq. Bolivar",
    "Telefono": "null",
    "Latitud": "-17.970767",
    "Longitud": "-67.113645",
    "Fuente": "web"
  },
  {
    "Departamento": "Oruro",
    "Tipo": "ServiciosFinancieros",
    "Nombre": "BANCO FASSIL",
    "Direccion": "Calle Adolfo Mier nro. 735",
    "Telefono": "null",
    "Latitud": "-17.969188",
    "Longitud": "-67.114439",
    "Fuente": "web"
  },
  {
    "Departamento": "Oruro",
    "Tipo": "ServiciosFinancieros",
    "Nombre": "BANCO FIE",
    "Direccion": "C. La Plata No. 6144, entre Bolivar y Sucre",
    "Telefono": "null",
    "Latitud": "-17.970238",
    "Longitud": "-67.114505",
    "Fuente": "web"
  },
  {
    "Departamento": "Oruro",
    "Tipo": "ServiciosFinancieros",
    "Nombre": "BANCO FORTALEZA",
    "Direccion": "Calle La Plata No. 5959 entre calles Adolfo Mier",
    "Telefono": "null",
    "Latitud": "-17.969090",
    "Longitud": "-67.113894",
    "Fuente": "web"
  },
  {
    "Departamento": "Oruro",
    "Tipo": "ServiciosFinancieros",
    "Nombre": "BANCO PRODEM",
    "Direccion": "Calle La Plata 6175 entre Sucre y Bolivar",
    "Telefono": "null",
    "Latitud": "-17.970554",
    "Longitud": "-67.114658",
    "Fuente": "web"
  },
  {
    "Departamento": "Oruro",
    "Tipo": "ServiciosFinancieros",
    "Nombre": "BANCO UNION",
    "Direccion": "C. CAMPO JORDAN ENTRE EDMUNDO VASQUEZ Y AV. GRAN",
    "Telefono": "null",
    "Latitud": "-17.954792",
    "Longitud": "-67.100107",
    "Fuente": "web"
  },
  {
    "Departamento": "Oruro",
    "Tipo": "ServiciosFinancieros",
    "Nombre": "BANCO UNION",
    "Direccion": "Calle Soria Galvarro esquina Adolfo Mier Nø 612",
    "Telefono": "null",
    "Latitud": "-17.969503",
    "Longitud": "-67.113278",
    "Fuente": "web"
  },
  {
    "Departamento": "Oruro",
    "Tipo": "ServiciosFinancieros",
    "Nombre": "BANCO UNION",
    "Direccion": "Pagador 298 esq. Montesinos",
    "Telefono": "null",
    "Latitud": "-17.966146",
    "Longitud": "-67.109153",
    "Fuente": "web"
  },
  {
    "Departamento": "Oruro",
    "Tipo": "ServiciosFinancieros",
    "Nombre": "C.A.C. ASUNCION",
    "Direccion": "C. Pagador 5475, entre Montesinos y Herrera",
    "Telefono": "null",
    "Latitud": "-17.965921",
    "Longitud": "-67.109144",
    "Fuente": "web"
  },
  {
    "Departamento": "Oruro",
    "Tipo": "ServiciosFinancieros",
    "Nombre": "CACEF LTDA",
    "Direccion": "6 de Octubre esquina 1 de Noviembre",
    "Telefono": "null",
    "Latitud": "null",
    "Longitud": "null",
    "Fuente": "web"
  },
  {
    "Departamento": "Oruro",
    "Tipo": "ServiciosFinancieros",
    "Nombre": "COOP. LA SAGRADA FAMILIA",
    "Direccion": "C.Aldana N§ 240 Entre Velasco Galvarro y Pagador",
    "Telefono": "null",
    "Latitud": "-17.973806",
    "Longitud": "-67.110845",
    "Fuente": "web"
  },
  {
    "Departamento": "Oruro",
    "Tipo": "ServiciosFinancieros",
    "Nombre": "COOP. PAULO VI LTDA.",
    "Direccion": "6 de Octubre 4285, entre Charcas y campo Jordan",
    "Telefono": "null",
    "Latitud": "-17.953088",
    "Longitud": "-67.108578",
    "Fuente": "web"
  },
  {
    "Departamento": "Oruro",
    "Tipo": "ServiciosFinancieros",
    "Nombre": "EL PROGRESO EFV.",
    "Direccion": "C. La Plata esq. Sucre No. 6177",
    "Telefono": "null",
    "Latitud": "-17.971057",
    "Longitud": "-67.114718",
    "Fuente": "web"
  },
  {
    "Departamento": "Oruro",
    "Tipo": "ServiciosFinancieros",
    "Nombre": "FUBODE",
    "Direccion": "CALLE 6 DE OCTUBRE 5191 ENTRE LEON Y RODRIGUEZ",
    "Telefono": "null",
    "Latitud": "-17.963092",
    "Longitud": "-67.110231",
    "Fuente": "web"
  },
  {
    "Departamento": "Oruro",
    "Tipo": "ServiciosFinancieros",
    "Nombre": "IDEPRO",
    "Direccion": "C/PAGADOR N§ 6338. ENTRE MURGUIA Y ALDAna",
    "Telefono": "null",
    "Latitud": "-17.977119",
    "Longitud": "-67.112138",
    "Fuente": "web"
  },
  {
    "Departamento": "Oruro",
    "Tipo": "ServiciosFinancieros",
    "Nombre": "SEMBRAR SARTAWI",
    "Direccion": "C/Washintong#1480 entre calle Adolfo Mier y Junin",
    "Telefono": "null",
    "Latitud": "-11.020856",
    "Longitud": "-68.757146",
    "Fuente": "web"
  },
  {
    "Departamento": "Pando",
    "Tipo": "ServiciosFinancieros",
    "Nombre": "BANCO ECOFUTURO",
    "Telefono": "null",
    "Latitud": "-11.020872",
    "Longitud": "-68.757149",
    "Fuente": "web"
  },
  {
    "Departamento": "Pando",
    "Tipo": "ServiciosFinancieros",
    "Nombre": "BANCO PRODEM",
    "Direccion": "Av. 9 de Febrero esq. Av. Internacional",
    "Telefono": "null",
    "Latitud": "-11.027126",
    "Longitud": "-68.760354",
    "Fuente": "web"
  },
  {
    "Departamento": "Pando",
    "Tipo": "ServiciosFinancieros",
    "Nombre": "BANCO UNION",
    "Telefono": "null",
    "Latitud": "-11.035373",
    "Longitud": "-68.767416",
    "Fuente": "web"
  },
  {
    "Departamento": "Pando",
    "Tipo": "ServiciosFinancieros",
    "Nombre": "CRECER IFD",
    "Direccion": "AV. 9 DE FEBRERO No.219",
    "Telefono": "null",
    "Latitud": "null",
    "Longitud": "null",
    "Fuente": "web"
  },
  {
    "Departamento": "Pando",
    "Tipo": "ServiciosFinancieros",
    "Nombre": "IDEPRO",
    "Direccion": "AV. 9 DE FEBRERO S/N",
    "Telefono": "null",
    "Latitud": "-11.020645",
    "Longitud": "-68.757054",
    "Fuente": "web"
  },
  {
    "Departamento": "Pando",
    "Tipo": "ServiciosFinancieros",
    "Nombre": "PRO-MUJER",
    "Direccion": "Av. 27 de Mayo S Frente a Ex Rombol",
    "Telefono": "null",
    "Latitud": "-11.021950",
    "Longitud": "-68.767381",
    "Fuente": "web"
  },
  {
    "Departamento": "Pando",
    "Tipo": "ServiciosFinancieros",
    "Nombre": "BANCO UNION",
    "Direccion": "AV. naPOLEON ANTELO HULLMAN ESQ. 1 DE SEPTIEMBRE",
    "Telefono": "null",
    "Latitud": "-11.484449",
    "Longitud": "-67.246809",
    "Fuente": "web"
  },
  {
    "Departamento": "Pando",
    "Tipo": "ServiciosFinancieros",
    "Nombre": "IDEPRO",
    "Direccion": "AV. COLUMna PORVENIR S/N. MUNICIPIO PORVENIR",
    "Telefono": "null",
    "Latitud": "-11.234390",
    "Longitud": "-68.688131",
    "Fuente": "web"
  },
  {
    "Departamento": "Pando",
    "Tipo": "ServiciosFinancieros",
    "Nombre": "BANCO UNION",
    "Direccion": "ALBERTO SAENZ KLINSKI S",
    "Telefono": "null",
    "Latitud": "null",
    "Longitud": "null",
    "Fuente": "web"
  },
  {
    "Departamento": "Potosí",
    "Tipo": "ServiciosFinancieros",
    "Nombre": "BANCO UNION",
    "Direccion": "Plaza Franz Tamayo - Plaza Central",
    "Telefono": "null",
    "Latitud": "-20.936056",
    "Longitud": "-66.220220",
    "Fuente": "web"
  },
  {
    "Departamento": "Potosí",
    "Tipo": "ServiciosFinancieros",
    "Nombre": "C.A.C. EL CHOROLQUE LTDA.",
    "Direccion": "PLAZA FRANZ TAMAYO S.N.",
    "Telefono": "null",
    "Latitud": "null",
    "Longitud": "null",
    "Fuente": "web"
  },
  {
    "Departamento": "Potosí",
    "Tipo": "ServiciosFinancieros",
    "Nombre": "BANCO PRODEM",
    "Direccion": "C. Bolivar No.6, esq. Linares",
    "Telefono": "null",
    "Latitud": "-19.552616",
    "Longitud": "-65.453199",
    "Fuente": "web"
  },
  {
    "Departamento": "Potosí",
    "Tipo": "ServiciosFinancieros",
    "Nombre": "BANCO UNION",
    "Direccion": "av. Hermanos Pereira casi esquina 6 de agosto",
    "Telefono": "null",
    "Latitud": "null",
    "Longitud": "null",
    "Fuente": "web"
  },
  {
    "Departamento": "Potosí",
    "Tipo": "ServiciosFinancieros",
    "Nombre": "SEMBRAR SARTAWI",
    "Direccion": "C. Potosi esq. Modesto Omiste",
    "Telefono": "null",
    "Latitud": "null",
    "Longitud": "null",
    "Fuente": "web"
  },
  {
    "Departamento": "Potosí",
    "Tipo": "ServiciosFinancieros",
    "Nombre": "C.A.C. EL CHOROLQUE LTDA.",
    "Direccion": "AV.PAnaMERICA S/N",
    "Telefono": "null",
    "Latitud": "-20.816663",
    "Longitud": "-65.660545",
    "Fuente": "web"
  },
  {
    "Departamento": "Potosí",
    "Tipo": "ServiciosFinancieros",
    "Nombre": "BANCO FIE",
    "Direccion": "Calle Campero esq. Baptista No 33",
    "Telefono": "null",
    "Latitud": "null",
    "Longitud": "null",
    "Fuente": "web"
  },
  {
    "Departamento": "Potosí",
    "Tipo": "ServiciosFinancieros",
    "Nombre": "BANCO UNION",
    "Direccion": "AV. 10 DE NOVIEMBRE No.13",
    "Telefono": "null",
    "Latitud": "-18.423274",
    "Longitud": "-66.586763",
    "Fuente": "web"
  },
  {
    "Departamento": "Potosí",
    "Tipo": "ServiciosFinancieros",
    "Nombre": "C.A.C. ASUNCION",
    "Direccion": "PLAZA 6 DE AGOSTO No. 31",
    "Telefono": "null",
    "Latitud": "-18.423161",
    "Longitud": "-66.585136",
    "Fuente": "web"
  },
  {
    "Departamento": "Potosí",
    "Tipo": "ServiciosFinancieros",
    "Nombre": "FUBODE",
    "Direccion": "CALLE BALLIVIAN ENTRE LInaRES Y TUPIZA",
    "Telefono": "null",
    "Latitud": "-18.422516",
    "Longitud": "-66.585472",
    "Fuente": "web"
  },
  {
    "Departamento": "Potosí",
    "Tipo": "ServiciosFinancieros",
    "Nombre": "BANCO ECOFUTURO",
    "Telefono": "null",
    "Latitud": "-19.587679",
    "Longitud": "-65.754676",
    "Fuente": "web"
  },
  {
    "Departamento": "Potosí",
    "Tipo": "ServiciosFinancieros",
    "Nombre": "BANCO FASSIL",
    "Direccion": "Calle Matos N§ 71 esquina Boulevar",
    "Telefono": "null",
    "Latitud": "-19.588072",
    "Longitud": "-65.752565",
    "Fuente": "web"
  },
  {
    "Departamento": "Potosí",
    "Tipo": "ServiciosFinancieros",
    "Nombre": "BANCO PRODEM",
    "Direccion": "C. Bolivar esq. Junin No.852",
    "Telefono": "null",
    "Latitud": "-19.587697",
    "Longitud": "-65.753173",
    "Fuente": "web"
  },
  {
    "Departamento": "Potosí",
    "Tipo": "ServiciosFinancieros",
    "Nombre": "BANCO UNION",
    "Direccion": "CALLE BOLIVAR ESQ. JUNIN S/N",
    "Telefono": "null",
    "Latitud": "-19.587483",
    "Longitud": "-65.753197",
    "Fuente": "web"
  },
  {
    "Departamento": "Potosí",
    "Tipo": "ServiciosFinancieros",
    "Nombre": "BANCO UNION",
    "Direccion": "Av. Litoral",
    "Telefono": "null",
    "Latitud": "-19.579835",
    "Longitud": "-65.755620",
    "Fuente": "web"
  },
  {
    "Departamento": "Potosí",
    "Tipo": "ServiciosFinancieros",
    "Nombre": "CRECER IFD",
    "Direccion": "Av. Litoral Nro 648 esq. Arce",
    "Telefono": "null",
    "Latitud": "-19.579825",
    "Longitud": "-65.755608",
    "Fuente": "web"
  },
  {
    "Departamento": "Potosí",
    "Tipo": "ServiciosFinancieros",
    "Nombre": "DIACONIA",
    "Direccion": "Calle Smith Nro.296, cerca mercado Uyuni",
    "Telefono": "null",
    "Latitud": "-19.577617",
    "Longitud": "-65.752646",
    "Fuente": "web"
  },
  {
    "Departamento": "Potosí",
    "Tipo": "ServiciosFinancieros",
    "Nombre": "DIACONIA",
    "Direccion": "Calle América Nº 108",
    "Telefono": "null",
    "Latitud": "-19.585229",
    "Longitud": "-65.759520",
    "Fuente": "web"
  },
  {
    "Departamento": "Potosí",
    "Tipo": "ServiciosFinancieros",
    "Nombre": "FUBODE",
    "Direccion": "Av. Arce, entre 1ro de Abril y Litoral, N 524",
    "Telefono": "null",
    "Latitud": "-19.580329",
    "Longitud": "-65.755682",
    "Fuente": "web"
  },
  {
    "Departamento": "Potosí",
    "Tipo": "ServiciosFinancieros",
    "Nombre": "IDEPRO",
    "Direccion": "C/ BUSTILLOS N§ 1080 ENTRE C/TOMAS FRIAS Y AYACUC",
    "Telefono": "null",
    "Latitud": "-19.588689",
    "Longitud": "-65.754660",
    "Fuente": "web"
  },
  {
    "Departamento": "Potosí",
    "Tipo": "ServiciosFinancieros",
    "Nombre": "LA PROMOTORA",
    "Direccion": "PLAZA 6 DE AGOSTO No. 11",
    "Telefono": "null",
    "Latitud": "-19.589224",
    "Longitud": "-65.752884",
    "Fuente": "web"
  },
  {
    "Departamento": "Potosí",
    "Tipo": "ServiciosFinancieros",
    "Nombre": "PRO-MUJER",
    "Direccion": "Nro. 507 (entre calles Arce y Av. Santa Cruz)",
    "Telefono": "null",
    "Latitud": "-19.580337",
    "Longitud": "-65.755686",
    "Fuente": "web"
  },
  {
    "Departamento": "Potosí",
    "Tipo": "ServiciosFinancieros",
    "Nombre": "SEMBRAR SARTAWI",
    "Direccion": "AV. LITORAL S ENTRE AV ARCE Y CALLE VILLARROEL",
    "Telefono": "null",
    "Latitud": "null",
    "Longitud": "null",
    "Fuente": "web"
  },
  {
    "Departamento": "Potosí",
    "Tipo": "ServiciosFinancieros",
    "Nombre": "C.A.C. ASUNCION",
    "Direccion": "PLAZA CENTRAL SAN PEDRO DE BUEnaVISTA",
    "Telefono": "null",
    "Latitud": "-18.269549",
    "Longitud": "-65.981448",
    "Fuente": "web"
  },
  {
    "Departamento": "Potosí",
    "Tipo": "ServiciosFinancieros",
    "Nombre": "BANCO FIE",
    "Direccion": "Plaza Independencia, esq. Bolivar s.n.",
    "Telefono": "null",
    "Latitud": "-21.443973",
    "Longitud": "-65.720349",
    "Fuente": "web"
  },
  {
    "Departamento": "Potosí",
    "Tipo": "ServiciosFinancieros",
    "Nombre": "BANCO UNION",
    "Direccion": "Calle Florida No 204 esquina calle",
    "Telefono": "null",
    "Latitud": "-21.444657",
    "Longitud": "-65.719758",
    "Fuente": "web"
  },
  {
    "Departamento": "Potosí",
    "Tipo": "ServiciosFinancieros",
    "Nombre": "C.A.C. EL CHOROLQUE LTDA.",
    "Direccion": "AV. SANTA CRUZ No.300",
    "Telefono": "null",
    "Latitud": "-21.442772",
    "Longitud": "-65.719842",
    "Fuente": "web"
  },
  {
    "Departamento": "Potosí",
    "Tipo": "ServiciosFinancieros",
    "Nombre": "BANCO UNION",
    "Direccion": "Av. Potosi no 33 esquina calle Sucre",
    "Telefono": "null",
    "Latitud": "-20.464130",
    "Longitud": "-66.825378",
    "Fuente": "web"
  },
  {
    "Departamento": "Potosí",
    "Tipo": "ServiciosFinancieros",
    "Nombre": "CAC. GAINZA",
    "Direccion": "CALLE SUCRE Nro 131 ENTRE AV.COLON Y AV.POTOSI",
    "Telefono": "null",
    "Latitud": "null",
    "Longitud": "null",
    "Fuente": "web"
  },
  {
    "Departamento": "Potosí",
    "Tipo": "ServiciosFinancieros",
    "Nombre": "IDEPRO",
    "Direccion": "Calle Sucre Nø 257 entre calles Colon y Cabrera",
    "Telefono": "null",
    "Latitud": "-20.460700",
    "Longitud": "-66.824562",
    "Fuente": "web"
  },
  {
    "Departamento": "Potosí",
    "Tipo": "ServiciosFinancieros",
    "Nombre": "BANCO UNION",
    "Direccion": "Calle Tarija Calle, Independencia",
    "Telefono": "null",
    "Latitud": "-22.090448",
    "Longitud": "-65.595020",
    "Fuente": "web"
  },
  {
    "Departamento": "Potosí",
    "Tipo": "ServiciosFinancieros",
    "Nombre": "CAC. GAINZA",
    "Direccion": "PLAZA 6 DE AGOSTO S.N.",
    "Telefono": "null",
    "Latitud": "null",
    "Longitud": "null",
    "Fuente": "web"
  },
  {
    "Departamento": "Potosí",
    "Tipo": "ServiciosFinancieros",
    "Nombre": "SEMBRAR SARTAWI",
    "Direccion": "PLAZA 6 E AGOSTO #125, ENTRE C/20 DE MAYO Y C/IND",
    "Telefono": "null",
    "Latitud": "null",
    "Longitud": "null",
    "Fuente": "web"
  },
  {
    "Departamento": "Santa Cruz",
    "Tipo": "ServiciosFinancieros",
    "Nombre": "SEMBRAR SARTAWI",
    "Direccion": "Carretera Santa Cruz Trinidad esquina Calle San",
    "Telefono": "null",
    "Latitud": "null",
    "Longitud": "null",
    "Fuente": "web"
  },
  {
    "Departamento": "Santa Cruz",
    "Tipo": "ServiciosFinancieros",
    "Nombre": "BANCO UNION",
    "Direccion": "Avenida Brasil esq. Lu¡s Salazar de la Vega",
    "Telefono": "null",
    "Latitud": "null",
    "Longitud": "null",
    "Fuente": "web"
  },
  {
    "Departamento": "Santa Cruz",
    "Tipo": "ServiciosFinancieros",
    "Nombre": "COOP.A.C.SAN FRANCISCO SOLANO",
    "Direccion": "CORDILLERA",
    "Telefono": "null",
    "Latitud": "null",
    "Longitud": "null",
    "Fuente": "web"
  },
  {
    "Departamento": "Santa Cruz",
    "Tipo": "ServiciosFinancieros",
    "Nombre": "BANCO UNION",
    "Direccion": "C Ignacio W y Bolívar, z.1, manzana 31 sn de la z",
    "Telefono": "null",
    "Latitud": "-19.790255",
    "Longitud": "-63.196581",
    "Fuente": "web"
  },
  {
    "Departamento": "Santa Cruz",
    "Tipo": "ServiciosFinancieros",
    "Nombre": "BANCO UNION",
    "Direccion": "C. Santa Cruz esq. c.Martín Claure s, zona centra",
    "Telefono": "null",
    "Latitud": "-17.915067",
    "Longitud": "-64.529513",
    "Fuente": "web"
  },
  {
    "Departamento": "Santa Cruz",
    "Tipo": "ServiciosFinancieros",
    "Nombre": "COOP. COMARAPA LTDA.",
    "Direccion": "plaza 11 de Junio #127",
    "Telefono": "null",
    "Latitud": "-17.913847",
    "Longitud": "-64.529497",
    "Fuente": "web"
  },
  {
    "Departamento": "Santa Cruz",
    "Tipo": "ServiciosFinancieros",
    "Nombre": "COOP.LA MERCED",
    "Direccion": "CALLE SATURNINO SAUCEDO ENTRE BENI Y GERMAN BUSCH",
    "Telefono": "null",
    "Latitud": "-16.132450",
    "Longitud": "-62.025687",
    "Fuente": "web"
  },
  {
    "Departamento": "Santa Cruz",
    "Tipo": "ServiciosFinancieros",
    "Nombre": "COOP.LA MERCED",
    "Direccion": "Av. Santa Cruz N. 63 esq.C. Bolivar frente a la p",
    "Telefono": "null",
    "Latitud": "null",
    "Longitud": "null",
    "Fuente": "web"
  },
  {
    "Departamento": "Santa Cruz",
    "Tipo": "ServiciosFinancieros",
    "Nombre": "BANCO UNION",
    "Direccion": "Plaza Principal el Carmen Rivero Torrez",
    "Telefono": "null",
    "Latitud": "null",
    "Longitud": "null",
    "Fuente": "web"
  },
  {
    "Departamento": "Santa Cruz",
    "Tipo": "ServiciosFinancieros",
    "Nombre": "SEMBRAR SARTAWI",
    "Direccion": "MUNICIPIO EL PUENTE BARRIO SANTA ROSA",
    "Telefono": "null",
    "Latitud": "null",
    "Longitud": "null",
    "Fuente": "web"
  },
  {
    "Departamento": "Santa Cruz",
    "Tipo": "ServiciosFinancieros",
    "Nombre": "COOP. PROGRESO LTDA.",
    "Direccion": "Av.Republica esq. Benjamin Burela",
    "Telefono": "null",
    "Latitud": "-17.990906",
    "Longitud": "-63.381227",
    "Fuente": "web"
  },
  {
    "Departamento": "Santa Cruz",
    "Tipo": "ServiciosFinancieros",
    "Nombre": "SEMBRAR SARTAWI",
    "Direccion": "MUNICIPIO EL TORNO FRENTE A LA PLAZA PRINCIPAL",
    "Telefono": "null",
    "Latitud": "null",
    "Longitud": "null",
    "Fuente": "web"
  },
  {
    "Departamento": "Santa Cruz",
    "Tipo": "ServiciosFinancieros",
    "Nombre": "BANCO FIE",
    "Direccion": "AV.SANTA CRUZ C. ESQ. SAN JOAQUIN",
    "Telefono": "null",
    "Latitud": "-15.894201",
    "Longitud": "-63.188667",
    "Fuente": "web"
  },
  {
    "Departamento": "Santa Cruz",
    "Tipo": "ServiciosFinancieros",
    "Nombre": "COOP.LA MERCED",
    "Direccion": "AV.BUSH ESQ.CONRADO URAPI,1/2 CUADRA PLAZA PRINCI",
    "Telefono": "null",
    "Latitud": "null",
    "Longitud": "null",
    "Fuente": "web"
  },
  {
    "Departamento": "Santa Cruz",
    "Tipo": "ServiciosFinancieros",
    "Nombre": "FONDECO",
    "Direccion": "AV.SANTA CRUZ 2 17S.N. FRENTE A RESID. BOLIVIA",
    "Telefono": "null",
    "Latitud": "null",
    "Longitud": "null",
    "Fuente": "web"
  },
  {
    "Departamento": "Santa Cruz",
    "Tipo": "ServiciosFinancieros",
    "Nombre": "COOP. COMARAPA LTDA.",
    "Direccion": "CARRETERA ANT.A SANTA CRUZ",
    "Telefono": "null",
    "Latitud": "null",
    "Longitud": "null",
    "Fuente": "web"
  },
  {
    "Departamento": "Santa Cruz",
    "Tipo": "ServiciosFinancieros",
    "Nombre": "BANCO FIE",
    "Direccion": "CALLE PRADO ESQ. AVENIDA AVAROA S - BARRIO COPER",
    "Telefono": "null",
    "Latitud": "-18.119899",
    "Longitud": "-63.960173",
    "Fuente": "web"
  },
  {
    "Departamento": "Santa Cruz",
    "Tipo": "ServiciosFinancieros",
    "Nombre": "BANCO UNION",
    "Direccion": "C Bolívar entre Av Abaroa y H.del Chaco snbarrio",
    "Telefono": "null",
    "Latitud": "-18.122322",
    "Longitud": "-63.960161",
    "Fuente": "web"
  },
  {
    "Departamento": "Santa Cruz",
    "Tipo": "ServiciosFinancieros",
    "Nombre": "COOPERATIVA SAN MATEO LTDA.",
    "Direccion": "AV.AVAROA NO.18 MAIRAna PROV.FLORIDA-SANTA CRUZ",
    "Telefono": "null",
    "Latitud": "null",
    "Longitud": "null",
    "Fuente": "web"
  },
  {
    "Departamento": "Santa Cruz",
    "Tipo": "ServiciosFinancieros",
    "Nombre": "SEMBRAR SARTAWI",
    "Direccion": "Calle Bolivar S/N(Frente a la ex policia de Maira",
    "Telefono": "null",
    "Latitud": "null",
    "Longitud": "null",
    "Fuente": "web"
  },
  {
    "Departamento": "Santa Cruz",
    "Tipo": "ServiciosFinancieros",
    "Nombre": "COOP.LA MERCED",
    "Direccion": "Av. Santa Cruz media cuadra antes de la plaza pri",
    "Telefono": "null",
    "Latitud": "null",
    "Longitud": "null",
    "Fuente": "web"
  },
  {
    "Departamento": "Santa Cruz",
    "Tipo": "ServiciosFinancieros",
    "Nombre": "BANCO FASSIL",
    "Telefono": "null",
    "Latitud": "-17.118808",
    "Longitud": "-63.232251",
    "Fuente": "web"
  },
  {
    "Departamento": "Santa Cruz",
    "Tipo": "ServiciosFinancieros",
    "Nombre": "BANCO UNION",
    "Direccion": "Av. Santa Cruz, entre calles Bélgica y Sucre",
    "Telefono": "null",
    "Latitud": "-17.118290",
    "Longitud": "-63.232710",
    "Fuente": "web"
  },
  {
    "Departamento": "Santa Cruz",
    "Tipo": "ServiciosFinancieros",
    "Nombre": "BANCO FASSIL",
    "Telefono": "null",
    "Latitud": "-17.341647",
    "Longitud": "-63.255322",
    "Fuente": "web"
  },
  {
    "Departamento": "Santa Cruz",
    "Tipo": "ServiciosFinancieros",
    "Nombre": "BANCO UNION",
    "Telefono": "null",
    "Latitud": "-17.343273",
    "Longitud": "-63.247838",
    "Fuente": "web"
  },
  {
    "Departamento": "Santa Cruz",
    "Tipo": "ServiciosFinancieros",
    "Nombre": "BANCO UNION",
    "Direccion": "Avenida Sim¢n Bol¡var, esquina calle Israel Mend¡",
    "Telefono": "null",
    "Latitud": "-18.966067",
    "Longitud": "-57.799015",
    "Fuente": "web"
  },
  {
    "Departamento": "Santa Cruz",
    "Tipo": "ServiciosFinancieros",
    "Nombre": "COOP. COMARAPA LTDA.",
    "Direccion": "PLAZA PRINCIPAL",
    "Telefono": "null",
    "Latitud": "null",
    "Longitud": "null",
    "Fuente": "web"
  },
  {
    "Departamento": "Santa Cruz",
    "Tipo": "ServiciosFinancieros",
    "Nombre": "COOP.LA MERCED",
    "Direccion": "C. Arce entre calles Sucre y Campero, frente a la",
    "Telefono": "null",
    "Latitud": "-18.179500",
    "Longitud": "-63.875341",
    "Fuente": "web"
  },
  {
    "Departamento": "Santa Cruz",
    "Tipo": "ServiciosFinancieros",
    "Nombre": "CIDRE IFD",
    "Direccion": "C. LA PAZ, FRENTE A LA PLAZA PRINCIPAL DE SAN IGN",
    "Telefono": "null",
    "Latitud": "null",
    "Longitud": "null",
    "Fuente": "web"
  },
  {
    "Departamento": "Santa Cruz",
    "Tipo": "ServiciosFinancieros",
    "Nombre": "PRO-MUJER",
    "Direccion": "Calle Comercio esq. calle Cochabamba, diagonal de",
    "Telefono": "null",
    "Latitud": "null",
    "Longitud": "null",
    "Fuente": "web"
  },
  {
    "Departamento": "Santa Cruz",
    "Tipo": "ServiciosFinancieros",
    "Nombre": "COOP. COMARAPA LTDA.",
    "Direccion": "CARRETERA ANTIGUA A CBBA.",
    "Telefono": "null",
    "Latitud": "null",
    "Longitud": "null",
    "Fuente": "web"
  },
  {
    "Departamento": "Santa Cruz",
    "Tipo": "ServiciosFinancieros",
    "Nombre": "COOP.LA MERCED",
    "Direccion": "Av. Padre José de Arce, Zona Mercado 24 de Septi",
    "Telefono": "null",
    "Latitud": "null",
    "Longitud": "null",
    "Fuente": "web"
  },
  {
    "Departamento": "Santa Cruz",
    "Tipo": "ServiciosFinancieros",
    "Nombre": "FONDECO",
    "Direccion": "AV.PADRE JOSE DE ARCE ENTRE CALLE SOROTOCO Y PIÑO",
    "Telefono": "null",
    "Latitud": "-16.275074",
    "Longitud": "-62.508286",
    "Fuente": "web"
  },
  {
    "Departamento": "Santa Cruz",
    "Tipo": "ServiciosFinancieros",
    "Nombre": "BANCO UNION",
    "Direccion": "San Javier",
    "Telefono": "null",
    "Latitud": "-16.274837",
    "Longitud": "-62.507221",
    "Fuente": "web"
  },
  {
    "Departamento": "Santa Cruz",
    "Tipo": "ServiciosFinancieros",
    "Nombre": "BANCO UNION",
    "Direccion": "Carretera Santa Cruz - Trinidad, barrio Los Cafec",
    "Telefono": "null",
    "Latitud": "-16.908969",
    "Longitud": "-62.618619",
    "Fuente": "web"
  },
  {
    "Departamento": "Santa Cruz",
    "Tipo": "ServiciosFinancieros",
    "Nombre": "CIDRE IFD",
    "Direccion": "Av. Principal Carretera Trinidad Santa Cruz",
    "Telefono": "null",
    "Latitud": "null",
    "Longitud": "null",
    "Fuente": "web"
  },
  {
    "Departamento": "Santa Cruz",
    "Tipo": "ServiciosFinancieros",
    "Nombre": "FONDECO",
    "Direccion": "CARR. SCZ-TRINIDAD A 1 CUADRA DE MERC. 24 DE JUNI",
    "Telefono": "null",
    "Latitud": "-16.913356",
    "Longitud": "-62.618632",
    "Fuente": "web"
  },
  {
    "Departamento": "Santa Cruz",
    "Tipo": "ServiciosFinancieros",
    "Nombre": "SEMBRAR SARTAWI",
    "Direccion": "C. 6 de Agosto Mza 1, uv 7",
    "Telefono": "null",
    "Latitud": "-16.908833",
    "Longitud": "-62.618614",
    "Fuente": "web"
  },
  {
    "Departamento": "Santa Cruz",
    "Tipo": "ServiciosFinancieros",
    "Nombre": "FONDECO",
    "Direccion": "AV.GUARAYOS, FRENTE HOTEL MANGUARI",
    "Telefono": "null",
    "Latitud": "-16.613012",
    "Longitud": "-62.501497",
    "Fuente": "web"
  },
  {
    "Departamento": "Santa Cruz",
    "Tipo": "ServiciosFinancieros",
    "Nombre": "BANCO ECOFUTURO",
    "Direccion": "Av. Japon",
    "Telefono": "null",
    "Latitud": "-17.771950",
    "Longitud": "-63.168221",
    "Fuente": "web"
  },
  {
    "Departamento": "Santa Cruz",
    "Tipo": "ServiciosFinancieros",
    "Nombre": "BANCO FASSIL",
    "Direccion": "Av.Cristo Redentor Nro 4210 entre 4to y 5to anill",
    "Telefono": "null",
    "Latitud": "-17.746614",
    "Longitud": "-63.174176",
    "Fuente": "web"
  },
  {
    "Departamento": "Santa Cruz",
    "Tipo": "ServiciosFinancieros",
    "Nombre": "BANCO FASSIL",
    "Direccion": "av. segunda, ed.torre urub¢ business center, zona",
    "Telefono": "null",
    "Latitud": "-17.751835",
    "Longitud": "-63.216324",
    "Fuente": "web"
  },
  {
    "Departamento": "Santa Cruz",
    "Tipo": "ServiciosFinancieros",
    "Nombre": "BANCO FIE",
    "Direccion": "Av. Plan 3000 S UV 149, MZA 008 (frente Surtidor",
    "Telefono": "null",
    "Latitud": "-17.822869",
    "Longitud": "-63.144699",
    "Fuente": "web"
  },
  {
    "Departamento": "Santa Cruz",
    "Tipo": "ServiciosFinancieros",
    "Nombre": "BANCO FIE",
    "Direccion": "Av. Santos Dumont Esquina 5to Anillo, Barrio Mora",
    "Telefono": "null",
    "Latitud": "-17.832511",
    "Longitud": "-63.185121",
    "Fuente": "web"
  },
  {
    "Departamento": "Santa Cruz",
    "Tipo": "ServiciosFinancieros",
    "Nombre": "BANCO FORTALEZA",
    "Direccion": "Av. Mutualista esq.Calle 12 Los Ceibos",
    "Telefono": "null",
    "Latitud": "-17.765625",
    "Longitud": "-63.161879",
    "Fuente": "web"
  },
  {
    "Departamento": "Santa Cruz",
    "Tipo": "ServiciosFinancieros",
    "Nombre": "BANCO FORTALEZA",
    "Direccion": "Gabriel Rene Moreno, n§ 140",
    "Telefono": "null",
    "Latitud": "-17.785350",
    "Longitud": "-63.181296",
    "Fuente": "web"
  },
  {
    "Departamento": "Santa Cruz",
    "Tipo": "ServiciosFinancieros",
    "Nombre": "BANCO PRODEM",
    "Direccion": "Arenales Nro. 779",
    "Telefono": "null",
    "Latitud": "-17.780796",
    "Longitud": "-63.172856",
    "Fuente": "web"
  },
  {
    "Departamento": "Santa Cruz",
    "Tipo": "ServiciosFinancieros",
    "Nombre": "BANCO UNION",
    "Direccion": "Av. Santos Dumont esquina Tercer anillo externo N",
    "Telefono": "null",
    "Latitud": "-17.814464",
    "Longitud": "-63.182709",
    "Fuente": "web"
  },
  {
    "Departamento": "Santa Cruz",
    "Tipo": "ServiciosFinancieros",
    "Nombre": "BANCO UNION",
    "Direccion": "calle Seoane entre 21 de mayo y España",
    "Telefono": "null",
    "Latitud": "-17.779967",
    "Longitud": "-63.184686",
    "Fuente": "web"
  },
  {
    "Departamento": "Santa Cruz",
    "Tipo": "ServiciosFinancieros",
    "Nombre": "BANCO UNION",
    "Direccion": "Surtidor Cristo Rey Av. Cristo Redentor, Entre 2d",
    "Telefono": "null",
    "Latitud": "-17.766813",
    "Longitud": "-63.182083",
    "Fuente": "web"
  },
  {
    "Departamento": "Santa Cruz",
    "Tipo": "ServiciosFinancieros",
    "Nombre": "BANCO UNION",
    "Direccion": "Av Viedma N° 649 casi calle Oruro 1er anillo, z c",
    "Telefono": "null",
    "Latitud": "-17.789694",
    "Longitud": "-63.171713",
    "Fuente": "web"
  },
  {
    "Departamento": "Santa Cruz",
    "Tipo": "ServiciosFinancieros",
    "Nombre": "CIDRE IFD",
    "Direccion": "C. SUCRE Nro.144, entra calle Chuquisaca y La Paz",
    "Telefono": "null",
    "Latitud": "null",
    "Longitud": "null",
    "Fuente": "web"
  },
  {
    "Departamento": "Santa Cruz",
    "Tipo": "ServiciosFinancieros",
    "Nombre": "CIDRE IFD",
    "Direccion": "AV. CHE GUEVARA Nro.6950 MEDIA CUADRA ROTONDA PLA",
    "Telefono": "null",
    "Latitud": "null",
    "Longitud": "null",
    "Fuente": "web"
  },
  {
    "Departamento": "Santa Cruz",
    "Tipo": "ServiciosFinancieros",
    "Nombre": "COOP. COMARAPA LTDA.",
    "Direccion": "Doble V¡a la Guardia esq. C Jose Otero",
    "Telefono": "null",
    "Latitud": "-17.806819",
    "Longitud": "-63.202073",
    "Fuente": "web"
  },
  {
    "Departamento": "Santa Cruz",
    "Tipo": "ServiciosFinancieros",
    "Nombre": "COOP. SAN MARTIN DE PORRES",
    "Direccion": "Of. Central Av.26 de Feb. Esq. Landivar",
    "Telefono": "null",
    "Latitud": "-17.785178",
    "Longitud": "-63.194616",
    "Fuente": "web"
  },
  {
    "Departamento": "Santa Cruz",
    "Tipo": "ServiciosFinancieros",
    "Nombre": "COOP.LA MERCED",
    "Direccion": "Av. Mutualista Nº 565 y 3er. Anillo",
    "Telefono": "null",
    "Latitud": "null",
    "Longitud": "null",
    "Fuente": "web"
  },
  {
    "Departamento": "Santa Cruz",
    "Tipo": "ServiciosFinancieros",
    "Nombre": "COOP.LA MERCED",
    "Direccion": "Calle Junín 363 entre España y Santa Barbara",
    "Telefono": "null",
    "Latitud": "-17.783053",
    "Longitud": "-63.185488",
    "Fuente": "web"
  },
  {
    "Departamento": "Santa Cruz",
    "Tipo": "ServiciosFinancieros",
    "Nombre": "COOPERATIVA GRAN GRIGOTA LTDA.",
    "Direccion": "Avenida Isabel la Católica No 449 frente La Ramad",
    "Telefono": "null",
    "Latitud": "null",
    "Longitud": "null",
    "Fuente": "web"
  },
  {
    "Departamento": "Santa Cruz",
    "Tipo": "ServiciosFinancieros",
    "Nombre": "COOPERATIVA GRAN GRIGOTA LTDA.",
    "Direccion": "Avenida Uruguay No 423 (media cuadra de Cumbre)",
    "Telefono": "null",
    "Latitud": "-17.774646",
    "Longitud": "-63.176561",
    "Fuente": "web"
  },
  {
    "Departamento": "Santa Cruz",
    "Tipo": "ServiciosFinancieros",
    "Nombre": "COOPERATIVA SAN MATEO LTDA.",
    "Direccion": "AV.DOBLE VIA LA GUARDIA NO.1050",
    "Telefono": "null",
    "Latitud": "-17.804200",
    "Longitud": "-63.199918",
    "Fuente": "web"
  },
  {
    "Departamento": "Santa Cruz",
    "Tipo": "ServiciosFinancieros",
    "Nombre": "FUBODE",
    "Direccion": "AV. VIRGEN DE COTOCA 550 ENTRE 6to.Y 7mo. ANILLO",
    "Telefono": "null",
    "Latitud": "-17.768240",
    "Longitud": "-63.115972",
    "Fuente": "web"
  },
  {
    "Departamento": "Santa Cruz",
    "Tipo": "ServiciosFinancieros",
    "Nombre": "FUBODE",
    "Direccion": "AV. SANTOS DUMONT 1385",
    "Telefono": "null",
    "Latitud": "null",
    "Longitud": "null",
    "Fuente": "web"
  },
  {
    "Departamento": "Santa Cruz",
    "Tipo": "ServiciosFinancieros",
    "Nombre": "IDEPRO",
    "Direccion": "AV. 18 DE MARZO, ESQ. PLAN 3000",
    "Telefono": "null",
    "Latitud": "-17.824641,",
    "Longitud": "-63.132249",
    "Fuente": "web"
  },
  {
    "Departamento": "Santa Cruz",
    "Tipo": "ServiciosFinancieros",
    "Nombre": "PRO-MUJER",
    "Direccion": "Villa 1ø de Mayo, Casi Esq. Calle 11 oeste Nø 4",
    "Telefono": "null",
    "Latitud": "-17.798585",
    "Longitud": "-63.135439",
    "Fuente": "web"
  },
  {
    "Departamento": "Santa Cruz",
    "Tipo": "ServiciosFinancieros",
    "Nombre": "PRO-MUJER",
    "Direccion": "Avenida Paurita N§ 6055 (Zona Ca¤ada Pailita)",
    "Telefono": "null",
    "Latitud": "null",
    "Longitud": "null",
    "Fuente": "web"
  },
  {
    "Departamento": "Santa Cruz",
    "Tipo": "ServiciosFinancieros",
    "Nombre": "PRO-MUJER",
    "Direccion": "Calle las Cutas Nø 2469, UV 17",
    "Telefono": "null",
    "Latitud": "-17.798585",
    "Longitud": "-63.135439",
    "Fuente": "web"
  },
  {
    "Departamento": "Santa Cruz",
    "Tipo": "ServiciosFinancieros",
    "Nombre": "SEMBRAR SARTAWI",
    "Direccion": "AV. SANTOS DUMONT 5to: ANILLO BARRIO LOS OLIVOS",
    "Telefono": "null",
    "Latitud": "-17.833034",
    "Longitud": "-63.184774",
    "Fuente": "web"
  },
  {
    "Departamento": "Santa Cruz",
    "Tipo": "ServiciosFinancieros",
    "Nombre": "SEMBRAR SARTAWI",
    "Direccion": "AV MUTUALISTA Nº 2420 ESQ. CALLE 12",
    "Telefono": "null",
    "Latitud": "null",
    "Longitud": "null",
    "Fuente": "web"
  },
  {
    "Departamento": "Santa Cruz",
    "Tipo": "ServiciosFinancieros",
    "Nombre": "SEMBRAR SARTAWI",
    "Direccion": "AV ROTONDA S UV 149 MZN 1 BARRIO TORO TORO ROTOND",
    "Telefono": "null",
    "Latitud": "null",
    "Longitud": "null",
    "Fuente": "web"
  },
  {
    "Departamento": "Santa Cruz",
    "Tipo": "ServiciosFinancieros",
    "Nombre": "SEMBRAR SARTAWI",
    "Direccion": "CALLE RENE MORENO Nº476",
    "Telefono": "null",
    "Latitud": "null",
    "Longitud": "null",
    "Fuente": "web"
  },
  {
    "Departamento": "Santa Cruz",
    "Tipo": "ServiciosFinancieros",
    "Nombre": "CIDRE IFD",
    "Direccion": "CALLE SANTA CRUZ ESQUIna CALLE FLORIDA S.N",
    "Telefono": "null",
    "Latitud": "null",
    "Longitud": "null",
    "Fuente": "web"
  },
  {
    "Departamento": "Santa Cruz",
    "Tipo": "ServiciosFinancieros",
    "Nombre": "COOPERATIVA SAN MATEO LTDA.",
    "Direccion": "CALLE FLORIDA NO.101 VALLEGRANDE-SANTA CRUZ",
    "Telefono": "null",
    "Latitud": "-18.48961",
    "Longitud": "-64.107164",
    "Fuente": "web"
  },
  {
    "Departamento": "Santa Cruz",
    "Tipo": "ServiciosFinancieros",
    "Nombre": "CIDRE IFD",
    "Direccion": "AV. EPIFANIO R.OS SN",
    "Telefono": "null",
    "Latitud": "null",
    "Longitud": "null",
    "Fuente": "web"
  },
  {
    "Departamento": "Santa Cruz",
    "Tipo": "ServiciosFinancieros",
    "Nombre": "FUBODE",
    "Direccion": "AV. EPIFANIO RIOS 279 PLANTA BAJA",
    "Telefono": "null",
    "Latitud": "null",
    "Longitud": "null",
    "Fuente": "web"
  },
  {
    "Departamento": "Santa Cruz",
    "Tipo": "ServiciosFinancieros",
    "Nombre": "SEMBRAR SARTAWI",
    "Direccion": "Av. Epifanio Rios, Lote 8, Mz 46",
    "Telefono": "null",
    "Latitud": "null",
    "Longitud": "null",
    "Fuente": "web"
  },
  {
    "Departamento": "Sucre",
    "Tipo": "ServiciosFinancieros",
    "Nombre": "BANCO UNION",
    "Direccion": "Calle Guemes s (cerca de la plaza 14 de Marzo), z",
    "Telefono": "null",
    "Latitud": "null",
    "Longitud": "null",
    "Fuente": "web"
  },
  {
    "Departamento": "Sucre",
    "Tipo": "ServiciosFinancieros",
    "Nombre": "BANCO FIE",
    "Direccion": "CALLE AYACUCHO N. 24 ESQ. GRAN CHACO PROV.NOR CIN",
    "Telefono": "null",
    "Latitud": "-20.641470",
    "Longitud": "-65.210606",
    "Fuente": "web"
  },
  {
    "Departamento": "Sucre",
    "Tipo": "ServiciosFinancieros",
    "Nombre": "BANCO UNION",
    "Direccion": "Calle Ayacucho Nro. 33",
    "Telefono": "null",
    "Latitud": "-20.64102",
    "Longitud": "-65.210843",
    "Fuente": "web"
  },
  {
    "Departamento": "Sucre",
    "Tipo": "ServiciosFinancieros",
    "Nombre": "IDEPRO",
    "Direccion": "Calle Gran Chaco Nro. 12",
    "Telefono": "null",
    "Latitud": "null",
    "Longitud": "null",
    "Fuente": "web"
  },
  {
    "Departamento": "Sucre",
    "Tipo": "ServiciosFinancieros",
    "Nombre": "COOP.A.C.SAN FRANCISCO SOLANO",
    "Direccion": "LUIS CALVO",
    "Telefono": "null",
    "Latitud": "null",
    "Longitud": "null",
    "Fuente": "web"
  },
  {
    "Departamento": "Sucre",
    "Tipo": "ServiciosFinancieros",
    "Nombre": "BANCO UNION",
    "Direccion": "Calle Marcelo Arana Nro. 45-47",
    "Telefono": "null",
    "Latitud": "-19.804334",
    "Longitud": "-63.957591",
    "Fuente": "web"
  },
  {
    "Departamento": "Sucre",
    "Tipo": "ServiciosFinancieros",
    "Nombre": "CAC SAN ROQUE LTDA",
    "Direccion": "Calle Sucre No. 699",
    "Telefono": "null",
    "Latitud": "-19.800669",
    "Longitud": "-63.955078",
    "Fuente": "web"
  },
  {
    "Departamento": "Sucre",
    "Tipo": "ServiciosFinancieros",
    "Nombre": "BANCO UNION",
    "Direccion": "Calle Ayacucho s entre Calle Sucre y German Busc",
    "Telefono": "null",
    "Latitud": "null",
    "Longitud": "null",
    "Fuente": "web"
  },
  {
    "Departamento": "Sucre",
    "Tipo": "ServiciosFinancieros",
    "Nombre": "BANCO FIE",
    "Direccion": "Litoral",
    "Telefono": "null",
    "Latitud": "-19.307199",
    "Longitud": "-64.302584",
    "Fuente": "web"
  },
  {
    "Departamento": "Sucre",
    "Tipo": "ServiciosFinancieros",
    "Nombre": "BANCO UNION",
    "Direccion": "BOLIVAR No, 2",
    "Telefono": "null",
    "Latitud": "-19.307782",
    "Longitud": "-64.302921",
    "Fuente": "web"
  },
  {
    "Departamento": "Sucre",
    "Tipo": "ServiciosFinancieros",
    "Nombre": "CAC SAN ROQUE LTDA",
    "Telefono": "null",
    "Latitud": "null",
    "Longitud": "null",
    "Fuente": "web"
  },
  {
    "Departamento": "Sucre",
    "Tipo": "ServiciosFinancieros",
    "Nombre": "BANCO UNION",
    "Direccion": "Calle Eduardo Avaroa s, localidad San Lucas",
    "Telefono": "null",
    "Latitud": "null",
    "Longitud": "null",
    "Fuente": "web"
  },
  {
    "Departamento": "Sucre",
    "Tipo": "ServiciosFinancieros",
    "Nombre": "SEMBRAR SARTAWI",
    "Direccion": "Plaza Trigo Arce esq. 25 de Mayo",
    "Telefono": "null",
    "Latitud": "null",
    "Longitud": "null",
    "Fuente": "web"
  },
  {
    "Departamento": "Sucre",
    "Tipo": "ServiciosFinancieros",
    "Nombre": "BANCO ECOFUTURO",
    "Direccion": "GUILLERMO LOAYZA No.504 ESQ. J.PRUDENCIO BUSTILLO",
    "Telefono": "null",
    "Latitud": "-19.034067",
    "Longitud": "-65.252826",
    "Fuente": "web"
  },
  {
    "Departamento": "Sucre",
    "Tipo": "ServiciosFinancieros",
    "Nombre": "BANCO FASSIL",
    "Direccion": "C. Espa¤a Nø 64 entre Calvo y San Alberto",
    "Telefono": "null",
    "Latitud": "-19.047389",
    "Longitud": "-65.258501",
    "Fuente": "web"
  },
  {
    "Departamento": "Sucre",
    "Tipo": "ServiciosFinancieros",
    "Nombre": "BANCO FIE",
    "Direccion": "Plaza 25 de mayo esquina calle Espa¤a",
    "Telefono": "null",
    "Latitud": "-19.047708",
    "Longitud": "-65.258714",
    "Fuente": "web"
  },
  {
    "Departamento": "Sucre",
    "Tipo": "ServiciosFinancieros",
    "Nombre": "BANCO FORTALEZA",
    "Direccion": "Calle San Alberto No.108 esq. Calle Espa¤a",
    "Telefono": "null",
    "Latitud": "-19.047207",
    "Longitud": "-65.257740",
    "Fuente": "web"
  },
  {
    "Departamento": "Sucre",
    "Tipo": "ServiciosFinancieros",
    "Nombre": "BANCO PRODEM",
    "Direccion": "c/Espana esq.San Alberto No.106",
    "Telefono": "null",
    "Latitud": "-19.047005",
    "Longitud": "-65.258190",
    "Fuente": "web"
  },
  {
    "Departamento": "Sucre",
    "Tipo": "ServiciosFinancieros",
    "Nombre": "CIDRE IFD",
    "Direccion": "C. GUSTAVO naVARRO No. 12",
    "Telefono": "null",
    "Latitud": "-19.035174",
    "Longitud": "-65.253608",
    "Fuente": "web"
  },
  {
    "Departamento": "Sucre",
    "Tipo": "ServiciosFinancieros",
    "Nombre": "CRECER IFD",
    "Direccion": "Calle Man Cesped Nro 510",
    "Telefono": "null",
    "Latitud": "null",
    "Longitud": "null",
    "Fuente": "web"
  },
  {
    "Departamento": "Sucre",
    "Tipo": "ServiciosFinancieros",
    "Nombre": "DIACONIA",
    "Direccion": "Calle Prudenci Bustillos Nro.262, lado Mercado Ca",
    "Telefono": "null",
    "Latitud": "-19.034278",
    "Longitud": "-65.255099",
    "Fuente": "web"
  },
  {
    "Departamento": "Sucre",
    "Tipo": "ServiciosFinancieros",
    "Nombre": "FUBODE",
    "Direccion": "C. naTANIEL AGUIRRE 391 CASI ESQ. DESTACAMENTO 13",
    "Telefono": "null",
    "Latitud": "null",
    "Longitud": "null",
    "Fuente": "web"
  },
  {
    "Departamento": "Sucre",
    "Tipo": "ServiciosFinancieros",
    "Nombre": "LA PRIMERA EFV",
    "Direccion": "Calle Espa¤a N§31",
    "Telefono": "null",
    "Latitud": "null",
    "Longitud": "null",
    "Fuente": "web"
  },
  {
    "Departamento": "Sucre",
    "Tipo": "ServiciosFinancieros",
    "Nombre": "PRO-MUJER",
    "Direccion": "Calle Marzana Nro. 525.",
    "Telefono": "null",
    "Latitud": "null",
    "Longitud": "null",
    "Fuente": "web"
  },
  {
    "Departamento": "Sucre",
    "Tipo": "ServiciosFinancieros",
    "Nombre": "SEMBRAR SARTAWI",
    "Direccion": "C. J. Prudencio N§ 530 esq. C. Paraguay",
    "Telefono": "null",
    "Latitud": "null",
    "Longitud": "null",
    "Fuente": "web"
  },
  {
    "Departamento": "Sucre",
    "Tipo": "ServiciosFinancieros",
    "Nombre": "BANCO UNION",
    "Direccion": "Plaza 12 de Marzo, esquina calles Bolívar y Sucre",
    "Telefono": "null",
    "Latitud": "null",
    "Longitud": "null",
    "Fuente": "web"
  },
  {
    "Departamento": "Sucre",
    "Tipo": "ServiciosFinancieros",
    "Nombre": "IDEPRO",
    "Direccion": "c. Julio Andia S frente a la plaza Principal",
    "Telefono": "null",
    "Latitud": "null",
    "Longitud": "null",
    "Fuente": "web"
  },
  {
    "Departamento": "Sucre",
    "Tipo": "ServiciosFinancieros",
    "Nombre": "BANCO UNION",
    "Direccion": "Avenida Mauro Nuñez S lote L, Zona central",
    "Telefono": "null",
    "Latitud": "-19.124360",
    "Longitud": "-64.322187",
    "Fuente": "web"
  },
  {
    "Departamento": "Tarija",
    "Tipo": "ServiciosFinancieros",
    "Nombre": "BANCO UNION",
    "Direccion": "Av G. Busch, esq C. Chuquisaca (Plaza Principal)",
    "Telefono": "null",
    "Latitud": "-22.731686",
    "Longitud": "-64.342941",
    "Fuente": "web"
  },
  {
    "Departamento": "Tarija",
    "Tipo": "ServiciosFinancieros",
    "Nombre": "COOP.SAN JOSE DE BERMEJO",
    "Direccion": "CALLE GERMAN BUCH ESQ.LITORAL",
    "Telefono": "null",
    "Latitud": "-22.731998",
    "Longitud": "-64.342783",
    "Fuente": "web"
  },
  {
    "Departamento": "Tarija",
    "Tipo": "ServiciosFinancieros",
    "Nombre": "PRO-MUJER",
    "Direccion": "Calle Cochabamba entre Av. Barrientos Ortu¤o y Ca",
    "Telefono": "null",
    "Latitud": "null",
    "Longitud": "null",
    "Fuente": "web"
  },
  {
    "Departamento": "Tarija",
    "Tipo": "ServiciosFinancieros",
    "Nombre": "BANCO UNION",
    "Direccion": "C Bolívar SN Esq Junín, Z Norte de Carapari prov",
    "Telefono": "null",
    "Latitud": "null",
    "Longitud": "null",
    "Fuente": "web"
  },
  {
    "Departamento": "Tarija",
    "Tipo": "ServiciosFinancieros",
    "Nombre": "C.A.C ABIERTA MADRE Y MAESTRA LTDA.",
    "Direccion": "AV 29 DE SEPTIEMBRE SN",
    "Telefono": "null",
    "Latitud": "-21.529155",
    "Longitud": "-64.734394",
    "Fuente": "web"
  },
  {
    "Departamento": "Tarija",
    "Tipo": "ServiciosFinancieros",
    "Nombre": "COOP.MAGISTERIO RURAL TARIJA LTDA",
    "Direccion": "Calle Gilberto Saavedra (a media cuadra de la pla",
    "Telefono": "null",
    "Latitud": "-21.887959",
    "Longitud": "-64.712785",
    "Fuente": "web"
  },
  {
    "Departamento": "Tarija",
    "Tipo": "ServiciosFinancieros",
    "Nombre": "BANCO ECOFUTURO",
    "Direccion": "Av.Domingo Paz entre daniel Campos y Colon N.132",
    "Telefono": "null",
    "Latitud": "-21.531742",
    "Longitud": "-64.731602",
    "Fuente": "web"
  },
  {
    "Departamento": "Tarija",
    "Tipo": "ServiciosFinancieros",
    "Nombre": "BANCO FASSIL",
    "Direccion": "15 de Abril 124",
    "Telefono": "null",
    "Latitud": "-21.535077",
    "Longitud": "-64.732185",
    "Fuente": "web"
  },
  {
    "Departamento": "Tarija",
    "Tipo": "ServiciosFinancieros",
    "Nombre": "BANCO FIE",
    "Direccion": "Ingavi 246",
    "Telefono": "null",
    "Latitud": "-21.533100",
    "Longitud": "-64.733034",
    "Fuente": "web"
  },
  {
    "Departamento": "Tarija",
    "Tipo": "ServiciosFinancieros",
    "Nombre": "BANCO FORTALEZA",
    "Direccion": "La Madrid",
    "Telefono": "null",
    "Latitud": "-21.533558",
    "Longitud": "-64.733857",
    "Fuente": "web"
  },
  {
    "Departamento": "Tarija",
    "Tipo": "ServiciosFinancieros",
    "Nombre": "BANCO PRODEM",
    "Direccion": "Tarija",
    "Telefono": "null",
    "Latitud": "-21.521015",
    "Longitud": "-64.742941",
    "Fuente": "web"
  },
  {
    "Departamento": "Tarija",
    "Tipo": "ServiciosFinancieros",
    "Nombre": "BANCO UNION",
    "Direccion": "Av. La Paz esquina Av. Victor Paz",
    "Telefono": "null",
    "Latitud": "-21.540752",
    "Longitud": "-64.725161",
    "Fuente": "web"
  },
  {
    "Departamento": "Tarija",
    "Tipo": "ServiciosFinancieros",
    "Nombre": "BANCO UNION",
    "Direccion": "Zona Mercado Campesino",
    "Telefono": "null",
    "Latitud": "-21.520859",
    "Longitud": "-64.742592",
    "Fuente": "web"
  },
  {
    "Departamento": "Tarija",
    "Tipo": "ServiciosFinancieros",
    "Nombre": "BANCO UNION",
    "Direccion": "C/MADRID ESQ. GRAL TRIGO NO.390",
    "Telefono": "null",
    "Latitud": "-21.533403",
    "Longitud": "-64.734329",
    "Fuente": "web"
  },
  {
    "Departamento": "Tarija",
    "Tipo": "ServiciosFinancieros",
    "Nombre": "C.A.C ABIERTA MADRE Y MAESTRA LTDA.",
    "Direccion": "Av. Froylan Tejerina N§ 140",
    "Telefono": "null",
    "Latitud": "-21.521386",
    "Longitud": "-64.742005",
    "Fuente": "web"
  },
  {
    "Departamento": "Tarija",
    "Tipo": "ServiciosFinancieros",
    "Nombre": "C.A.C ABIERTA MADRE Y MAESTRA LTDA.",
    "Direccion": "CALLE FRAY MANUEL MINGO Nro. 0573",
    "Telefono": "null",
    "Latitud": "-21.529153",
    "Longitud": "-64.734393",
    "Fuente": "web"
  },
  {
    "Departamento": "Tarija",
    "Tipo": "ServiciosFinancieros",
    "Nombre": "C.A.C. EL CHOROLQUE LTDA.",
    "Direccion": "C. INGAVI No.239, edif. CONCORDIA",
    "Telefono": "null",
    "Latitud": "-21.533174",
    "Longitud": "-64.732798",
    "Fuente": "web"
  },
  {
    "Departamento": "Tarija",
    "Tipo": "ServiciosFinancieros",
    "Nombre": "CIDRE IFD",
    "Direccion": "Av. Panamericana S Zona San Jorge",
    "Telefono": "null",
    "Latitud": "-21.526199",
    "Longitud": "-64.739830",
    "Fuente": "web"
  },
  {
    "Departamento": "Tarija",
    "Tipo": "ServiciosFinancieros",
    "Nombre": "CIDRE IFD",
    "Direccion": "C. JUNIN Nro. 625 ENTRE INGAVI Y MADRID",
    "Telefono": "null",
    "Latitud": "-21.535112",
    "Longitud": "-64.727989",
    "Fuente": "web"
  },
  {
    "Departamento": "Tarija",
    "Tipo": "ServiciosFinancieros",
    "Nombre": "COOP.MAGISTERIO RURAL TARIJA LTDA",
    "Direccion": "Calle campero N 726 entre Ingavi y Bolivar",
    "Telefono": "null",
    "Latitud": "-21.532086",
    "Longitud": "-64.734927",
    "Fuente": "web"
  },
  {
    "Departamento": "Tarija",
    "Tipo": "ServiciosFinancieros",
    "Nombre": "DIACONIA",
    "Direccion": "Av.Panamericana Nro 1791",
    "Telefono": "null",
    "Latitud": "-21.521137",
    "Longitud": "-64.742787",
    "Fuente": "web"
  },
  {
    "Departamento": "Tarija",
    "Tipo": "ServiciosFinancieros",
    "Nombre": "FONDECO",
    "Direccion": "Av. Froilan Tejerina, entre Ernesto Trigo y Hugo",
    "Telefono": "null",
    "Latitud": "-21.518541",
    "Longitud": "-64.740023",
    "Fuente": "web"
  },
  {
    "Departamento": "Tarija",
    "Tipo": "ServiciosFinancieros",
    "Nombre": "IDEPRO",
    "Direccion": "Calle Ingavi",
    "Telefono": "null",
    "Latitud": "-21.532837",
    "Longitud": "-64.733927",
    "Fuente": "web"
  },
  {
    "Departamento": "Tarija",
    "Tipo": "ServiciosFinancieros",
    "Nombre": "PRO-MUJER",
    "Direccion": "Zona Mercado Campesino",
    "Telefono": "null",
    "Latitud": "-21.521865",
    "Longitud": "-64.742354",
    "Fuente": "web"
  },
  {
    "Departamento": "Tarija",
    "Tipo": "ServiciosFinancieros",
    "Nombre": "IDEPRO",
    "Direccion": "Avenida Principal frente a la cancha de futbol s.",
    "Telefono": "null",
    "Latitud": "null",
    "Longitud": "null",
    "Fuente": "web"
  },
  {
    "Departamento": "Tarija",
    "Tipo": "ServiciosFinancieros",
    "Nombre": "IDEPRO",
    "Direccion": "Calle Recreo esquina Bol¡var, Plaza Principal s.n",
    "Telefono": "null",
    "Latitud": "null",
    "Longitud": "null",
    "Fuente": "web"
  },
  {
    "Departamento": "Tarija",
    "Tipo": "ServiciosFinancieros",
    "Nombre": "BANCO UNION",
    "Direccion": "Av. Ingavi, entre Av. H del Chaco y C.Cbba sn z.",
    "Telefono": "null",
    "Latitud": "-21.262999",
    "Longitud": "-63.470134",
    "Fuente": "web"
  },
  {
    "Departamento": "Tarija",
    "Tipo": "ServiciosFinancieros",
    "Nombre": "C.A.C. EDUCADORES GRAN CHACO LTDA",
    "Direccion": "Av. Mendez Arcos Esq. Calle Ismael Montes",
    "Telefono": "null",
    "Latitud": "-21.265846",
    "Longitud": "-63.469799",
    "Fuente": "web"
  },
  {
    "Departamento": "Tarija",
    "Tipo": "ServiciosFinancieros",
    "Nombre": "COOP.A.C.SAN FRANCISCO SOLANO",
    "Direccion": "AV MENDEZ ARCO ENTRE POTOSI Y ORURO",
    "Telefono": "null",
    "Latitud": "-21.265021",
    "Longitud": "-63.472655",
    "Fuente": "web"
  },
  {
    "Departamento": "Tarija",
    "Tipo": "ServiciosFinancieros",
    "Nombre": "BANCO FIE",
    "Direccion": "CALLE GENERAL CAMPERO ENTRE SANTA CRUZ Y COMERCIO",
    "Telefono": "null",
    "Latitud": "-22.016652",
    "Longitud": "-63.679166",
    "Fuente": "web"
  },
  {
    "Departamento": "Tarija",
    "Tipo": "ServiciosFinancieros",
    "Nombre": "BANCO UNION",
    "Direccion": "C/GRAL CAMPERO S/N ESQ.MARISCAL STA CRUZ",
    "Telefono": "null",
    "Latitud": "-22.017093",
    "Longitud": "-63.680102",
    "Fuente": "web"
  },
  {
    "Departamento": "Tarija",
    "Tipo": "ServiciosFinancieros",
    "Nombre": "C.A.C. EDUCADORES GRAN CHACO LTDA TRJ",
    "Direccion": "C/Campero #140 entre c/ Martin Barroso y Av.San M",
    "Telefono": "null",
    "Latitud": "-22.017245",
    "Longitud": "-63.676283",
    "Fuente": "web"
  },
  {
    "Departamento": "Tarija",
    "Tipo": "ServiciosFinancieros",
    "Nombre": "CAC. GAINZA",
    "Direccion": "C. SANTA CRUZ S.N.",
    "Telefono": "null",
    "Latitud": "null",
    "Longitud": "null",
    "Fuente": "web"
  },
  {
    "Departamento": "Tarija",
    "Tipo": "ServiciosFinancieros",
    "Nombre": "COOP. SAN MARTIN DE PORRES",
    "Direccion": "CALLE SANTA CRUZ ESQ.CREVAUX",
    "Telefono": "null",
    "Latitud": "-22.014085",
    "Longitud": "-63.678698",
    "Fuente": "web"
  },
  {
    "Departamento": "Tarija",
    "Tipo": "ServiciosFinancieros",
    "Nombre": "FUBODE",
    "Direccion": "CALLE SUCRE E. COMERCIO Y SANTA CRUZ Nø 329",
    "Telefono": "null",
    "Latitud": "null",
    "Longitud": "null",
    "Fuente": "web"
  },
  {
    "Departamento": "null",
    "Tipo": "ServiciosFinancieros",
    "Nombre": "Cooperativa de Ahorro y Crédito Cristo Rey Cochabamba",
    "Direccion": "Totora",
    "Telefono": "null",
    "Latitud": "-17.7355551",
    "Longitud": "-65.190899",
    "Fuente": "osm"
  },
  {
    "Departamento": "null",
    "Tipo": "ServiciosFinancieros",
    "Nombre": "Cooperativa Concordia Totora Ltda.",
    "Direccion": "Totora",
    "Telefono": "null",
    "Latitud": "-17.7354524",
    "Longitud": "-65.1908478",
    "Fuente": "osm"
  },
  {
    "Departamento": "null",
    "Tipo": "ServiciosFinancieros",
    "Nombre": "Prodem",
    "Telefono": "null",
    "Latitud": "-17.9411865",
    "Longitud": "-65.3413644",
    "Fuente": "osm"
  },
  {
    "Departamento": "null",
    "Tipo": "ServiciosFinancieros",
    "Nombre": "Prodem",
    "Telefono": "null",
    "Latitud": "-17.6115768",
    "Longitud": "-66.0229607",
    "Fuente": "osm"
  },
  {
    "Departamento": "null",
    "Tipo": "ServiciosFinancieros",
    "Telefono": "null",
    "Latitud": "-17.5919974",
    "Longitud": "-65.9344714",
    "Fuente": "osm"
  },