[
  {
    "Id": 437,
    "Departamento": "Beni",
    "Tipo": "ServiciosFinancieros",
    "Nombre": "BANCO UNION",
    "Direccion": "CALLE BALLIVIAN SN",
    "Telefono": null,
    "Latitud": null,
    "Longitud": null,
    "Fuente": "web"
  },
  {
    "Id": 438,
    "Departamento": "Beni",
    "Tipo": "ServiciosFinancieros",
    "Nombre": "BANCO UNION",
    "Direccion": "CFEDERICO ROMAN FRENTE PLAZA PRINCIPAL GERMAN",
    "Telefono": null,
    "Latitud": null,
    "Longitud": null,
    "Fuente": "web"
  },
  {
    "Id": 439,
    "Departamento": "Beni",
    "Tipo": "ServiciosFinancieros",
    "Nombre": "BANCO UNION",
    "Direccion": "Calle Luis Suarez esq. nataniel Garcia",
    "Telefono": null,
    "Latitud": null,
    "Longitud": null,
    "Fuente": "web"
  },
  {
    "Id": 440,
    "Departamento": "Beni",
    "Tipo": "ServiciosFinancieros",
    "Nombre": "BANCO UNION",
    "Direccion": "CALLE SUCRE ESQ. 18 DE NOVIEMBRE",
    "Telefono": null,
    "Latitud": null,
    "Longitud": null,
    "Fuente": "web"
  },
  {
    "Id": 441,
    "Departamento": "Beni",
    "Tipo": "ServiciosFinancieros",
    "Nombre": "BANCO UNION",
    "Direccion": "INTERSECCION DE LAS C/JUAN DE DIOS MARTINEZ Y MED",
    "Telefono": null,
    "Latitud": null,
    "Longitud": null,
    "Fuente": "web"
  },
  {
    "Id": 442,
    "Departamento": "Beni",
    "Tipo": "ServiciosFinancieros",
    "Nombre": "CIDRE IFD",
    "Direccion": "AV. NICOLAS SUAREZ N 481 CASI ESQUIna MEDARDO CHA",
    "Telefono": null,
    "Latitud": null,
    "Longitud": null,
    "Fuente": "web"
  },
  {
    "Id": 443,
    "Departamento": "Beni",
    "Tipo": "ServiciosFinancieros",
    "Nombre": "COOP.LA MERCED",
    "Direccion": "Av.Nicolas Suarez esq placido mendez frente a la",
    "Telefono": null,
    "Latitud": null,
    "Longitud": null,
    "Fuente": "web"
  },
  {
    "Id": 444,
    "Departamento": "Beni",
    "Tipo": "ServiciosFinancieros",
    "Nombre": "IDEPRO",
    "Direccion": "AV. MAXIMO HENICKEN S/N. RIBERALTA",
    "Telefono": null,
    "Latitud": null,
    "Longitud": null,
    "Fuente": "web"
  },
  {
    "Id": 445,
    "Departamento": "Beni",
    "Tipo": "ServiciosFinancieros",
    "Nombre": "PRO-MUJER",
    "Direccion": "Av. Placido Mendez y Gabriel Rene Moreno",
    "Telefono": null,
    "Latitud": null,
    "Longitud": null,
    "Fuente": "web"
  },
  {
    "Id": 446,
    "Departamento": "Beni",
    "Tipo": "ServiciosFinancieros",
    "Nombre": "BANCO UNION",
    "Direccion": "AV. COMERCIO ENTRE CALLE VACA DIEZ Y SANTA CRUZ",
    "Telefono": null,
    "Latitud": null,
    "Longitud": null,
    "Fuente": "web"
  },
  {
    "Id": 447,
    "Departamento": "Beni",
    "Tipo": "ServiciosFinancieros",
    "Nombre": "DIACONIA",
    "Direccion": "Calle Bolivar Nro . 32",
    "Telefono": null,
    "Latitud": null,
    "Longitud": null,
    "Fuente": "web"
  },
  {
    "Id": 448,
    "Departamento": "Beni",
    "Tipo": "ServiciosFinancieros",
    "Nombre": "BANCO UNION",
    "Direccion": "C/LA PAZ MEDIA CUADRA DEL LADO SUR DE LA PLAZA 10",
    "Telefono": null,
    "Latitud": null,
    "Longitud": null,
    "Fuente": "web"
  },
  {
    "Id": 449,
    "Departamento": "Beni",
    "Tipo": "ServiciosFinancieros",
    "Nombre": "CACTRI",
    "Direccion": "PLAZA PRINCIPAL ACERA NORTE",
    "Telefono": null,
    "Latitud": null,
    "Longitud": null,
    "Fuente": "web"
  },
  {
    "Id": 450,
    "Departamento": "Beni",
    "Tipo": "ServiciosFinancieros",
    "Nombre": "DIACONIA",
    "Direccion": "C/ ANTOFAGASTA ENTRE SUCRE Y TARIJA S/N",
    "Telefono": null,
    "Latitud": null,
    "Longitud": null,
    "Fuente": "web"
  },
  {
    "Id": 451,
    "Departamento": "Beni",
    "Tipo": "ServiciosFinancieros",
    "Nombre": "BANCO UNION",
    "Direccion": "C Santisteban S frente plaza principal 31 de Julio",
    "Telefono": null,
    "Latitud": null,
    "Longitud": null,
    "Fuente": "web"
  },
  {
    "Id": 452,
    "Departamento": "Beni",
    "Tipo": "ServiciosFinancieros",
    "Nombre": "BANCO UNION",
    "Direccion": "Av.Padre Alfonso Elorriaga entre 18deNoviembre y",
    "Telefono": null,
    "Latitud": null,
    "Longitud": null,
    "Fuente": "web"
  },
  {
    "Id": 453,
    "Departamento": "Beni",
    "Tipo": "ServiciosFinancieros",
    "Nombre": "BANCO UNION",
    "Direccion": "CALLE 18 DE NOVIEMBRE",
    "Telefono": null,
    "Latitud": null,
    "Longitud": null,
    "Fuente": "web"
  },
  {
    "Id": 454,
    "Departamento": "Beni",
    "Tipo": "ServiciosFinancieros",
    "Nombre": "BANCO UNION",
    "Direccion": "C/MANUELITA SUAREZ Y PLAZA BALCAZAR ESPINOZA",
    "Telefono": null,
    "Latitud": null,
    "Longitud": null,
    "Fuente": "web"
  },
  {
    "Id": 455,
    "Departamento": "Beni",
    "Tipo": "ServiciosFinancieros",
    "Nombre": "BANCO UNION",
    "Direccion": "Calle German Busch Esquina Beni",
    "Telefono": null,
    "Latitud": null,
    "Longitud": null,
    "Fuente": "web"
  },
  {
    "Id": 456,
    "Departamento": "Beni",
    "Tipo": "ServiciosFinancieros",
    "Nombre": "BANCO ECOFUTURO",
    "Direccion": "C. Manuel Limpias No. 76",
    "Telefono": null,
    "Latitud": -14.8346,
    "Longitud": -64.9017,
    "Fuente": "web"
  },
  {
    "Id": 457,
    "Departamento": "Beni",
    "Tipo": "ServiciosFinancieros",
    "Nombre": "BANCO PRODEM",
    "Direccion": "Calle Antonio Vaca Diez",
    "Telefono": null,
    "Latitud": -14.8344,
    "Longitud": -64.9048,
    "Fuente": "web"
  },
  {
    "Id": 458,
    "Departamento": "Beni",
    "Tipo": "ServiciosFinancieros",
    "Nombre": "BANCO UNION",
    "Direccion": "Av. Cipriano Baracé # 604",
    "Telefono": null,
    "Latitud": null,
    "Longitud": null,
    "Fuente": "web"
  },
  {
    "Id": 459,
    "Departamento": "Beni",
    "Tipo": "ServiciosFinancieros",
    "Nombre": "BANCO UNION",
    "Direccion": "Av. Bolivar Esquina Alberto Reyes",
    "Telefono": null,
    "Latitud": -14.8305,
    "Longitud": -64.8953,
    "Fuente": "web"
  },
  {
    "Id": 460,
    "Departamento": "Beni",
    "Tipo": "ServiciosFinancieros",
    "Nombre": "CACTRI",
    "Direccion": "C. COCHABAMBA No. 100",
    "Telefono": null,
    "Latitud": null,
    "Longitud": null,
    "Fuente": "web"
  },
  {
    "Id": 461,
    "Departamento": "Beni",
    "Tipo": "ServiciosFinancieros",
    "Nombre": "CRECER IFD",
    "Direccion": "Calle Joaquin de Sierra esq. Mamore",
    "Telefono": null,
    "Latitud": -14.8378,
    "Longitud": -64.9038,
    "Fuente": "web"
  },
  {
    "Id": 462,
    "Departamento": "Beni",
    "Tipo": "ServiciosFinancieros",
    "Nombre": "DIACONIA",
    "Direccion": "C. Torope SN, entre calle Hernan Velarde Rojas",
    "Telefono": null,
    "Latitud": null,
    "Longitud": null,
    "Fuente": "web"
  },
  {
    "Id": 463,
    "Departamento": "Beni",
    "Tipo": "ServiciosFinancieros",
    "Nombre": "LA PROMOTORA",
    "Direccion": "AV. GERMAN BUSCH No. 65",
    "Telefono": null,
    "Latitud": null,
    "Longitud": null,
    "Fuente": "web"
  },
  {
    "Id": 464,
    "Departamento": "Beni",
    "Tipo": "ServiciosFinancieros",
    "Nombre": "PRO-MUJER",
    "Direccion": "CALLE RAUL MONJE ROCA #48,MEDIA CUADRA AV.BOLIVAR",
    "Telefono": null,
    "Latitud": null,
    "Longitud": null,
    "Fuente": "web"
  },
  {
    "Id": 465,
    "Departamento": "Beni",
    "Tipo": "ServiciosFinancieros",
    "Nombre": "BANCO PRODEM",
    "Direccion": "Carretera a Rurrenabaque sn frente a mercado san",
    "Telefono": null,
    "Latitud": null,
    "Longitud": null,
    "Fuente": "web"
  },
  {
    "Id": 466,
    "Departamento": "Beni",
    "Tipo": "ServiciosFinancieros",
    "Nombre": "BANCO UNION",
    "Direccion": "AV. RUREnaBAQUE S",
    "Telefono": null,
    "Latitud": null,
    "Longitud": null,
    "Fuente": "web"
  },
  {
    "Id": 467,
    "Departamento": "Beni",
    "Tipo": "ServiciosFinancieros",
    "Nombre": "DIACONIA",
    "Direccion": "Carretera Principal A Rurrenabaque s/n",
    "Telefono": null,
    "Latitud": null,
    "Longitud": null,
    "Fuente": "web"
  },
  {
    "Id": 468,
    "Departamento": "Cochabamba",
    "Tipo": "ServiciosFinancieros",
    "Nombre": "COOP.SAN PEDRO DE AIQUILE",
    "Direccion": "Calle Sucre, entre Arevalo y Heroes del Chaco",
    "Telefono": null,
    "Latitud": null,
    "Longitud": null,
    "Fuente": "web"
  },
  {
    "Id": 469,
    "Departamento": "Cochabamba",
    "Tipo": "ServiciosFinancieros",
    "Nombre": "COOP.SAN CARLOS BORROMEO",
    "Direccion": "Frente Plaza Principal 12 de Octubre",
    "Telefono": null,
    "Latitud": null,
    "Longitud": null,
    "Fuente": "web"
  },
  {
    "Id": 470,
    "Departamento": "Cochabamba",
    "Tipo": "ServiciosFinancieros",
    "Nombre": "COOP.SAN CARLOS BORROMEO",
    "Direccion": "Calle Obispo La Fuente N.56",
    "Telefono": null,
    "Latitud": null,
    "Longitud": null,
    "Fuente": "web"
  },
  {
    "Id": 471,
    "Departamento": "Cochabamba",
    "Tipo": "ServiciosFinancieros",
    "Nombre": "COOP.LA CANTERA",
    "Direccion": "Plaza 24 de Septiembre acera Norte s.n",
    "Telefono": null,
    "Latitud": null,
    "Longitud": null,
    "Fuente": "web"
  },
  {
    "Id": 472,
    "Departamento": "Cochabamba",
    "Tipo": "ServiciosFinancieros",
    "Nombre": "FUBODE",
    "Direccion": "Plaza Principal acera Sud sn lado H.A.M. de Capin",
    "Telefono": null,
    "Latitud": null,
    "Longitud": null,
    "Fuente": "web"
  },
  {
    "Id": 473,
    "Departamento": "Cochabamba",
    "Tipo": "ServiciosFinancieros",
    "Nombre": "CIDRE IFD",
    "Direccion": "Avenida Panamericana S y Manzanitos",
    "Telefono": null,
    "Latitud": null,
    "Longitud": null,
    "Fuente": "web"
  },
  {
    "Id": 474,
    "Departamento": "Cochabamba",
    "Tipo": "ServiciosFinancieros",
    "Nombre": "BANCO FASSIL",
    "Direccion": "Calle nataniel Aguirre esq. Calama",
    "Telefono": null,
    "Latitud": -17.3965,
    "Longitud": -66.157,
    "Fuente": "web"
  },
  {
    "Id": 475,
    "Departamento": "Cochabamba",
    "Tipo": "ServiciosFinancieros",
    "Nombre": "BANCO FORTALEZA",
    "Direccion": "Av.Ballivian No.739, entre calles Teniente Ar‚val",
    "Telefono": null,
    "Latitud": null,
    "Longitud": null,
    "Fuente": "web"
  },
  {
    "Id": 476,
    "Departamento": "Cochabamba",
    "Tipo": "ServiciosFinancieros",
    "Nombre": "BANCO PRODEM",
    "Direccion": "c/Calama entre Ayacucho y nataniel Aguirre No.164",
    "Telefono": null,
    "Latitud": -17.3966,
    "Longitud": -66.1574,
    "Fuente": "web"
  },
  {
    "Id": 477,
    "Departamento": "Cochabamba",
    "Tipo": "ServiciosFinancieros",
    "Nombre": "BANCO UNION",
    "Direccion": "Calle 25 de Mayo, esquina Sucre Nø 0385",
    "Telefono": null,
    "Latitud": -17.394,
    "Longitud": -66.1553,
    "Fuente": "web"
  },
  {
    "Id": 478,
    "Departamento": "Cochabamba",
    "Tipo": "ServiciosFinancieros",
    "Nombre": "BANCO UNION",
    "Direccion": "Plaza Sucre entre Pasteur y Aurelio Melean N.1033",
    "Telefono": null,
    "Latitud": -17.3918,
    "Longitud": -66.1483,
    "Fuente": "web"
  },
  {
    "Id": 479,
    "Departamento": "Cochabamba",
    "Tipo": "ServiciosFinancieros",
    "Nombre": "C.A.C. ASUNCION",
    "Direccion": "C 25 DE MAYO N.818 ENTRE AV. AROMA Y BRAZIL",
    "Telefono": null,
    "Latitud": null,
    "Longitud": null,
    "Fuente": "web"
  },
  {
    "Id": 480,
    "Departamento": "Cochabamba",
    "Tipo": "ServiciosFinancieros",
    "Nombre": "CACEF LTDA",
    "Direccion": "Av.Ayacucho N.331",
    "Telefono": null,
    "Latitud": -17.3904,
    "Longitud": -66.1593,
    "Fuente": "web"
  },
  {
    "Id": 481,
    "Departamento": "Cochabamba",
    "Tipo": "ServiciosFinancieros",
    "Nombre": "CIDRE IFD",
    "Direccion": "Av. Capitan Ustariz Nro. 2003",
    "Telefono": null,
    "Latitud": -17.3964,
    "Longitud": -66.1791,
    "Fuente": "web"
  },
  {
    "Id": 482,
    "Departamento": "Cochabamba",
    "Tipo": "ServiciosFinancieros",
    "Nombre": "CIDRE IFD",
    "Direccion": "Calle Juan de La Cruz Torrez N.1674",
    "Telefono": null,
    "Latitud": null,
    "Longitud": null,
    "Fuente": "web"
  },
  {
    "Id": 483,
    "Departamento": "Cochabamba",
    "Tipo": "ServiciosFinancieros",
    "Nombre": "COOP. COMARAPA LTDA.",
    "Direccion": "Av. Republica Nro. 1947 esq. Av. 6 de agosto",
    "Telefono": null,
    "Latitud": -17.4106,
    "Longitud": -66.1509,
    "Fuente": "web"
  },
  {
    "Id": 484,
    "Departamento": "Cochabamba",
    "Tipo": "ServiciosFinancieros",
    "Nombre": "COOP. EMPETROL",
    "Direccion": "C/LANZA No. 548 ENTRE SALAMANCA Y PACCIERI",
    "Telefono": null,
    "Latitud": -17.387,
    "Longitud": -66.1544,
    "Fuente": "web"
  },
  {
    "Id": 485,
    "Departamento": "Cochabamba",
    "Tipo": "ServiciosFinancieros",
    "Nombre": "COOP. PIO X",
    "Direccion": "Av. Mancokapac No.924",
    "Telefono": null,
    "Latitud": -17.4027,
    "Longitud": -66.1668,
    "Fuente": "web"
  },
  {
    "Id": 486,
    "Departamento": "Cochabamba",
    "Tipo": "ServiciosFinancieros",
    "Nombre": "COOP. SAN ANTONIO",
    "Direccion": "Av.Libertador N.1567 casi Av.America",
    "Telefono": null,
    "Latitud": -17.3725,
    "Longitud": -66.1634,
    "Fuente": "web"
  },
  {
    "Id": 487,
    "Departamento": "Cochabamba",
    "Tipo": "ServiciosFinancieros",
    "Nombre": "COOP. SAN MARTIN DE PORRES",
    "Direccion": "Av. Ayacucho N.290 Esq.Santivanez",
    "Telefono": null,
    "Latitud": -17.3946,
    "Longitud": -66.1585,
    "Fuente": "web"
  },
  {
    "Id": 488,
    "Departamento": "Cochabamba",
    "Tipo": "ServiciosFinancieros",
    "Nombre": "COOP. CRISTO REY",
    "Direccion": "Av. Peru Nro. 593",
    "Telefono": null,
    "Latitud": null,
    "Longitud": null,
    "Fuente": "web"
  },
  {
    "Id": 489,
    "Departamento": "Cochabamba",
    "Tipo": "ServiciosFinancieros",
    "Nombre": "COOP. LOYOLA LTDA.",
    "Direccion": "Antezana No. S-0397 Esq. Jordan",
    "Telefono": null,
    "Latitud": -17.3945,
    "Longitud": -66.1518,
    "Fuente": "web"
  },
  {
    "Id": 490,
    "Departamento": "Cochabamba",
    "Tipo": "ServiciosFinancieros",
    "Nombre": "COOP. SAN CARLOS BORROMEO",
    "Direccion": "Av.Republica N.1644 entre Calle Guayaramerin y Av",
    "Telefono": null,
    "Latitud": -17.4075,
    "Longitud": -66.1509,
    "Fuente": "web"
  },
  {
    "Id": 491,
    "Departamento": "Cochabamba",
    "Tipo": "ServiciosFinancieros",
    "Nombre": "COOP. SAN JOAQUIN LTDA.",
    "Direccion": "AV. VICTOR USTARIZ No.3119 ESQ. POnaNSKI",
    "Telefono": null,
    "Latitud": null,
    "Longitud": null,
    "Fuente": "web"
  },
  {
    "Id": 492,
    "Departamento": "Cochabamba",
    "Tipo": "ServiciosFinancieros",
    "Nombre": "COOP. SAN JOAQUIN LTDA.",
    "Direccion": "AV. CIRCUNVALACION N.889, ESQUIna AV. CALAMPAMPA",
    "Telefono": null,
    "Latitud": -17.3609,
    "Longitud": -66.1707,
    "Fuente": "web"
  },
  {
    "Id": 493,
    "Departamento": "Cochabamba",
    "Tipo": "ServiciosFinancieros",
    "Nombre": "COOP. SAN JOAQUIN LTDA.",
    "Direccion": "AV. DE LA PATRIA NO.1961",
    "Telefono": null,
    "Latitud": -17.4132,
    "Longitud": -66.1641,
    "Fuente": "web"
  },
  {
    "Id": 494,
    "Departamento": "Cochabamba",
    "Tipo": "ServiciosFinancieros",
    "Nombre": "COOP. SARCO",
    "Direccion": "AV. AMERICA OESTE Nro. 1386",
    "Telefono": null,
    "Latitud": -17.3714,
    "Longitud": -66.1769,
    "Fuente": "web"
  },
  {
    "Id": 495,
    "Departamento": "Cochabamba",
    "Tipo": "ServiciosFinancieros",
    "Nombre": "COOP. TUKUYPAJ",
    "Direccion": "Av. Simon Lopez N.2685 entre Ma.Ballivian y Humbe",
    "Telefono": null,
    "Latitud": -17.3553,
    "Longitud": -66.187,
    "Fuente": "web"
  },
  {
    "Id": 496,
    "Departamento": "Cochabamba",
    "Tipo": "ServiciosFinancieros",
    "Nombre": "DIACONIA",
    "Direccion": "Av. Republica Nro. 1185",
    "Telefono": null,
    "Latitud": -17.4075,
    "Longitud": -66.1509,
    "Fuente": "web"
  },
  {
    "Id": 497,
    "Departamento": "Cochabamba",
    "Tipo": "ServiciosFinancieros",
    "Nombre": "FUBODE",
    "Direccion": "C/ANTEZAna 216 ENTRE ECUADOR Y COLOMBIA",
    "Telefono": null,
    "Latitud": null,
    "Longitud": null,
    "Fuente": "web"
  },
  {
    "Id": 498,
    "Departamento": "Cochabamba",
    "Tipo": "ServiciosFinancieros",
    "Nombre": "FUBODE",
    "Direccion": "AV. PAnaMERICAna 2806",
    "Telefono": null,
    "Latitud": -17.4227,
    "Longitud": -66.1583,
    "Fuente": "web"
  },
  {
    "Id": 499,
    "Departamento": "Cochabamba",
    "Tipo": "ServiciosFinancieros",
    "Nombre": "HOSPICIO",
    "Direccion": "AV. BEIJING NRO.285 ESQ. IDELFONSO",
    "Telefono": null,
    "Latitud": null,
    "Longitud": null,
    "Fuente": "web"
  },
  {
    "Id": 500,
    "Departamento": "Cochabamba",
    "Tipo": "ServiciosFinancieros",
    "Nombre": "HOSPICIO",
    "Direccion": "c/25 de Mayo entre Colombia y Ecuador",
    "Telefono": null,
    "Latitud": -17.3902,
    "Longitud": -66.1561,
    "Fuente": "web"
  },
  {
    "Id": 501,
    "Departamento": "Cochabamba",
    "Tipo": "ServiciosFinancieros",
    "Nombre": "LA PROMOTORA",
    "Direccion": "c/Espana esq. Heroinas No.0111",
    "Telefono": null,
    "Latitud": -17.3923,
    "Longitud": -66.1566,
    "Fuente": "web"
  },
  {
    "Id": 502,
    "Departamento": "Cochabamba",
    "Tipo": "ServiciosFinancieros",
    "Nombre": "SEMBRAR SARTAWI",
    "Direccion": "AV. BLANCO GALINDO N.1158 ENTRE AV. PERU Y S. ALB",
    "Telefono": null,
    "Latitud": null,
    "Longitud": null,
    "Fuente": "web"
  },
  {
    "Id": 503,
    "Departamento": "Cochabamba",
    "Tipo": "ServiciosFinancieros",
    "Nombre": "CIDRE IFD",
    "Direccion": "C. MAN CESPED S.N. KM. 49 CARRETERA CBBA STA. CRU",
    "Telefono": null,
    "Latitud": null,
    "Longitud": null,
    "Fuente": "web"
  },
  {
    "Id": 504,
    "Departamento": "Cochabamba",
    "Tipo": "ServiciosFinancieros",
    "Nombre": "BANCO UNION",
    "Direccion": "Calle Eduardo Avaroa s esq. Bolívar (Plaza Princip",
    "Telefono": null,
    "Latitud": null,
    "Longitud": null,
    "Fuente": "web"
  },
  {
    "Id": 505,
    "Departamento": "Cochabamba",
    "Tipo": "ServiciosFinancieros",
    "Nombre": "CIDRE IFD",
    "Direccion": "CARRETERA PRINCIPAL A SCZ Km. 271,ACERA NORTE",
    "Telefono": null,
    "Latitud": null,
    "Longitud": null,
    "Fuente": "web"
  },
  {
    "Id": 506,
    "Departamento": "Cochabamba",
    "Tipo": "ServiciosFinancieros",
    "Nombre": "COOP.MAGISTERIO RURAL TARIJA LTDA",
    "Direccion": "Calle Froilan Tejerina y Alianza",
    "Telefono": null,
    "Latitud": null,
    "Longitud": null,
    "Fuente": "web"
  },
  {
    "Id": 507,
    "Departamento": "Cochabamba",
    "Tipo": "ServiciosFinancieros",
    "Nombre": "C.A.C. SAN FRANCISCO DE ASIS LTDA.",
    "Direccion": "PLZ. 6 DE AGOSTO Villa Indep Prov. Ayopaya acera",
    "Telefono": null,
    "Latitud": null,
    "Longitud": null,
    "Fuente": "web"
  },
  {
    "Id": 508,
    "Departamento": "Cochabamba",
    "Tipo": "ServiciosFinancieros",
    "Nombre": "CIDRE IFD",
    "Direccion": "AV. MORTENSSON S.N. PLAZA PRINCIPAL",
    "Telefono": null,
    "Latitud": null,
    "Longitud": null,
    "Fuente": "web"
  },
  {
    "Id": 509,
    "Departamento": "Cochabamba",
    "Tipo": "ServiciosFinancieros",
    "Nombre": "COOP. PIO X",
    "Direccion": "AV. MONTESORI ESQ. LEOnaRDO QUISPE",
    "Telefono": null,
    "Latitud": null,
    "Longitud": null,
    "Fuente": "web"
  },
  {
    "Id": 510,
    "Departamento": "Cochabamba",
    "Tipo": "ServiciosFinancieros",
    "Nombre": "CIDRE IFD",
    "Direccion": "CALLE LITORAL S.N. ENTRE COCHABAMBA Y MORALES",
    "Telefono": null,
    "Latitud": null,
    "Longitud": null,
    "Fuente": "web"
  },
  {
    "Id": 511,
    "Departamento": "Cochabamba",
    "Tipo": "ServiciosFinancieros",
    "Nombre": "SEMBRAR SARTAWI",
    "Direccion": "C. Tapia s.n. Plaza Independencia",
    "Telefono": null,
    "Latitud": null,
    "Longitud": null,
    "Fuente": "web"
  },
  {
    "Id": 512,
    "Departamento": "Cochabamba",
    "Tipo": "ServiciosFinancieros",
    "Nombre": "COOP. COMARAPA LTDA.",
    "Direccion": "Plaza 9 de Mayo esq. Bolivar",
    "Telefono": null,
    "Latitud": null,
    "Longitud": null,
    "Fuente": "web"
  },
  {
    "Id": 513,
    "Departamento": "Cochabamba",
    "Tipo": "ServiciosFinancieros",
    "Nombre": "COOP.SAN PEDRO DE AIQUILE",
    "Direccion": "Plaza 9 de mayo",
    "Telefono": null,
    "Latitud": null,
    "Longitud": null,
    "Fuente": "web"
  },
  {
    "Id": 514,
    "Departamento": "Cochabamba",
    "Tipo": "ServiciosFinancieros",
    "Nombre": "FUBODE",
    "Direccion": "Calle Andrés María Torrico, Esquina Ingavi",
    "Telefono": null,
    "Latitud": -17.5438,
    "Longitud": -65.8374,
    "Fuente": "web"
  },
  {
    "Id": 515,
    "Departamento": "Cochabamba",
    "Tipo": "ServiciosFinancieros",
    "Nombre": "HOSPICIO",
    "Direccion": "Av Gualberto Villarroel",
    "Telefono": null,
    "Latitud": -17.547,
    "Longitud": -65.8362,
    "Fuente": "web"
  },
  {
    "Id": 516,
    "Departamento": "Cochabamba",
    "Tipo": "ServiciosFinancieros",
    "Nombre": "SEMBRAR SARTAWI",
    "Direccion": "AV. GUALBERTO VILLARROEL NO.107",
    "Telefono": null,
    "Latitud": -17.5474,
    "Longitud": -65.8363,
    "Fuente": "web"
  },
  {
    "Id": 517,
    "Departamento": "Cochabamba",
    "Tipo": "ServiciosFinancieros",
    "Nombre": "BANCO FORTALEZA",
    "Direccion": "Calle Cochabamba s.n entre Heroes del Acre y Ball",
    "Telefono": null,
    "Latitud": -17.3965,
    "Longitud": -66.2808,
    "Fuente": "web"
  },
  {
    "Id": 518,
    "Departamento": "Cochabamba",
    "Tipo": "ServiciosFinancieros",
    "Nombre": "BANCO UNION",
    "Direccion": "Calle 14 de septiembre #E-138",
    "Telefono": null,
    "Latitud": null,
    "Longitud": null,
    "Fuente": "web"
  },
  {
    "Id": 519,
    "Departamento": "Cochabamba",
    "Tipo": "ServiciosFinancieros",
    "Nombre": "CAC COOPROLE LTDA.",
    "Direccion": "Calle Carmela Serruto casi esq.Av.Santa Cruz",
    "Telefono": null,
    "Latitud": -17.393,
    "Longitud": -66.2829,
    "Fuente": "web"
  },
  {
    "Id": 520,
    "Departamento": "Cochabamba",
    "Tipo": "ServiciosFinancieros",
    "Nombre": "CIDRE IFD",
    "Direccion": "Av. Albina Pati¤o No.220 entre Av. Sta. Cruz y Co",
    "Telefono": null,
    "Latitud": null,
    "Longitud": null,
    "Fuente": "web"
  },
  {
    "Id": 521,
    "Departamento": "Cochabamba",
    "Tipo": "ServiciosFinancieros",
    "Nombre": "COOP.CRISTO REY",
    "Direccion": "Plaza 27 de mayo",
    "Telefono": null,
    "Latitud": null,
    "Longitud": null,
    "Fuente": "web"
  },
  {
    "Id": 522,
    "Departamento": "Cochabamba",
    "Tipo": "ServiciosFinancieros",
    "Nombre": "HOSPICIO",
    "Direccion": "Plaza Bolivar",
    "Telefono": null,
    "Latitud": null,
    "Longitud": null,
    "Fuente": "web"
  },
  {
    "Id": 523,
    "Departamento": "Cochabamba",
    "Tipo": "ServiciosFinancieros",
    "Nombre": "PRO-MUJER",
    "Direccion": "Av. Blanco Galindo entre 23 de Marzo y Suarez Mir",
    "Telefono": null,
    "Latitud": null,
    "Longitud": null,
    "Fuente": "web"
  },
  {
    "Id": 524,
    "Departamento": "Cochabamba",
    "Tipo": "ServiciosFinancieros",
    "Nombre": "SEMBRAR SARTAWI",
    "Direccion": "CALLE CARMELA SERRUTO N.126 ENTRE W.BALLIVIAN Y S",
    "Telefono": null,
    "Latitud": null,
    "Longitud": null,
    "Fuente": "web"
  },
  {
    "Id": 525,
    "Departamento": "Cochabamba",
    "Tipo": "ServiciosFinancieros",
    "Nombre": "BANCO FORTALEZA",
    "Direccion": "CALLE BOLIVAR Nro. 366 ENTRE AYACUCHO Y COLON",
    "Telefono": null,
    "Latitud": -17.4037,
    "Longitud": -66.0385,
    "Fuente": "web"
  },
  {
    "Id": 526,
    "Departamento": "Cochabamba",
    "Tipo": "ServiciosFinancieros",
    "Nombre": "BANCO UNION",
    "Direccion": "AVENIDA BARRIENTOS ESQUIna MONSE¥OR ALCOCER SN",
    "Telefono": null,
    "Latitud": null,
    "Longitud": null,
    "Fuente": "web"
  },
  {
    "Id": 527,
    "Departamento": "Cochabamba",
    "Tipo": "ServiciosFinancieros",
    "Nombre": "CACEF LTDA",
    "Direccion": "Plaza 06 de Agosto acera Norte",
    "Telefono": null,
    "Latitud": -17.4035,
    "Longitud": -66.04,
    "Fuente": "web"
  },
  {
    "Id": 528,
    "Departamento": "Cochabamba",
    "Tipo": "ServiciosFinancieros",
    "Nombre": "COOP. PIO X",
    "Direccion": "Calle Junin N.155",
    "Telefono": null,
    "Latitud": null,
    "Longitud": null,
    "Fuente": "web"
  },
  {
    "Id": 529,
    "Departamento": "Cochabamba",
    "Tipo": "ServiciosFinancieros",
    "Nombre": "FUBODE",
    "Direccion": "CALLE BOLIVAR 100 ESQ. COLON",
    "Telefono": null,
    "Latitud": -17.4041,
    "Longitud": -66.0386,
    "Fuente": "web"
  },
  {
    "Id": 530,
    "Departamento": "Cochabamba",
    "Tipo": "ServiciosFinancieros",
    "Nombre": "SEMBRAR SARTAWI",
    "Direccion": "Calle Ingavi N. 614 esq. Calle Bolivar",
    "Telefono": null,
    "Latitud": null,
    "Longitud": null,
    "Fuente": "web"
  },
  {
    "Id": 531,
    "Departamento": "Cochabamba",
    "Tipo": "ServiciosFinancieros",
    "Nombre": "CACEF LTDA",
    "Direccion": "Av. Panamericana esq. Calle Miraflores",
    "Telefono": null,
    "Latitud": null,
    "Longitud": null,
    "Fuente": "web"
  },
  {
    "Id": 532,
    "Departamento": "Cochabamba",
    "Tipo": "ServiciosFinancieros",
    "Nombre": "CACEF LTDA",
    "Direccion": "Plaza 30 de Abril Acera Sud",
    "Telefono": null,
    "Latitud": null,
    "Longitud": null,
    "Fuente": "web"
  },
  {
    "Id": 533,
    "Departamento": "Cochabamba",
    "Tipo": "ServiciosFinancieros",
    "Nombre": "CACEF LTDA",
    "Direccion": "Plaza Principla lado oeste",
    "Telefono": null,
    "Latitud": null,
    "Longitud": null,
    "Fuente": "web"
  },
  {
    "Id": 534,
    "Departamento": "Cochabamba",
    "Tipo": "ServiciosFinancieros",
    "Nombre": "CIDRE IFD",
    "Direccion": "CALLE SANTA CRUZ S ENTRE CALLES VANDIOLA Y COSTAN",
    "Telefono": null,
    "Latitud": null,
    "Longitud": null,
    "Fuente": "web"
  },
  {
    "Id": 535,
    "Departamento": "Cochabamba",
    "Tipo": "ServiciosFinancieros",
    "Nombre": "COOP.CRISTO REY",
    "Direccion": "Plaza Ladislao Cabrera",
    "Telefono": null,
    "Latitud": null,
    "Longitud": null,
    "Fuente": "web"
  },
  {
    "Id": 536,
    "Departamento": "Cochabamba",
    "Tipo": "ServiciosFinancieros",
    "Nombre": "COOP.SAN CARLOS BORROMEO",
    "Direccion": "Calle Junin y Calle Aroma s.n Mercado central ace",
    "Telefono": null,
    "Latitud": null,
    "Longitud": null,
    "Fuente": "web"
  },
  {
    "Id": 537,
    "Departamento": "Cochabamba",
    "Tipo": "ServiciosFinancieros",
    "Nombre": "COOP. SAN ANTONIO",
    "Direccion": "Av.Integracion esq.Chuquisaca s.n Central",
    "Telefono": null,
    "Latitud": null,
    "Longitud": null,
    "Fuente": "web"
  },
  {
    "Id": 538,
    "Departamento": "La Paz",
    "Tipo": "ServiciosFinancieros",
    "Nombre": "BANCO FIE",
    "Direccion": "Plaza Mcal. Andres de Santa Cruz No.50",
    "Telefono": null,
    "Latitud": null,
    "Longitud": null,
    "Fuente": "web"
  },
  {
    "Id": 539,
    "Departamento": "La Paz",
    "Tipo": "ServiciosFinancieros",
    "Nombre": "BANCO PRODEM",
    "Direccion": "Maximiiano Paredes N§ 15 esquina Yanacocha",
    "Telefono": null,
    "Latitud": null,
    "Longitud": null,
    "Fuente": "web"
  },
  {
    "Id": 540,
    "Departamento": "La Paz",
    "Tipo": "ServiciosFinancieros",
    "Nombre": "BANCO ECOFUTURO",
    "Direccion": "PLAZA BOLIVAR, ACERA NORTE",
    "Telefono": null,
    "Latitud": null,
    "Longitud": null,
    "Fuente": "web"
  },
  {
    "Id": 541,
    "Departamento": "La Paz",
    "Tipo": "ServiciosFinancieros",
    "Nombre": "BANCO PRODEM",
    "Direccion": "Avenida 30 de Agosto SN",
    "Telefono": null,
    "Latitud": null,
    "Longitud": null,
    "Fuente": "web"
  },
  {
    "Id": 542,
    "Departamento": "La Paz",
    "Tipo": "ServiciosFinancieros",
    "Nombre": "BANCO FIE",
    "Direccion": "Plaza Rene Barrientos S/N",
    "Telefono": null,
    "Latitud": null,
    "Longitud": null,
    "Fuente": "web"
  },
  {
    "Id": 543,
    "Departamento": "La Paz",
    "Tipo": "ServiciosFinancieros",
    "Nombre": "SEMBRAR SARTAWI",
    "Direccion": "PLAZA PRINCIPAL DE LA LOCALIDAD DE BATALLAS",
    "Telefono": null,
    "Latitud": null,
    "Longitud": null,
    "Fuente": "web"
  },
  {
    "Id": 544,
    "Departamento": "La Paz",
    "Tipo": "ServiciosFinancieros",
    "Nombre": "SEMBRAR SARTAWI",
    "Direccion": "Plaza 16 de Julio S.N.",
    "Telefono": null,
    "Latitud": null,
    "Longitud": null,
    "Fuente": "web"
  },
  {
    "Id": 545,
    "Departamento": "La Paz",
    "Tipo": "ServiciosFinancieros",
    "Nombre": "BANCO UNION",
    "Direccion": "Av. Mariscal Santa Cruz s entre Litoral y Kilómet",
    "Telefono": null,
    "Latitud": null,
    "Longitud": null,
    "Fuente": "web"
  },
  {
    "Id": 546,
    "Departamento": "La Paz",
    "Tipo": "ServiciosFinancieros",
    "Nombre": "SEMBRAR SARTAWI",
    "Direccion": "Av. Mcal. Santa Cruz entre c. Batallon de ing.",
    "Telefono": null,
    "Latitud": null,
    "Longitud": null,
    "Fuente": "web"
  },
  {
    "Id": 547,
    "Departamento": "La Paz",
    "Tipo": "ServiciosFinancieros",
    "Nombre": "BANCO PRODEM",
    "Direccion": "Plaza Martin Villalobos, esq. Gral Pando",
    "Telefono": null,
    "Latitud": null,
    "Longitud": null,
    "Fuente": "web"
  },
  {
    "Id": 548,
    "Departamento": "La Paz",
    "Tipo": "ServiciosFinancieros",
    "Nombre": "BANCO PRODEM",
    "Direccion": "Av. 6 de Agosto s.n. entre Calles Oruro y Pando",
    "Telefono": null,
    "Latitud": -16.1658,
    "Longitud": -69.0865,
    "Fuente": "web"
  },
  {
    "Id": 549,
    "Departamento": "La Paz",
    "Tipo": "ServiciosFinancieros",
    "Nombre": "BANCO PRODEM",
    "Direccion": "Saturnino Guerra s lado Plaza 16 de Julio",
    "Telefono": null,
    "Latitud": -16.3138,
    "Longitud": -67.6064,
    "Fuente": "web"
  },
  {
    "Id": 550,
    "Departamento": "La Paz",
    "Tipo": "ServiciosFinancieros",
    "Nombre": "BANCO PRODEM",
    "Direccion": "C. Julio Suazo s.n, Plaza Principal",
    "Telefono": null,
    "Latitud": -16.1886,
    "Longitud": -67.7271,
    "Fuente": "web"
  },
  {
    "Id": 551,
    "Departamento": "La Paz",
    "Tipo": "ServiciosFinancieros",
    "Nombre": "SEMBRAR SARTAWI",
    "Direccion": "C. Tomas Monje esq. pje. Adalid Linares",
    "Telefono": null,
    "Latitud": null,
    "Longitud": null,
    "Fuente": "web"
  },
  {
    "Id": 552,
    "Departamento": "La Paz",
    "Tipo": "ServiciosFinancieros",
    "Nombre": "BANCO ECOFUTURO",
    "Direccion": "C. 3 No. 1304-CEJA",
    "Telefono": null,
    "Latitud": null,
    "Longitud": null,
    "Fuente": "web"
  },
  {
    "Id": 553,
    "Departamento": "La Paz",
    "Tipo": "ServiciosFinancieros",
    "Nombre": "BANCO FASSIL",
    "Direccion": "AV. JORGE CARRASCO No.61",
    "Telefono": null,
    "Latitud": -16.5077,
    "Longitud": -68.163,
    "Fuente": "web"
  },
  {
    "Id": 554,
    "Departamento": "La Paz",
    "Tipo": "ServiciosFinancieros",
    "Nombre": "BANCO FIE",
    "Direccion": "Calle Jorge Carrasco No. 63 Zona 12 de Octubre",
    "Telefono": null,
    "Latitud": null,
    "Longitud": null,
    "Fuente": "web"
  },
  {
    "Id": 555,
    "Departamento": "La Paz",
    "Tipo": "ServiciosFinancieros",
    "Nombre": "BANCO FIE",
    "Direccion": "Av. Bolivia No. 1101 (cruce Villa Adela)",
    "Telefono": null,
    "Latitud": -16.5343,
    "Longitud": -68.1906,
    "Fuente": "web"
  },
  {
    "Id": 556,
    "Departamento": "La Paz",
    "Tipo": "ServiciosFinancieros",
    "Nombre": "BANCO FIE",
    "Direccion": "Av. Juan Pablo II No.60 (ex tranca Rio Seco)",
    "Telefono": null,
    "Latitud": -16.4902,
    "Longitud": -68.2071,
    "Fuente": "web"
  },
  {
    "Id": 557,
    "Departamento": "La Paz",
    "Tipo": "ServiciosFinancieros",
    "Nombre": "BANCO FIE",
    "Direccion": "Av. Aconcagua No. 8394",
    "Telefono": null,
    "Latitud": null,
    "Longitud": null,
    "Fuente": "web"
  },
  {
    "Id": 558,
    "Departamento": "La Paz",
    "Tipo": "ServiciosFinancieros",
    "Nombre": "BANCO FORTALEZA",
    "Direccion": "Av. 6 de marzo Nro 41",
    "Telefono": null,
    "Latitud": null,
    "Longitud": null,
    "Fuente": "web"
  },
  {
    "Id": 559,
    "Departamento": "La Paz",
    "Tipo": "ServiciosFinancieros",
    "Nombre": "BANCO FORTALEZA",
    "Direccion": "Av. Ladislao Cabrera No.15",
    "Telefono": null,
    "Latitud": -16.5353,
    "Longitud": -68.1909,
    "Fuente": "web"
  },
  {
    "Id": 560,
    "Departamento": "La Paz",
    "Tipo": "ServiciosFinancieros",
    "Nombre": "BANCO PRODEM",
    "Direccion": "Av. 6 de marzo Nro 41",
    "Telefono": null,
    "Latitud": -16.5075,
    "Longitud": -68.1642,
    "Fuente": "web"
  },
  {
    "Id": 561,
    "Departamento": "La Paz",
    "Tipo": "ServiciosFinancieros",
    "Nombre": "BANCO UNION",
    "Direccion": "Avenida Juan Pablo II Nø 2885 casi esq. Banzer",
    "Telefono": null,
    "Latitud": null,
    "Longitud": null,
    "Fuente": "web"
  },
  {
    "Id": 562,
    "Departamento": "La Paz",
    "Tipo": "ServiciosFinancieros",
    "Nombre": "BANCO UNION",
    "Direccion": "Calle Ladislao Cabrera N§ 1017, cruce Villa Adela",
    "Telefono": null,
    "Latitud": -16.5351,
    "Longitud": -68.1908,
    "Fuente": "web"
  },
  {
    "Id": 563,
    "Departamento": "La Paz",
    "Tipo": "ServiciosFinancieros",
    "Nombre": "BANCO UNION",
    "Direccion": "Calle 1 Nø 1 entre Calle Franco Valle y Avenida J",
    "Telefono": null,
    "Latitud": null,
    "Longitud": null,
    "Fuente": "web"
  },
  {
    "Id": 564,
    "Departamento": "La Paz",
    "Tipo": "ServiciosFinancieros",
    "Nombre": "COOP. LA SAGRADA FAMILIA",
    "Direccion": "AV. ALFONSO UGARTE No. 1230",
    "Telefono": null,
    "Latitud": -16.4899,
    "Longitud": -68.1723,
    "Fuente": "web"
  },
  {
    "Id": 565,
    "Departamento": "La Paz",
    "Tipo": "ServiciosFinancieros",
    "Nombre": "CRECER IFD",
    "Direccion": "Plan 405 Calle 17 Nro 984",
    "Telefono": null,
    "Latitud": null,
    "Longitud": null,
    "Fuente": "web"
  },
  {
    "Id": 566,
    "Departamento": "La Paz",
    "Tipo": "ServiciosFinancieros",
    "Nombre": "DIACONIA",
    "Direccion": "Av. Juan Pablo II Nro. 125 esq. Jorge Eulert",
    "Telefono": null,
    "Latitud": -16.5002,
    "Longitud": -68.1736,
    "Fuente": "web"
  },
  {
    "Id": 567,
    "Departamento": "La Paz",
    "Tipo": "ServiciosFinancieros",
    "Nombre": "DIACONIA",
    "Direccion": "Av. Franco Valle Nro. 900",
    "Telefono": null,
    "Latitud": -16.5002,
    "Longitud": -68.1736,
    "Fuente": "web"
  },
  {
    "Id": 568,
    "Departamento": "La Paz",
    "Tipo": "ServiciosFinancieros",
    "Nombre": "DIACONIA",
    "Direccion": "Av. Juan Pablo II Nro 60,Zona Rio Seco(Ex-Tranca)",
    "Telefono": null,
    "Latitud": null,
    "Longitud": null,
    "Fuente": "web"
  },
  {
    "Id": 569,
    "Departamento": "La Paz",
    "Tipo": "ServiciosFinancieros",
    "Nombre": "DIACONIA",
    "Direccion": "Carretera Viacha Nro 11",
    "Telefono": null,
    "Latitud": null,
    "Longitud": null,
    "Fuente": "web"
  },
  {
    "Id": 570,
    "Departamento": "La Paz",
    "Tipo": "ServiciosFinancieros",
    "Nombre": "FUBODE",
    "Direccion": "Z. Tejada Rectangular entre Av. C¡vica,C.9, N.50",
    "Telefono": null,
    "Latitud": null,
    "Longitud": null,
    "Fuente": "web"
  },
  {
    "Id": 571,
    "Departamento": "La Paz",
    "Tipo": "ServiciosFinancieros",
    "Nombre": "HOSPICIO",
    "Direccion": "Av. Alfonso Ugarte",
    "Telefono": null,
    "Latitud": null,
    "Longitud": null,
    "Fuente": "web"
  },
  {
    "Id": 572,
    "Departamento": "La Paz",
    "Tipo": "ServiciosFinancieros",
    "Nombre": "IDEPRO",
    "Direccion": "AV. 6 DE MARZO. ESQ. CALLE 3 N§. 100. 1er PISO.",
    "Telefono": null,
    "Latitud": null,
    "Longitud": null,
    "Fuente": "web"
  },
  {
    "Id": 573,
    "Departamento": "La Paz",
    "Tipo": "ServiciosFinancieros",
    "Nombre": "LA PRIMERA EFV",
    "Direccion": "Av. Raul Salmon No.24, Zona 12 de Octubre",
    "Telefono": null,
    "Latitud": null,
    "Longitud": null,
    "Fuente": "web"
  },
  {
    "Id": 574,
    "Departamento": "La Paz",
    "Tipo": "ServiciosFinancieros",
    "Nombre": "PRO-MUJER",
    "Direccion": "Av. Santiago de Machaca No. 1005, esq. Av. Muro P",
    "Telefono": null,
    "Latitud": null,
    "Longitud": null,
    "Fuente": "web"
  },
  {
    "Id": 575,
    "Departamento": "La Paz",
    "Tipo": "ServiciosFinancieros",
    "Nombre": "SEMBRAR SARTAWI",
    "Direccion": "AV. JUAN PABLO II CALLE 1 Nº 8 FRENTE A IDENTIFIC",
    "Telefono": null,
    "Latitud": null,
    "Longitud": null,
    "Fuente": "web"
  },
  {
    "Id": 576,
    "Departamento": "La Paz",
    "Tipo": "ServiciosFinancieros",
    "Nombre": "SEMBRAR SARTAWI",
    "Direccion": "CAMINO A VIACHA ESQ AV BOLIVIA N°13",
    "Telefono": null,
    "Latitud": null,
    "Longitud": null,
    "Fuente": "web"
  },
  {
    "Id": 577,
    "Departamento": "La Paz",
    "Tipo": "ServiciosFinancieros",
    "Nombre": "SEMBRAR SARTAWI",
    "Direccion": "AV.FRANCO VALLE NRO 11 ENTRE C 5 Y 6, ZOna 12 DE",
    "Telefono": null,
    "Latitud": null,
    "Longitud": null,
    "Fuente": "web"
  },
  {
    "Id": 578,
    "Departamento": "La Paz",
    "Tipo": "ServiciosFinancieros",
    "Nombre": "SEMBRAR SARTAWI",
    "Direccion": "Av. 6 de Agosto N. 2125",
    "Telefono": null,
    "Latitud": null,
    "Longitud": null,
    "Fuente": "web"
  },
  {
    "Id": 579,
    "Departamento": "La Paz",
    "Tipo": "ServiciosFinancieros",
    "Nombre": "BANCO PRODEM",
    "Direccion": "Plaza Victorio Lanza s Zona Central",
    "Telefono": null,
    "Latitud": null,
    "Longitud": null,
    "Fuente": "web"
  },
  {
    "Id": 580,
    "Departamento": "La Paz",
    "Tipo": "ServiciosFinancieros",
    "Nombre": "BANCO PRODEM",
    "Direccion": "Avenida Rene Barrientos S.N.",
    "Telefono": null,
    "Latitud": -16.1251,
    "Longitud": -67.1945,
    "Fuente": "web"
  },
  {
    "Id": 581,
    "Departamento": "La Paz",
    "Tipo": "ServiciosFinancieros",
    "Nombre": "SEMBRAR SARTAWI",
    "Direccion": "AV.RENE BARRIENTOS ORTUÑO entre 1 de Enero y Oswa",
    "Telefono": null,
    "Latitud": -16.1276,
    "Longitud": -67.1942,
    "Fuente": "web"
  },
  {
    "Id": 582,
    "Departamento": "La Paz",
    "Tipo": "ServiciosFinancieros",
    "Nombre": "BANCO ECOFUTURO",
    "Direccion": "AVENIDA CAMACHO Nø 1377-1389 ESQ.CALLE LOAYZA, ZO",
    "Telefono": null,
    "Latitud": null,
    "Longitud": null,
    "Fuente": "web"
  },
  {
    "Id": 583,
    "Departamento": "La Paz",
    "Tipo": "ServiciosFinancieros",
    "Nombre": "BANCO FASSIL",
    "Direccion": "AV 16 DE JULIO N 1642 ESQ LADISLAO CABRERA",
    "Telefono": null,
    "Latitud": -16.5025,
    "Longitud": -68.1324,
    "Fuente": "web"
  },
  {
    "Id": 584,
    "Departamento": "La Paz",
    "Tipo": "ServiciosFinancieros",
    "Nombre": "BANCO FIE",
    "Direccion": "Calle Montenegro Nro. 1454 Bloque B3 Zona San Mig",
    "Telefono": null,
    "Latitud": -16.5408,
    "Longitud": -68.0793,
    "Fuente": "web"
  },
  {
    "Id": 585,
    "Departamento": "La Paz",
    "Tipo": "ServiciosFinancieros",
    "Nombre": "BANCO FIE",
    "Direccion": "C. General Gonzales No.1272",
    "Telefono": null,
    "Latitud": -16.5017,
    "Longitud": -68.1368,
    "Fuente": "web"
  },
  {
    "Id": 586,
    "Departamento": "La Paz",
    "Tipo": "ServiciosFinancieros",
    "Nombre": "BANCO FORTALEZA",
    "Direccion": "Calle 21 Calacoto esq Av. Costanera sn",
    "Telefono": null,
    "Latitud": -16.5465,
    "Longitud": -68.0765,
    "Fuente": "web"
  },
  {
    "Id": 587,
    "Departamento": "La Paz",
    "Tipo": "ServiciosFinancieros",
    "Nombre": "BANCO FORTALEZA",
    "Direccion": "Av. Las Americas No.353",
    "Telefono": null,
    "Latitud": -16.4773,
    "Longitud": -68.1196,
    "Fuente": "web"
  },
  {
    "Id": 588,
    "Departamento": "La Paz",
    "Tipo": "ServiciosFinancieros",
    "Nombre": "BANCO FORTALEZA",
    "Direccion": "Av. Arce n§ 2799 esq. Cordero",
    "Telefono": null,
    "Latitud": -16.5129,
    "Longitud": -68.1207,
    "Fuente": "web"
  },
  {
    "Id": 589,
    "Departamento": "La Paz",
    "Tipo": "ServiciosFinancieros",
    "Nombre": "BANCO FORTALEZA",
    "Direccion": "Av.16 de Julio No.1440 (Plaza Venezuela)",
    "Telefono": null,
    "Latitud": -16.5012,
    "Longitud": -68.1332,
    "Fuente": "web"
  },
  {
    "Id": 590,
    "Departamento": "La Paz",
    "Tipo": "ServiciosFinancieros",
    "Nombre": "BANCO PRODEM",
    "Direccion": "Av. Camacho No.xxx, esq. Colon",
    "Telefono": null,
    "Latitud": null,
    "Longitud": null,
    "Fuente": "web"
  },
  {
    "Id": 591,
    "Departamento": "La Paz",
    "Tipo": "ServiciosFinancieros",
    "Nombre": "BANCO PRODEM",
    "Direccion": "Av. Montes N. 515",
    "Telefono": null,
    "Latitud": -16.4988,
    "Longitud": -68.1342,
    "Fuente": "web"
  },
  {
    "Id": 592,
    "Departamento": "La Paz",
    "Tipo": "ServiciosFinancieros",
    "Nombre": "BANCO UNION",
    "Direccion": "Avenida 16 de Julio Nro 1544, El Prado",
    "Telefono": null,
    "Latitud": -16.5015,
    "Longitud": -68.1331,
    "Fuente": "web"
  },
  {
    "Id": 593,
    "Departamento": "La Paz",
    "Tipo": "ServiciosFinancieros",
    "Nombre": "BANCO UNION",
    "Direccion": "Av. Camacho Nø 1416 esq. calle Loayza",
    "Telefono": null,
    "Latitud": -16.4995,
    "Longitud": -68.1332,
    "Fuente": "web"
  },
  {
    "Id": 594,
    "Departamento": "La Paz",
    "Tipo": "ServiciosFinancieros",
    "Nombre": "BANCO UNION",
    "Direccion": "C.JOSE AGUIRRE ACHA,NRO.8484,C.21,ESQUIna JOS MA",
    "Telefono": null,
    "Latitud": -16.5451,
    "Longitud": -68.0769,
    "Fuente": "web"
  },
  {
    "Id": 595,
    "Departamento": "La Paz",
    "Tipo": "ServiciosFinancieros",
    "Nombre": "COOP. LA SAGRADA FAMILIA",
    "Direccion": "C. Sagarnaga No. 547 EDIF. MARIA.ENTRE CALLE MAX",
    "Telefono": null,
    "Latitud": -16.498,
    "Longitud": -68.1391,
    "Fuente": "web"
  },
  {
    "Id": 596,
    "Departamento": "La Paz",
    "Tipo": "ServiciosFinancieros",
    "Nombre": "COOP. SAN MARTIN DE PORRES",
    "Direccion": "AV.SAAVEDRA N.1975,ED.MIRAFLORES ENTRE VILLALOBOS",
    "Telefono": null,
    "Latitud": -16.5023,
    "Longitud": -68.122,
    "Fuente": "web"
  },
  {
    "Id": 597,
    "Departamento": "La Paz",
    "Tipo": "ServiciosFinancieros",
    "Nombre": "CRECER IFD",
    "Direccion": "CALLE DEMETRIO CANELAS N.27 ENTRE C 16 Y 17 DE ZO",
    "Telefono": null,
    "Latitud": -16.5286,
    "Longitud": -68.1012,
    "Fuente": "web"
  },
  {
    "Id": 598,
    "Departamento": "La Paz",
    "Tipo": "ServiciosFinancieros",
    "Nombre": "DIACONIA",
    "Direccion": "Av. Tumusla Entre plaza Eguino e Isaac Tamayo Nro",
    "Telefono": null,
    "Latitud": -16.4944,
    "Longitud": -68.1412,
    "Fuente": "web"
  },
  {
    "Id": 599,
    "Departamento": "La Paz",
    "Tipo": "ServiciosFinancieros",
    "Nombre": "LA PRIMERA EFV",
    "Direccion": "Av. Mcal. Santa Cruz No.1364",
    "Telefono": null,
    "Latitud": -16.5002,
    "Longitud": -68.1343,
    "Fuente": "web"
  },
  {
    "Id": 600,
    "Departamento": "La Paz",
    "Tipo": "ServiciosFinancieros",
    "Nombre": "PRO-MUJER",
    "Direccion": "AV. 31 DE OCTUBRE 1530",
    "Telefono": null,
    "Latitud": -16.4966,
    "Longitud": -68.1165,
    "Fuente": "web"
  },
  {
    "Id": 601,
    "Departamento": "La Paz",
    "Tipo": "ServiciosFinancieros",
    "Nombre": "SEMBRAR SARTAWI",
    "Direccion": "AV. BUENOS AIRES 1548 TEMBLADERANI",
    "Telefono": null,
    "Latitud": -16.5093,
    "Longitud": -68.1435,
    "Fuente": "web"
  },
  {
    "Id": 602,
    "Departamento": "La Paz",
    "Tipo": "ServiciosFinancieros",
    "Nombre": "SEMBRAR SARTAWI",
    "Direccion": "AV DEFENSORES DEL CHACO ESQ CALLE 50 N°59",
    "Telefono": null,
    "Latitud": -16.5376,
    "Longitud": -68.0487,
    "Fuente": "web"
  },
  {
    "Id": 603,
    "Departamento": "La Paz",
    "Tipo": "ServiciosFinancieros",
    "Nombre": "SEMBRAR SARTAWI",
    "Direccion": "CALLE PEDRO SALAZAR Nº 509",
    "Telefono": null,
    "Latitud": -16.5116,
    "Longitud": -68.127,
    "Fuente": "web"
  },
  {
    "Id": 604,
    "Departamento": "La Paz",
    "Tipo": "ServiciosFinancieros",
    "Nombre": "SEMBRAR SARTAWI",
    "Direccion": "AV. TITO YUPANQUI ESQ. RAFAEL BALLIVIAN N°1286",
    "Telefono": null,
    "Latitud": -16.4936,
    "Longitud": -68.1173,
    "Fuente": "web"
  },
  {
    "Id": 605,
    "Departamento": "La Paz",
    "Tipo": "ServiciosFinancieros",
    "Nombre": "SEMBRAR SARTAWI",
    "Direccion": "CALLE BOQUERON #1500,ENTRE NICOLAS ACOSTA Y OTERO",
    "Telefono": null,
    "Latitud": -16.5047,
    "Longitud": -68.1371,
    "Fuente": "web"
  },
  {
    "Id": 606,
    "Departamento": "La Paz",
    "Tipo": "ServiciosFinancieros",
    "Nombre": "SOLUCREDIT SAN SILVESTRE LTDA",
    "Direccion": "AV MANCO KAPAC Nro 310 PLAZA EGUINO",
    "Telefono": null,
    "Latitud": -16.4939,
    "Longitud": -68.1416,
    "Fuente": "web"
  },
  {
    "Id": 607,
    "Departamento": "La Paz",
    "Tipo": "ServiciosFinancieros",
    "Nombre": "BANCO FIE",
    "Direccion": "Av. Panamericana Nro 74 esq. C. Santa Cruz",
    "Telefono": null,
    "Latitud": null,
    "Longitud": null,
    "Fuente": "web"
  },
  {
    "Id": 608,
    "Departamento": "La Paz",
    "Tipo": "ServiciosFinancieros",
    "Nombre": "CIDRE IFD",
    "Direccion": "Calle pasaje florida,S entre Av. Panamericana y V",
    "Telefono": null,
    "Latitud": null,
    "Longitud": null,
    "Fuente": "web"
  },
  {
    "Id": 609,
    "Departamento": "La Paz",
    "Tipo": "ServiciosFinancieros",
    "Nombre": "SEMBRAR SARTAWI",
    "Direccion": "AV. PAnaMERICAna ESQ. PANDO",
    "Telefono": null,
    "Latitud": null,
    "Longitud": null,
    "Fuente": "web"
  },
  {
    "Id": 610,
    "Departamento": "La Paz",
    "Tipo": "ServiciosFinancieros",
    "Nombre": "BANCO FIE",
    "Direccion": "Av. Pando casi Esq. Ingavi No. 47",
    "Telefono": null,
    "Latitud": null,
    "Longitud": null,
    "Fuente": "web"
  },
  {
    "Id": 611,
    "Departamento": "Oruro",
    "Tipo": "ServiciosFinancieros",
    "Nombre": "BANCO FIE",
    "Direccion": "La Bandera esquina Ejercito",
    "Telefono": null,
    "Latitud": null,
    "Longitud": null,
    "Fuente": "web"
  },
  {
    "Id": 612,
    "Departamento": "Oruro",
    "Tipo": "ServiciosFinancieros",
    "Nombre": "BANCO UNION",
    "Direccion": "C. BANDERAS ENTRE C.MURILLO DORADO Y EJERCITO",
    "Telefono": null,
    "Latitud": -18.9011,
    "Longitud": -66.7745,
    "Fuente": "web"
  },
  {
    "Id": 613,
    "Departamento": "Oruro",
    "Tipo": "ServiciosFinancieros",
    "Nombre": "CIDRE IFD",
    "Direccion": "CALLE EJERCITO S/N, ENTRE VILLARROEL Y ORURO",
    "Telefono": null,
    "Latitud": null,
    "Longitud": null,
    "Fuente": "web"
  },
  {
    "Id": 614,
    "Departamento": "Oruro",
    "Tipo": "ServiciosFinancieros",
    "Nombre": "COOP. PAULO VI LTDA.",
    "Direccion": "Calle La Bandera Ejercito Murillo",
    "Telefono": null,
    "Latitud": null,
    "Longitud": null,
    "Fuente": "web"
  },
  {
    "Id": 615,
    "Departamento": "Oruro",
    "Tipo": "ServiciosFinancieros",
    "Nombre": "FUBODE",
    "Direccion": "C. LA BANDERA S, E. EJERCITO Y MURILLO DORADO (AC",
    "Telefono": null,
    "Latitud": null,
    "Longitud": null,
    "Fuente": "web"
  },
  {
    "Id": 616,
    "Departamento": "Oruro",
    "Tipo": "ServiciosFinancieros",
    "Nombre": "IDEPRO",
    "Direccion": "Av. Ladislao Cabrera S entre Beni y La Paz",
    "Telefono": null,
    "Latitud": null,
    "Longitud": null,
    "Fuente": "web"
  },
  {
    "Id": 617,
    "Departamento": "Oruro",
    "Tipo": "ServiciosFinancieros",
    "Nombre": "SEMBRAR SARTAWI",
    "Direccion": "C/LA PAZ S/N ENTRE LADISLAO CABRERA Y SUCRE",
    "Telefono": null,
    "Latitud": null,
    "Longitud": null,
    "Fuente": "web"
  },
  {
    "Id": 618,
    "Departamento": "Oruro",
    "Tipo": "ServiciosFinancieros",
    "Nombre": "C.A.C. ASUNCION",
    "Direccion": "Ag. 16 de Julio sn.",
    "Telefono": null,
    "Latitud": -18.2853,
    "Longitud": -66.8414,
    "Fuente": "web"
  },
  {
    "Id": 619,
    "Departamento": "Oruro",
    "Tipo": "ServiciosFinancieros",
    "Nombre": "BANCO ECOFUTURO",
    "Direccion": "C. Soria Galvarro n§ 1625 esq. Bolivar",
    "Telefono": null,
    "Latitud": -17.9708,
    "Longitud": -67.1136,
    "Fuente": "web"
  },
  {
    "Id": 620,
    "Departamento": "Oruro",
    "Tipo": "ServiciosFinancieros",
    "Nombre": "BANCO FASSIL",
    "Direccion": "Calle Adolfo Mier nro. 735",
    "Telefono": null,
    "Latitud": -17.9692,
    "Longitud": -67.1144,
    "Fuente": "web"
  },
  {
    "Id": 621,
    "Departamento": "Oruro",
    "Tipo": "ServiciosFinancieros",
    "Nombre": "BANCO FIE",
    "Direccion": "C. La Plata No. 6144, entre Bolivar y Sucre",
    "Telefono": null,
    "Latitud": -17.9702,
    "Longitud": -67.1145,
    "Fuente": "web"
  },
  {
    "Id": 622,
    "Departamento": "Oruro",
    "Tipo": "ServiciosFinancieros",
    "Nombre": "BANCO FORTALEZA",
    "Direccion": "Calle La Plata No. 5959 entre calles Adolfo Mier",
    "Telefono": null,
    "Latitud": -17.9691,
    "Longitud": -67.1139,
    "Fuente": "web"
  },
  {
    "Id": 623,
    "Departamento": "Oruro",
    "Tipo": "ServiciosFinancieros",
    "Nombre": "BANCO PRODEM",
    "Direccion": "Calle La Plata 6175 entre Sucre y Bolivar",
    "Telefono": null,
    "Latitud": -17.9706,
    "Longitud": -67.1147,
    "Fuente": "web"
  },
  {
    "Id": 624,
    "Departamento": "Oruro",
    "Tipo": "ServiciosFinancieros",
    "Nombre": "BANCO UNION",
    "Direccion": "C. CAMPO JORDAN ENTRE EDMUNDO VASQUEZ Y AV. GRAN",
    "Telefono": null,
    "Latitud": -17.9548,
    "Longitud": -67.1001,
    "Fuente": "web"
  },
  {
    "Id": 625,
    "Departamento": "Oruro",
    "Tipo": "ServiciosFinancieros",
    "Nombre": "BANCO UNION",
    "Direccion": "Calle Soria Galvarro esquina Adolfo Mier Nø 612",
    "Telefono": null,
    "Latitud": -17.9695,
    "Longitud": -67.1133,
    "Fuente": "web"
  },
  {
    "Id": 626,
    "Departamento": "Oruro",
    "Tipo": "ServiciosFinancieros",
    "Nombre": "BANCO UNION",
    "Direccion": "Pagador 298 esq. Montesinos",
    "Telefono": null,
    "Latitud": -17.9661,
    "Longitud": -67.1092,
    "Fuente": "web"
  },
  {
    "Id": 627,
    "Departamento": "Oruro",
    "Tipo": "ServiciosFinancieros",
    "Nombre": "C.A.C. ASUNCION",
    "Direccion": "C. Pagador 5475, entre Montesinos y Herrera",
    "Telefono": null,
    "Latitud": -17.9659,
    "Longitud": -67.1091,
    "Fuente": "web"
  },
  {
    "Id": 628,
    "Departamento": "Oruro",
    "Tipo": "ServiciosFinancieros",
    "Nombre": "CACEF LTDA",
    "Direccion": "6 de Octubre esquina 1 de Noviembre",
    "Telefono": null,
    "Latitud": null,
    "Longitud": null,
    "Fuente": "web"
  },
  {
    "Id": 629,
    "Departamento": "Oruro",
    "Tipo": "ServiciosFinancieros",
    "Nombre": "COOP. LA SAGRADA FAMILIA",
    "Direccion": "C.Aldana N§ 240 Entre Velasco Galvarro y Pagador",
    "Telefono": null,
    "Latitud": -17.9738,
    "Longitud": -67.1108,
    "Fuente": "web"
  },
  {
    "Id": 630,
    "Departamento": "Oruro",
    "Tipo": "ServiciosFinancieros",
    "Nombre": "COOP. PAULO VI LTDA.",
    "Direccion": "6 de Octubre 4285, entre Charcas y campo Jordan",
    "Telefono": null,
    "Latitud": -17.9531,
    "Longitud": -67.1086,
    "Fuente": "web"
  },
  {
    "Id": 631,
    "Departamento": "Oruro",
    "Tipo": "ServiciosFinancieros",
    "Nombre": "EL PROGRESO EFV.",
    "Direccion": "C. La Plata esq. Sucre No. 6177",
    "Telefono": null,
    "Latitud": -17.9711,
    "Longitud": -67.1147,
    "Fuente": "web"
  },
  {
    "Id": 632,
    "Departamento": "Oruro",
    "Tipo": "ServiciosFinancieros",
    "Nombre": "FUBODE",
    "Direccion": "CALLE 6 DE OCTUBRE 5191 ENTRE LEON Y RODRIGUEZ",
    "Telefono": null,
    "Latitud": -17.9631,
    "Longitud": -67.1102,
    "Fuente": "web"
  },
  {
    "Id": 633,
    "Departamento": "Oruro",
    "Tipo": "ServiciosFinancieros",
    "Nombre": "IDEPRO",
    "Direccion": "C/PAGADOR N§ 6338. ENTRE MURGUIA Y ALDAna",
    "Telefono": null,
    "Latitud": -17.9771,
    "Longitud": -67.1121,
    "Fuente": "web"
  },
  {
    "Id": 634,
    "Departamento": "Oruro",
    "Tipo": "ServiciosFinancieros",
    "Nombre": "SEMBRAR SARTAWI",
    "Direccion": "C/Washintong#1480 entre calle Adolfo Mier y Junin",
    "Telefono": null,
    "Latitud": -11.0209,
    "Longitud": -68.7571,
    "Fuente": "web"
  },
  {
    "Id": 635,
    "Departamento": "Pando",
    "Tipo": "ServiciosFinancieros",
    "Nombre": "BANCO ECOFUTURO",
    "Direccion": null,
    "Telefono": null,
    "Latitud": -11.0209,
    "Longitud": -68.7571,
    "Fuente": "web"
  },
  {
    "Id": 636,
    "Departamento": "Pando",
    "Tipo": "ServiciosFinancieros",
    "Nombre": "BANCO PRODEM",
    "Direccion": "Av. 9 de Febrero esq. Av. Internacional",
    "Telefono": null,
    "Latitud": -11.0271,
    "Longitud": -68.7604,
    "Fuente": "web"
  },
  {
    "Id": 637,
    "Departamento": "Pando",
    "Tipo": "ServiciosFinancieros",
    "Nombre": "BANCO UNION",
    "Direccion": null,
    "Telefono": null,
    "Latitud": -11.0354,
    "Longitud": -68.7674,
    "Fuente": "web"
  },
  {
    "Id": 638,
    "Departamento": "Pando",
    "Tipo": "ServiciosFinancieros",
    "Nombre": "CRECER IFD",
    "Direccion": "AV. 9 DE FEBRERO No.219",
    "Telefono": null,
    "Latitud": null,
    "Longitud": null,
    "Fuente": "web"
  },
  {
    "Id": 639,
    "Departamento": "Pando",
    "Tipo": "ServiciosFinancieros",
    "Nombre": "IDEPRO",
    "Direccion": "AV. 9 DE FEBRERO S/N",
    "Telefono": null,
    "Latitud": -11.0206,
    "Longitud": -68.7571,
    "Fuente": "web"
  },
  {
    "Id": 640,
    "Departamento": "Pando",
    "Tipo": "ServiciosFinancieros",
    "Nombre": "PRO-MUJER",
    "Direccion": "Av. 27 de Mayo S Frente a Ex Rombol",
    "Telefono": null,
    "Latitud": -11.022,
    "Longitud": -68.7674,
    "Fuente": "web"
  },
  {
    "Id": 641,
    "Departamento": "Pando",
    "Tipo": "ServiciosFinancieros",
    "Nombre": "BANCO UNION",
    "Direccion": "AV. naPOLEON ANTELO HULLMAN ESQ. 1 DE SEPTIEMBRE",
    "Telefono": null,
    "Latitud": -11.4844,
    "Longitud": -67.2468,
    "Fuente": "web"
  },
  {
    "Id": 642,
    "Departamento": "Pando",
    "Tipo": "ServiciosFinancieros",
    "Nombre": "IDEPRO",
    "Direccion": "AV. COLUMna PORVENIR S/N. MUNICIPIO PORVENIR",
    "Telefono": null,
    "Latitud": -11.2344,
    "Longitud": -68.6881,
    "Fuente": "web"
  },
  {
    "Id": 643,
    "Departamento": "Pando",
    "Tipo": "ServiciosFinancieros",
    "Nombre": "BANCO UNION",
    "Direccion": "ALBERTO SAENZ KLINSKI S",
    "Telefono": null,
    "Latitud": null,
    "Longitud": null,
    "Fuente": "web"
  },
  {
    "Id": 644,
    "Departamento": "Potosí",
    "Tipo": "ServiciosFinancieros",
    "Nombre": "BANCO UNION",
    "Direccion": "Plaza Franz Tamayo - Plaza Central",
    "Telefono": null,
    "Latitud": -20.9361,
    "Longitud": -66.2202,
    "Fuente": "web"
  },
  {
    "Id": 645,
    "Departamento": "Potosí",
    "Tipo": "ServiciosFinancieros",
    "Nombre": "C.A.C. EL CHOROLQUE LTDA.",
    "Direccion": "PLAZA FRANZ TAMAYO S.N.",
    "Telefono": null,
    "Latitud": null,
    "Longitud": null,
    "Fuente": "web"
  },
  {
    "Id": 646,
    "Departamento": "Potosí",
    "Tipo": "ServiciosFinancieros",
    "Nombre": "BANCO PRODEM",
    "Direccion": "C. Bolivar No.6, esq. Linares",
    "Telefono": null,
    "Latitud": -19.5526,
    "Longitud": -65.4532,
    "Fuente": "web"
  },
  {
    "Id": 647,
    "Departamento": "Potosí",
    "Tipo": "ServiciosFinancieros",
    "Nombre": "BANCO UNION",
    "Direccion": "av. Hermanos Pereira casi esquina 6 de agosto",
    "Telefono": null,
    "Latitud": null,
    "Longitud": null,
    "Fuente": "web"
  },
  {
    "Id": 648,
    "Departamento": "Potosí",
    "Tipo": "ServiciosFinancieros",
    "Nombre": "SEMBRAR SARTAWI",
    "Direccion": "C. Potosi esq. Modesto Omiste",
    "Telefono": null,
    "Latitud": null,
    "Longitud": null,
    "Fuente": "web"
  },
  {
    "Id": 649,
    "Departamento": "Potosí",
    "Tipo": "ServiciosFinancieros",
    "Nombre": "C.A.C. EL CHOROLQUE LTDA.",
    "Direccion": "AV.PAnaMERICA S/N",
    "Telefono": null,
    "Latitud": -20.8167,
    "Longitud": -65.6605,
    "Fuente": "web"
  },
  {
    "Id": 650,
    "Departamento": "Potosí",
    "Tipo": "ServiciosFinancieros",
    "Nombre": "BANCO FIE",
    "Direccion": "Calle Campero esq. Baptista No 33",
    "Telefono": null,
    "Latitud": null,
    "Longitud": null,
    "Fuente": "web"
  },
  {
    "Id": 651,
    "Departamento": "Potosí",
    "Tipo": "ServiciosFinancieros",
    "Nombre": "BANCO UNION",
    "Direccion": "AV. 10 DE NOVIEMBRE No.13",
    "Telefono": null,
    "Latitud": -18.4233,
    "Longitud": -66.5868,
    "Fuente": "web"
  },
  {
    "Id": 652,
    "Departamento": "Potosí",
    "Tipo": "ServiciosFinancieros",
    "Nombre": "C.A.C. ASUNCION",
    "Direccion": "PLAZA 6 DE AGOSTO No. 31",
    "Telefono": null,
    "Latitud": -18.4232,
    "Longitud": -66.5851,
    "Fuente": "web"
  },
  {
    "Id": 653,
    "Departamento": "Potosí",
    "Tipo": "ServiciosFinancieros",
    "Nombre": "FUBODE",
    "Direccion": "CALLE BALLIVIAN ENTRE LInaRES Y TUPIZA",
    "Telefono": null,
    "Latitud": -18.4225,
    "Longitud": -66.5855,
    "Fuente": "web"
  },
  {
    "Id": 654,
    "Departamento": "Potosí",
    "Tipo": "ServiciosFinancieros",
    "Nombre": "BANCO ECOFUTURO",
    "Direccion": null,
    "Telefono": null,
    "Latitud": -19.5877,
    "Longitud": -65.7547,
    "Fuente": "web"
  },
  {
    "Id": 655,
    "Departamento": "Potosí",
    "Tipo": "ServiciosFinancieros",
    "Nombre": "BANCO FASSIL",
    "Direccion": "Calle Matos N§ 71 esquina Boulevar",
    "Telefono": null,
    "Latitud": -19.5881,
    "Longitud": -65.7526,
    "Fuente": "web"
  },
  {
    "Id": 656,
    "Departamento": "Potosí",
    "Tipo": "ServiciosFinancieros",
    "Nombre": "BANCO PRODEM",
    "Direccion": "C. Bolivar esq. Junin No.852",
    "Telefono": null,
    "Latitud": -19.5877,
    "Longitud": -65.7532,
    "Fuente": "web"
  },
  {
    "Id": 657,
    "Departamento": "Potosí",
    "Tipo": "ServiciosFinancieros",
    "Nombre": "BANCO UNION",
    "Direccion": "CALLE BOLIVAR ESQ. JUNIN S/N",
    "Telefono": null,
    "Latitud": -19.5875,
    "Longitud": -65.7532,
    "Fuente": "web"
  },
  {
    "Id": 658,
    "Departamento": "Potosí",
    "Tipo": "ServiciosFinancieros",
    "Nombre": "BANCO UNION",
    "Direccion": "Av. Litoral",
    "Telefono": null,
    "Latitud": -19.5798,
    "Longitud": -65.7556,
    "Fuente": "web"
  },
  {
    "Id": 659,
    "Departamento": "Potosí",
    "Tipo": "ServiciosFinancieros",
    "Nombre": "CRECER IFD",
    "Direccion": "Av. Litoral Nro 648 esq. Arce",
    "Telefono": null,
    "Latitud": -19.5798,
    "Longitud": -65.7556,
    "Fuente": "web"
  },
  {
    "Id": 660,
    "Departamento": "Potosí",
    "Tipo": "ServiciosFinancieros",
    "Nombre": "DIACONIA",
    "Direccion": "Calle Smith Nro.296, cerca mercado Uyuni",
    "Telefono": null,
    "Latitud": -19.5776,
    "Longitud": -65.7526,
    "Fuente": "web"
  },
  {
    "Id": 661,
    "Departamento": "Potosí",
    "Tipo": "ServiciosFinancieros",
    "Nombre": "DIACONIA",
    "Direccion": "Calle América Nº 108",
    "Telefono": null,
    "Latitud": -19.5852,
    "Longitud": -65.7595,
    "Fuente": "web"
  },
  {
    "Id": 662,
    "Departamento": "Potosí",
    "Tipo": "ServiciosFinancieros",
    "Nombre": "FUBODE",
    "Direccion": "Av. Arce, entre 1ro de Abril y Litoral, N 524",
    "Telefono": null,
    "Latitud": -19.5803,
    "Longitud": -65.7557,
    "Fuente": "web"
  },
  {
    "Id": 663,
    "Departamento": "Potosí",
    "Tipo": "ServiciosFinancieros",
    "Nombre": "IDEPRO",
    "Direccion": "C/ BUSTILLOS N§ 1080 ENTRE C/TOMAS FRIAS Y AYACUC",
    "Telefono": null,
    "Latitud": -19.5887,
    "Longitud": -65.7547,
    "Fuente": "web"
  },
  {
    "Id": 664,
    "Departamento": "Potosí",
    "Tipo": "ServiciosFinancieros",
    "Nombre": "LA PROMOTORA",
    "Direccion": "PLAZA 6 DE AGOSTO No. 11",
    "Telefono": null,
    "Latitud": -19.5892,
    "Longitud": -65.7529,
    "Fuente": "web"
  },
  {
    "Id": 665,
    "Departamento": "Potosí",
    "Tipo": "ServiciosFinancieros",
    "Nombre": "PRO-MUJER",
    "Direccion": "Nro. 507 (entre calles Arce y Av. Santa Cruz)",
    "Telefono": null,
    "Latitud": -19.5803,
    "Longitud": -65.7557,
    "Fuente": "web"
  },
  {
    "Id": 666,
    "Departamento": "Potosí",
    "Tipo": "ServiciosFinancieros",
    "Nombre": "SEMBRAR SARTAWI",
    "Direccion": "AV. LITORAL S ENTRE AV ARCE Y CALLE VILLARROEL",
    "Telefono": null,
    "Latitud": null,
    "Longitud": null,
    "Fuente": "web"
  },
  {
    "Id": 667,
    "Departamento": "Potosí",
    "Tipo": "ServiciosFinancieros",
    "Nombre": "C.A.C. ASUNCION",
    "Direccion": "PLAZA CENTRAL SAN PEDRO DE BUEnaVISTA",
    "Telefono": null,
    "Latitud": -18.2695,
    "Longitud": -65.9814,
    "Fuente": "web"
  },
  {
    "Id": 668,
    "Departamento": "Potosí",
    "Tipo": "ServiciosFinancieros",
    "Nombre": "BANCO FIE",
    "Direccion": "Plaza Independencia, esq. Bolivar s.n.",
    "Telefono": null,
    "Latitud": -21.444,
    "Longitud": -65.7203,
    "Fuente": "web"
  },
  {
    "Id": 669,
    "Departamento": "Potosí",
    "Tipo": "ServiciosFinancieros",
    "Nombre": "BANCO UNION",
    "Direccion": "Calle Florida No 204 esquina calle",
    "Telefono": null,
    "Latitud": -21.4447,
    "Longitud": -65.7198,
    "Fuente": "web"
  },
  {
    "Id": 670,
    "Departamento": "Potosí",
    "Tipo": "ServiciosFinancieros",
    "Nombre": "C.A.C. EL CHOROLQUE LTDA.",
    "Direccion": "AV. SANTA CRUZ No.300",
    "Telefono": null,
    "Latitud": -21.4428,
    "Longitud": -65.7198,
    "Fuente": "web"
  },
  {
    "Id": 671,
    "Departamento": "Potosí",
    "Tipo": "ServiciosFinancieros",
    "Nombre": "BANCO UNION",
    "Direccion": "Av. Potosi no 33 esquina calle Sucre",
    "Telefono": null,
    "Latitud": -20.4641,
    "Longitud": -66.8254,
    "Fuente": "web"
  },
  {
    "Id": 672,
    "Departamento": "Potosí",
    "Tipo": "ServiciosFinancieros",
    "Nombre": "CAC. GAINZA",
    "Direccion": "CALLE SUCRE Nro 131 ENTRE AV.COLON Y AV.POTOSI",
    "Telefono": null,
    "Latitud": null,
    "Longitud": null,
    "Fuente": "web"
  },
  {
    "Id": 673,
    "Departamento": "Potosí",
    "Tipo": "ServiciosFinancieros",
    "Nombre": "IDEPRO",
    "Direccion": "Calle Sucre Nø 257 entre calles Colon y Cabrera",
    "Telefono": null,
    "Latitud": -20.4607,
    "Longitud": -66.8246,
    "Fuente": "web"
  },
  {
    "Id": 674,
    "Departamento": "Potosí",
    "Tipo": "ServiciosFinancieros",
    "Nombre": "BANCO UNION",
    "Direccion": "Calle Tarija Calle, Independencia",
    "Telefono": null,
    "Latitud": -22.0904,
    "Longitud": -65.595,
    "Fuente": "web"
  },
  {
    "Id": 675,
    "Departamento": "Potosí",
    "Tipo": "ServiciosFinancieros",
    "Nombre": "CAC. GAINZA",
    "Direccion": "PLAZA 6 DE AGOSTO S.N.",
    "Telefono": null,
    "Latitud": null,
    "Longitud": null,
    "Fuente": "web"
  },
  {
    "Id": 676,
    "Departamento": "Potosí",
    "Tipo": "ServiciosFinancieros",
    "Nombre": "SEMBRAR SARTAWI",
    "Direccion": "PLAZA 6 E AGOSTO #125, ENTRE C/20 DE MAYO Y C/IND",
    "Telefono": null,
    "Latitud": null,
    "Longitud": null,
    "Fuente": "web"
  },
  {
    "Id": 677,
    "Departamento": "Santa Cruz",
    "Tipo": "ServiciosFinancieros",
    "Nombre": "SEMBRAR SARTAWI",
    "Direccion": "Carretera Santa Cruz Trinidad esquina Calle San",
    "Telefono": null,
    "Latitud": null,
    "Longitud": null,
    "Fuente": "web"
  },
  {
    "Id": 678,
    "Departamento": "Santa Cruz",
    "Tipo": "ServiciosFinancieros",
    "Nombre": "BANCO UNION",
    "Direccion": "Avenida Brasil esq. Lu¡s Salazar de la Vega",
    "Telefono": null,
    "Latitud": null,
    "Longitud": null,
    "Fuente": "web"
  },
  {
    "Id": 679,
    "Departamento": "Santa Cruz",
    "Tipo": "ServiciosFinancieros",
    "Nombre": "COOP.A.C.SAN FRANCISCO SOLANO",
    "Direccion": "CORDILLERA",
    "Telefono": null,
    "Latitud": null,
    "Longitud": null,
    "Fuente": "web"
  },
  {
    "Id": 680,
    "Departamento": "Santa Cruz",
    "Tipo": "ServiciosFinancieros",
    "Nombre": "BANCO UNION",
    "Direccion": "C Ignacio W y Bolívar, z.1, manzana 31 sn de la z",
    "Telefono": null,
    "Latitud": -19.7903,
    "Longitud": -63.1966,
    "Fuente": "web"
  },
  {
    "Id": 681,
    "Departamento": "Santa Cruz",
    "Tipo": "ServiciosFinancieros",
    "Nombre": "BANCO UNION",
    "Direccion": "C. Santa Cruz esq. c.Martín Claure s, zona centra",
    "Telefono": null,
    "Latitud": -17.9151,
    "Longitud": -64.5295,
    "Fuente": "web"
  },
  {
    "Id": 682,
    "Departamento": "Santa Cruz",
    "Tipo": "ServiciosFinancieros",
    "Nombre": "COOP. COMARAPA LTDA.",
    "Direccion": "plaza 11 de Junio #127",
    "Telefono": null,
    "Latitud": -17.9138,
    "Longitud": -64.5295,
    "Fuente": "web"
  },
  {
    "Id": 683,
    "Departamento": "Santa Cruz",
    "Tipo": "ServiciosFinancieros",
    "Nombre": "COOP.LA MERCED",
    "Direccion": "CALLE SATURNINO SAUCEDO ENTRE BENI Y GERMAN BUSCH",
    "Telefono": null,
    "Latitud": -16.1324,
    "Longitud": -62.0257,
    "Fuente": "web"
  },
  {
    "Id": 684,
    "Departamento": "Santa Cruz",
    "Tipo": "ServiciosFinancieros",
    "Nombre": "COOP.LA MERCED",
    "Direccion": "Av. Santa Cruz N. 63 esq.C. Bolivar frente a la p",
    "Telefono": null,
    "Latitud": null,
    "Longitud": null,
    "Fuente": "web"
  },
  {
    "Id": 685,
    "Departamento": "Santa Cruz",
    "Tipo": "ServiciosFinancieros",
    "Nombre": "BANCO UNION",
    "Direccion": "Plaza Principal el Carmen Rivero Torrez",
    "Telefono": null,
    "Latitud": null,
    "Longitud": null,
    "Fuente": "web"
  },
  {
    "Id": 686,
    "Departamento": "Santa Cruz",
    "Tipo": "ServiciosFinancieros",
    "Nombre": "SEMBRAR SARTAWI",
    "Direccion": "MUNICIPIO EL PUENTE BARRIO SANTA ROSA",
    "Telefono": null,
    "Latitud": null,
    "Longitud": null,
    "Fuente": "web"
  },
  {
    "Id": 687,
    "Departamento": "Santa Cruz",
    "Tipo": "ServiciosFinancieros",
    "Nombre": "COOP. PROGRESO LTDA.",
    "Direccion": "Av.Republica esq. Benjamin Burela",
    "Telefono": null,
    "Latitud": -17.9909,
    "Longitud": -63.3812,
    "Fuente": "web"
  },
  {
    "Id": 688,
    "Departamento": "Santa Cruz",
    "Tipo": "ServiciosFinancieros",
    "Nombre": "SEMBRAR SARTAWI",
    "Direccion": "MUNICIPIO EL TORNO FRENTE A LA PLAZA PRINCIPAL",
    "Telefono": null,
    "Latitud": null,
    "Longitud": null,
    "Fuente": "web"
  },
  {
    "Id": 689,
    "Departamento": "Santa Cruz",
    "Tipo": "ServiciosFinancieros",
    "Nombre": "BANCO FIE",
    "Direccion": "AV.SANTA CRUZ C. ESQ. SAN JOAQUIN",
    "Telefono": null,
    "Latitud": -15.8942,
    "Longitud": -63.1887,
    "Fuente": "web"
  },
  {
    "Id": 690,
    "Departamento": "Santa Cruz",
    "Tipo": "ServiciosFinancieros",
    "Nombre": "COOP.LA MERCED",
    "Direccion": "AV.BUSH ESQ.CONRADO URAPI,1/2 CUADRA PLAZA PRINCI",
    "Telefono": null,
    "Latitud": null,
    "Longitud": null,
    "Fuente": "web"
  },
  {
    "Id": 691,
    "Departamento": "Santa Cruz",
    "Tipo": "ServiciosFinancieros",
    "Nombre": "FONDECO",
    "Direccion": "AV.SANTA CRUZ 2 17S.N. FRENTE A RESID. BOLIVIA",
    "Telefono": null,
    "Latitud": null,
    "Longitud": null,
    "Fuente": "web"
  },
  {
    "Id": 692,
    "Departamento": "Santa Cruz",
    "Tipo": "ServiciosFinancieros",
    "Nombre": "COOP. COMARAPA LTDA.",
    "Direccion": "CARRETERA ANT.A SANTA CRUZ",
    "Telefono": null,
    "Latitud": null,
    "Longitud": null,
    "Fuente": "web"
  },
  {
    "Id": 693,
    "Departamento": "Santa Cruz",
    "Tipo": "ServiciosFinancieros",
    "Nombre": "BANCO FIE",
    "Direccion": "CALLE PRADO ESQ. AVENIDA AVAROA S - BARRIO COPER",
    "Telefono": null,
    "Latitud": -18.1199,
    "Longitud": -63.9602,
    "Fuente": "web"
  },
  {
    "Id": 694,
    "Departamento": "Santa Cruz",
    "Tipo": "ServiciosFinancieros",
    "Nombre": "BANCO UNION",
    "Direccion": "C Bolívar entre Av Abaroa y H.del Chaco snbarrio",
    "Telefono": null,
    "Latitud": -18.1223,
    "Longitud": -63.9602,
    "Fuente": "web"
  },
  {
    "Id": 695,
    "Departamento": "Santa Cruz",
    "Tipo": "ServiciosFinancieros",
    "Nombre": "COOPERATIVA SAN MATEO LTDA.",
    "Direccion": "AV.AVAROA NO.18 MAIRAna PROV.FLORIDA-SANTA CRUZ",
    "Telefono": null,
    "Latitud": null,
    "Longitud": null,
    "Fuente": "web"
  },
  {
    "Id": 696,
    "Departamento": "Santa Cruz",
    "Tipo": "ServiciosFinancieros",
    "Nombre": "SEMBRAR SARTAWI",
    "Direccion": "Calle Bolivar S/N(Frente a la ex policia de Maira",
    "Telefono": null,
    "Latitud": null,
    "Longitud": null,
    "Fuente": "web"
  },
  {
    "Id": 697,
    "Departamento": "Santa Cruz",
    "Tipo": "ServiciosFinancieros",
    "Nombre": "COOP.LA MERCED",
    "Direccion": "Av. Santa Cruz media cuadra antes de la plaza pri",
    "Telefono": null,
    "Latitud": null,
    "Longitud": null,
    "Fuente": "web"
  },
  {
    "Id": 698,
    "Departamento": "Santa Cruz",
    "Tipo": "ServiciosFinancieros",
    "Nombre": "BANCO FASSIL",
    "Direccion": null,
    "Telefono": null,
    "Latitud": -17.1188,
    "Longitud": -63.2323,
    "Fuente": "web"
  },
  {
    "Id": 699,
    "Departamento": "Santa Cruz",
    "Tipo": "ServiciosFinancieros",
    "Nombre": "BANCO UNION",
    "Direccion": "Av. Santa Cruz, entre calles Bélgica y Sucre",
    "Telefono": null,
    "Latitud": -17.1183,
    "Longitud": -63.2327,
    "Fuente": "web"
  },
  {
    "Id": 700,
    "Departamento": "Santa Cruz",
    "Tipo": "ServiciosFinancieros",
    "Nombre": "BANCO FASSIL",
    "Direccion": null,
    "Telefono": null,
    "Latitud": -17.3416,
    "Longitud": -63.2553,
    "Fuente": "web"
  },
  {
    "Id": 701,
    "Departamento": "Santa Cruz",
    "Tipo": "ServiciosFinancieros",
    "Nombre": "BANCO UNION",
    "Direccion": null,
    "Telefono": null,
    "Latitud": -17.3433,
    "Longitud": -63.2478,
    "Fuente": "web"
  },
  {
    "Id": 702,
    "Departamento": "Santa Cruz",
    "Tipo": "ServiciosFinancieros",
    "Nombre": "BANCO UNION",
    "Direccion": "Avenida Sim¢n Bol¡var, esquina calle Israel Mend¡",
    "Telefono": null,
    "Latitud": -18.9661,
    "Longitud": -57.799,
    "Fuente": "web"
  },
  {
    "Id": 703,
    "Departamento": "Santa Cruz",
    "Tipo": "ServiciosFinancieros",
    "Nombre": "COOP. COMARAPA LTDA.",
    "Direccion": "PLAZA PRINCIPAL",
    "Telefono": null,
    "Latitud": null,
    "Longitud": null,
    "Fuente": "web"
  },
  {
    "Id": 704,
    "Departamento": "Santa Cruz",
    "Tipo": "ServiciosFinancieros",
    "Nombre": "COOP.LA MERCED",
    "Direccion": "C. Arce entre calles Sucre y Campero, frente a la",
    "Telefono": null,
    "Latitud": -18.1795,
    "Longitud": -63.8753,
    "Fuente": "web"
  },
  {
    "Id": 705,
    "Departamento": "Santa Cruz",
    "Tipo": "ServiciosFinancieros",
    "Nombre": "CIDRE IFD",
    "Direccion": "C. LA PAZ, FRENTE A LA PLAZA PRINCIPAL DE SAN IGN",
    "Telefono": null,
    "Latitud": null,
    "Longitud": null,
    "Fuente": "web"
  },
  {
    "Id": 706,
    "Departamento": "Santa Cruz",
    "Tipo": "ServiciosFinancieros",
    "Nombre": "PRO-MUJER",
    "Direccion": "Calle Comercio esq. calle Cochabamba, diagonal de",
    "Telefono": null,
    "Latitud": null,
    "Longitud": null,
    "Fuente": "web"
  },
  {
    "Id": 707,
    "Departamento": "Santa Cruz",
    "Tipo": "ServiciosFinancieros",
    "Nombre": "COOP. COMARAPA LTDA.",
    "Direccion": "CARRETERA ANTIGUA A CBBA.",
    "Telefono": null,
    "Latitud": null,
    "Longitud": null,
    "Fuente": "web"
  },
  {
    "Id": 708,
    "Departamento": "Santa Cruz",
    "Tipo": "ServiciosFinancieros",
    "Nombre": "COOP.LA MERCED",
    "Direccion": "Av. Padre José de Arce, Zona Mercado 24 de Septi",
    "Telefono": null,
    "Latitud": null,
    "Longitud": null,
    "Fuente": "web"
  },
  {
    "Id": 709,
    "Departamento": "Santa Cruz",
    "Tipo": "ServiciosFinancieros",
    "Nombre": "FONDECO",
    "Direccion": "AV.PADRE JOSE DE ARCE ENTRE CALLE SOROTOCO Y PIÑO",
    "Telefono": null,
    "Latitud": -16.2751,
    "Longitud": -62.5083,
    "Fuente": "web"
  },
  {
    "Id": 710,
    "Departamento": "Santa Cruz",
    "Tipo": "ServiciosFinancieros",
    "Nombre": "BANCO UNION",
    "Direccion": "San Javier",
    "Telefono": null,
    "Latitud": -16.2748,
    "Longitud": -62.5072,
    "Fuente": "web"
  },
  {
    "Id": 711,
    "Departamento": "Santa Cruz",
    "Tipo": "ServiciosFinancieros",
    "Nombre": "BANCO UNION",
    "Direccion": "Carretera Santa Cruz - Trinidad, barrio Los Cafec",
    "Telefono": null,
    "Latitud": -16.909,
    "Longitud": -62.6186,
    "Fuente": "web"
  },
  {
    "Id": 712,
    "Departamento": "Santa Cruz",
    "Tipo": "ServiciosFinancieros",
    "Nombre": "CIDRE IFD",
    "Direccion": "Av. Principal Carretera Trinidad Santa Cruz",
    "Telefono": null,
    "Latitud": null,
    "Longitud": null,
    "Fuente": "web"
  },
  {
    "Id": 713,
    "Departamento": "Santa Cruz",
    "Tipo": "ServiciosFinancieros",
    "Nombre": "FONDECO",
    "Direccion": "CARR. SCZ-TRINIDAD A 1 CUADRA DE MERC. 24 DE JUNI",
    "Telefono": null,
    "Latitud": -16.9134,
    "Longitud": -62.6186,
    "Fuente": "web"
  },
  {
    "Id": 714,
    "Departamento": "Santa Cruz",
    "Tipo": "ServiciosFinancieros",
    "Nombre": "SEMBRAR SARTAWI",
    "Direccion": "C. 6 de Agosto Mza 1, uv 7",
    "Telefono": null,
    "Latitud": -16.9088,
    "Longitud": -62.6186,
    "Fuente": "web"
  },
  {
    "Id": 715,
    "Departamento": "Santa Cruz",
    "Tipo": "ServiciosFinancieros",
    "Nombre": "FONDECO",
    "Direccion": "AV.GUARAYOS, FRENTE HOTEL MANGUARI",
    "Telefono": null,
    "Latitud": -16.613,
    "Longitud": -62.5015,
    "Fuente": "web"
  },
  {
    "Id": 716,
    "Departamento": "Santa Cruz",
    "Tipo": "ServiciosFinancieros",
    "Nombre": "BANCO ECOFUTURO",
    "Direccion": "Av. Japon",
    "Telefono": null,
    "Latitud": -17.772,
    "Longitud": -63.1682,
    "Fuente": "web"
  },
  {
    "Id": 717,
    "Departamento": "Santa Cruz",
    "Tipo": "ServiciosFinancieros",
    "Nombre": "BANCO FASSIL",
    "Direccion": "Av.Cristo Redentor Nro 4210 entre 4to y 5to anill",
    "Telefono": null,
    "Latitud": -17.7466,
    "Longitud": -63.1742,
    "Fuente": "web"
  },
  {
    "Id": 718,
    "Departamento": "Santa Cruz",
    "Tipo": "ServiciosFinancieros",
    "Nombre": "BANCO FASSIL",
    "Direccion": "av. segunda, ed.torre urub¢ business center, zona",
    "Telefono": null,
    "Latitud": -17.7518,
    "Longitud": -63.2163,
    "Fuente": "web"
  },
  {
    "Id": 719,
    "Departamento": "Santa Cruz",
    "Tipo": "ServiciosFinancieros",
    "Nombre": "BANCO FIE",
    "Direccion": "Av. Plan 3000 S UV 149, MZA 008 (frente Surtidor",
    "Telefono": null,
    "Latitud": -17.8229,
    "Longitud": -63.1447,
    "Fuente": "web"
  },
  {
    "Id": 720,
    "Departamento": "Santa Cruz",
    "Tipo": "ServiciosFinancieros",
    "Nombre": "BANCO FIE",
    "Direccion": "Av. Santos Dumont Esquina 5to Anillo, Barrio Mora",
    "Telefono": null,
    "Latitud": -17.8325,
    "Longitud": -63.1851,
    "Fuente": "web"
  },
  {
    "Id": 721,
    "Departamento": "Santa Cruz",
    "Tipo": "ServiciosFinancieros",
    "Nombre": "BANCO FORTALEZA",
    "Direccion": "Av. Mutualista esq.Calle 12 Los Ceibos",
    "Telefono": null,
    "Latitud": -17.7656,
    "Longitud": -63.1619,
    "Fuente": "web"
  },
  {
    "Id": 722,
    "Departamento": "Santa Cruz",
    "Tipo": "ServiciosFinancieros",
    "Nombre": "BANCO FORTALEZA",
    "Direccion": "Gabriel Rene Moreno, n§ 140",
    "Telefono": null,
    "Latitud": -17.7854,
    "Longitud": -63.1813,
    "Fuente": "web"
  },
  {
    "Id": 723,
    "Departamento": "Santa Cruz",
    "Tipo": "ServiciosFinancieros",
    "Nombre": "BANCO PRODEM",
    "Direccion": "Arenales Nro. 779",
    "Telefono": null,
    "Latitud": -17.7808,
    "Longitud": -63.1729,
    "Fuente": "web"
  },
  {
    "Id": 724,
    "Departamento": "Santa Cruz",
    "Tipo": "ServiciosFinancieros",
    "Nombre": "BANCO UNION",
    "Direccion": "Av. Santos Dumont esquina Tercer anillo externo N",
    "Telefono": null,
    "Latitud": -17.8145,
    "Longitud": -63.1827,
    "Fuente": "web"
  },
  {
    "Id": 725,
    "Departamento": "Santa Cruz",
    "Tipo": "ServiciosFinancieros",
    "Nombre": "BANCO UNION",
    "Direccion": "calle Seoane entre 21 de mayo y España",
    "Telefono": null,
    "Latitud": -17.78,
    "Longitud": -63.1847,
    "Fuente": "web"
  },
  {
    "Id": 726,
    "Departamento": "Santa Cruz",
    "Tipo": "ServiciosFinancieros",
    "Nombre": "BANCO UNION",
    "Direccion": "Surtidor Cristo Rey Av. Cristo Redentor, Entre 2d",
    "Telefono": null,
    "Latitud": -17.7668,
    "Longitud": -63.1821,
    "Fuente": "web"
  },
  {
    "Id": 727,
    "Departamento": "Santa Cruz",
    "Tipo": "ServiciosFinancieros",
    "Nombre": "BANCO UNION",
    "Direccion": "Av Viedma N° 649 casi calle Oruro 1er anillo, z c",
    "Telefono": null,
    "Latitud": -17.7897,
    "Longitud": -63.1717,
    "Fuente": "web"
  },
  {
    "Id": 728,
    "Departamento": "Santa Cruz",
    "Tipo": "ServiciosFinancieros",
    "Nombre": "CIDRE IFD",
    "Direccion": "C. SUCRE Nro.144, entra calle Chuquisaca y La Paz",
    "Telefono": null,
    "Latitud": null,
    "Longitud": null,
    "Fuente": "web"
  },
  {
    "Id": 729,
    "Departamento": "Santa Cruz",
    "Tipo": "ServiciosFinancieros",
    "Nombre": "CIDRE IFD",
    "Direccion": "AV. CHE GUEVARA Nro.6950 MEDIA CUADRA ROTONDA PLA",
    "Telefono": null,
    "Latitud": null,
    "Longitud": null,
    "Fuente": "web"
  },
  {
    "Id": 730,
    "Departamento": "Santa Cruz",
    "Tipo": "ServiciosFinancieros",
    "Nombre": "COOP. COMARAPA LTDA.",
    "Direccion": "Doble V¡a la Guardia esq. C Jose Otero",
    "Telefono": null,
    "Latitud": -17.8068,
    "Longitud": -63.2021,
    "Fuente": "web"
  },
  {
    "Id": 731,
    "Departamento": "Santa Cruz",
    "Tipo": "ServiciosFinancieros",
    "Nombre": "COOP. SAN MARTIN DE PORRES",
    "Direccion": "Of. Central Av.26 de Feb. Esq. Landivar",
    "Telefono": null,
    "Latitud": -17.7852,
    "Longitud": -63.1946,
    "Fuente": "web"
  },
  {
    "Id": 732,
    "Departamento": "Santa Cruz",
    "Tipo": "ServiciosFinancieros",
    "Nombre": "COOP.LA MERCED",
    "Direccion": "Av. Mutualista Nº 565 y 3er. Anillo",
    "Telefono": null,
    "Latitud": null,
    "Longitud": null,
    "Fuente": "web"
  },
  {
    "Id": 733,
    "Departamento": "Santa Cruz",
    "Tipo": "ServiciosFinancieros",
    "Nombre": "COOP.LA MERCED",
    "Direccion": "Calle Junín 363 entre España y Santa Barbara",
    "Telefono": null,
    "Latitud": -17.7831,
    "Longitud": -63.1855,
    "Fuente": "web"
  },
  {
    "Id": 734,
    "Departamento": "Santa Cruz",
    "Tipo": "ServiciosFinancieros",
    "Nombre": "COOPERATIVA GRAN GRIGOTA LTDA.",
    "Direccion": "Avenida Isabel la Católica No 449 frente La Ramad",
    "Telefono": null,
    "Latitud": null,
    "Longitud": null,
    "Fuente": "web"
  },
  {
    "Id": 735,
    "Departamento": "Santa Cruz",
    "Tipo": "ServiciosFinancieros",
    "Nombre": "COOPERATIVA GRAN GRIGOTA LTDA.",
    "Direccion": "Avenida Uruguay No 423 (media cuadra de Cumbre)",
    "Telefono": null,
    "Latitud": -17.7746,
    "Longitud": -63.1766,
    "Fuente": "web"
  },
  {
    "Id": 736,
    "Departamento": "Santa Cruz",
    "Tipo": "ServiciosFinancieros",
    "Nombre": "COOPERATIVA SAN MATEO LTDA.",
    "Direccion": "AV.DOBLE VIA LA GUARDIA NO.1050",
    "Telefono": null,
    "Latitud": -17.8042,
    "Longitud": -63.1999,
    "Fuente": "web"
  },
  {
    "Id": 737,
    "Departamento": "Santa Cruz",
    "Tipo": "ServiciosFinancieros",
    "Nombre": "FUBODE",
    "Direccion": "AV. VIRGEN DE COTOCA 550 ENTRE 6to.Y 7mo. ANILLO",
    "Telefono": null,
    "Latitud": -17.7682,
    "Longitud": -63.116,
    "Fuente": "web"
  },
  {
    "Id": 738,
    "Departamento": "Santa Cruz",
    "Tipo": "ServiciosFinancieros",
    "Nombre": "FUBODE",
    "Direccion": "AV. SANTOS DUMONT 1385",
    "Telefono": null,
    "Latitud": null,
    "Longitud": null,
    "Fuente": "web"
  },
  {
    "Id": 739,
    "Departamento": "Santa Cruz",
    "Tipo": "ServiciosFinancieros",
    "Nombre": "IDEPRO",
    "Direccion": "AV. 18 DE MARZO, ESQ. PLAN 3000",
    "Telefono": null,
    "Latitud": null,
    "Longitud": -63.1322,
    "Fuente": "web"
  },
  {
    "Id": 740,
    "Departamento": "Santa Cruz",
    "Tipo": "ServiciosFinancieros",
    "Nombre": "PRO-MUJER",
    "Direccion": "Villa 1ø de Mayo, Casi Esq. Calle 11 oeste Nø 4",
    "Telefono": null,
    "Latitud": -17.7986,
    "Longitud": -63.1354,
    "Fuente": "web"
  },
  {
    "Id": 741,
    "Departamento": "Santa Cruz",
    "Tipo": "ServiciosFinancieros",
    "Nombre": "PRO-MUJER",
    "Direccion": "Avenida Paurita N§ 6055 (Zona Ca¤ada Pailita)",
    "Telefono": null,
    "Latitud": null,
    "Longitud": null,
    "Fuente": "web"
  },
  {
    "Id": 742,
    "Departamento": "Santa Cruz",
    "Tipo": "ServiciosFinancieros",
    "Nombre": "PRO-MUJER",
    "Direccion": "Calle las Cutas Nø 2469, UV 17",
    "Telefono": null,
    "Latitud": -17.7986,
    "Longitud": -63.1354,
    "Fuente": "web"
  },
  {
    "Id": 743,
    "Departamento": "Santa Cruz",
    "Tipo": "ServiciosFinancieros",
    "Nombre": "SEMBRAR SARTAWI",
    "Direccion": "AV. SANTOS DUMONT 5to: ANILLO BARRIO LOS OLIVOS",
    "Telefono": null,
    "Latitud": -17.833,
    "Longitud": -63.1848,
    "Fuente": "web"
  },
  {
    "Id": 744,
    "Departamento": "Santa Cruz",
    "Tipo": "ServiciosFinancieros",
    "Nombre": "SEMBRAR SARTAWI",
    "Direccion": "AV MUTUALISTA Nº 2420 ESQ. CALLE 12",
    "Telefono": null,
    "Latitud": null,
    "Longitud": null,
    "Fuente": "web"
  },
  {
    "Id": 745,
    "Departamento": "Santa Cruz",
    "Tipo": "ServiciosFinancieros",
    "Nombre": "SEMBRAR SARTAWI",
    "Direccion": "AV ROTONDA S UV 149 MZN 1 BARRIO TORO TORO ROTOND",
    "Telefono": null,
    "Latitud": null,
    "Longitud": null,
    "Fuente": "web"
  },
  {
    "Id": 746,
    "Departamento": "Santa Cruz",
    "Tipo": "ServiciosFinancieros",
    "Nombre": "SEMBRAR SARTAWI",
    "Direccion": "CALLE RENE MORENO Nº476",
    "Telefono": null,
    "Latitud": null,
    "Longitud": null,
    "Fuente": "web"
  },
  {
    "Id": 747,
    "Departamento": "Santa Cruz",
    "Tipo": "ServiciosFinancieros",
    "Nombre": "CIDRE IFD",
    "Direccion": "CALLE SANTA CRUZ ESQUIna CALLE FLORIDA S.N",
    "Telefono": null,
    "Latitud": null,
    "Longitud": null,
    "Fuente": "web"
  },
  {
    "Id": 748,
    "Departamento": "Santa Cruz",
    "Tipo": "ServiciosFinancieros",
    "Nombre": "COOPERATIVA SAN MATEO LTDA.",
    "Direccion": "CALLE FLORIDA NO.101 VALLEGRANDE-SANTA CRUZ",
    "Telefono": null,
    "Latitud": -18.4896,
    "Longitud": -64.1072,
    "Fuente": "web"
  },
  {
    "Id": 749,
    "Departamento": "Santa Cruz",
    "Tipo": "ServiciosFinancieros",
    "Nombre": "CIDRE IFD",
    "Direccion": "AV. EPIFANIO R.OS SN",
    "Telefono": null,
    "Latitud": null,
    "Longitud": null,
    "Fuente": "web"
  },
  {
    "Id": 750,
    "Departamento": "Santa Cruz",
    "Tipo": "ServiciosFinancieros",
    "Nombre": "FUBODE",
    "Direccion": "AV. EPIFANIO RIOS 279 PLANTA BAJA",
    "Telefono": null,
    "Latitud": null,
    "Longitud": null,
    "Fuente": "web"
  },
  {
    "Id": 751,
    "Departamento": "Santa Cruz",
    "Tipo": "ServiciosFinancieros",
    "Nombre": "SEMBRAR SARTAWI",
    "Direccion": "Av. Epifanio Rios, Lote 8, Mz 46",
    "Telefono": null,
    "Latitud": null,
    "Longitud": null,
    "Fuente": "web"
  },
  {
    "Id": 752,
    "Departamento": "Sucre",
    "Tipo": "ServiciosFinancieros",
    "Nombre": "BANCO UNION",
    "Direccion": "Calle Guemes s (cerca de la plaza 14 de Marzo), z",
    "Telefono": null,
    "Latitud": null,
    "Longitud": null,
    "Fuente": "web"
  },
  {
    "Id": 753,
    "Departamento": "Sucre",
    "Tipo": "ServiciosFinancieros",
    "Nombre": "BANCO FIE",
    "Direccion": "CALLE AYACUCHO N. 24 ESQ. GRAN CHACO PROV.NOR CIN",
    "Telefono": null,
    "Latitud": -20.6415,
    "Longitud": -65.2106,
    "Fuente": "web"
  },
  {
    "Id": 754,
    "Departamento": "Sucre",
    "Tipo": "ServiciosFinancieros",
    "Nombre": "BANCO UNION",
    "Direccion": "Calle Ayacucho Nro. 33",
    "Telefono": null,
    "Latitud": -20.641,
    "Longitud": -65.2108,
    "Fuente": "web"
  },
  {
    "Id": 755,
    "Departamento": "Sucre",
    "Tipo": "ServiciosFinancieros",
    "Nombre": "IDEPRO",
    "Direccion": "Calle Gran Chaco Nro. 12",
    "Telefono": null,
    "Latitud": null,
    "Longitud": null,
    "Fuente": "web"
  },
  {
    "Id": 756,
    "Departamento": "Sucre",
    "Tipo": "ServiciosFinancieros",
    "Nombre": "COOP.A.C.SAN FRANCISCO SOLANO",
    "Direccion": "LUIS CALVO",
    "Telefono": null,
    "Latitud": null,
    "Longitud": null,
    "Fuente": "web"
  },
  {
    "Id": 757,
    "Departamento": "Sucre",
    "Tipo": "ServiciosFinancieros",
    "Nombre": "BANCO UNION",
    "Direccion": "Calle Marcelo Arana Nro. 45-47",
    "Telefono": null,
    "Latitud": -19.8043,
    "Longitud": -63.9576,
    "Fuente": "web"
  },
  {
    "Id": 758,
    "Departamento": "Sucre",
    "Tipo": "ServiciosFinancieros",
    "Nombre": "CAC SAN ROQUE LTDA",
    "Direccion": "Calle Sucre No. 699",
    "Telefono": null,
    "Latitud": -19.8007,
    "Longitud": -63.9551,
    "Fuente": "web"
  },
  {
    "Id": 759,
    "Departamento": "Sucre",
    "Tipo": "ServiciosFinancieros",
    "Nombre": "BANCO UNION",
    "Direccion": "Calle Ayacucho s entre Calle Sucre y German Busc",
    "Telefono": null,
    "Latitud": null,
    "Longitud": null,
    "Fuente": "web"
  },
  {
    "Id": 760,
    "Departamento": "Sucre",
    "Tipo": "ServiciosFinancieros",
    "Nombre": "BANCO FIE",
    "Direccion": "Litoral",
    "Telefono": null,
    "Latitud": -19.3072,
    "Longitud": -64.3026,
    "Fuente": "web"
  },
  {
    "Id": 761,
    "Departamento": "Sucre",
    "Tipo": "ServiciosFinancieros",
    "Nombre": "BANCO UNION",
    "Direccion": "BOLIVAR No, 2",
    "Telefono": null,
    "Latitud": -19.3078,
    "Longitud": -64.3029,
    "Fuente": "web"
  },
  {
    "Id": 762,
    "Departamento": "Sucre",
    "Tipo": "ServiciosFinancieros",
    "Nombre": "CAC SAN ROQUE LTDA",
    "Direccion": null,
    "Telefono": null,
    "Latitud": null,
    "Longitud": null,
    "Fuente": "web"
  },
  {
    "Id": 763,
    "Departamento": "Sucre",
    "Tipo": "ServiciosFinancieros",
    "Nombre": "BANCO UNION",
    "Direccion": "Calle Eduardo Avaroa s, localidad San Lucas",
    "Telefono": null,
    "Latitud": null,
    "Longitud": null,
    "Fuente": "web"
  },
  {
    "Id": 764,
    "Departamento": "Sucre",
    "Tipo": "ServiciosFinancieros",
    "Nombre": "SEMBRAR SARTAWI",
    "Direccion": "Plaza Trigo Arce esq. 25 de Mayo",
    "Telefono": null,
    "Latitud": null,
    "Longitud": null,
    "Fuente": "web"
  },
  {
    "Id": 765,
    "Departamento": "Sucre",
    "Tipo": "ServiciosFinancieros",
    "Nombre": "BANCO ECOFUTURO",
    "Direccion": "GUILLERMO LOAYZA No.504 ESQ. J.PRUDENCIO BUSTILLO",
    "Telefono": null,
    "Latitud": -19.0341,
    "Longitud": -65.2528,
    "Fuente": "web"
  },
  {
    "Id": 766,
    "Departamento": "Sucre",
    "Tipo": "ServiciosFinancieros",
    "Nombre": "BANCO FASSIL",
    "Direccion": "C. Espa¤a Nø 64 entre Calvo y San Alberto",
    "Telefono": null,
    "Latitud": -19.0474,
    "Longitud": -65.2585,
    "Fuente": "web"
  },
  {
    "Id": 767,
    "Departamento": "Sucre",
    "Tipo": "ServiciosFinancieros",
    "Nombre": "BANCO FIE",
    "Direccion": "Plaza 25 de mayo esquina calle Espa¤a",
    "Telefono": null,
    "Latitud": -19.0477,
    "Longitud": -65.2587,
    "Fuente": "web"
  },
  {
    "Id": 768,
    "Departamento": "Sucre",
    "Tipo": "ServiciosFinancieros",
    "Nombre": "BANCO FORTALEZA",
    "Direccion": "Calle San Alberto No.108 esq. Calle Espa¤a",
    "Telefono": null,
    "Latitud": -19.0472,
    "Longitud": -65.2577,
    "Fuente": "web"
  },
  {
    "Id": 769,
    "Departamento": "Sucre",
    "Tipo": "ServiciosFinancieros",
    "Nombre": "BANCO PRODEM",
    "Direccion": "c/Espana esq.San Alberto No.106",
    "Telefono": null,
    "Latitud": -19.047,
    "Longitud": -65.2582,
    "Fuente": "web"
  },
  {
    "Id": 770,
    "Departamento": "Sucre",
    "Tipo": "ServiciosFinancieros",
    "Nombre": "CIDRE IFD",
    "Direccion": "C. GUSTAVO naVARRO No. 12",
    "Telefono": null,
    "Latitud": -19.0352,
    "Longitud": -65.2536,
    "Fuente": "web"
  },
  {
    "Id": 771,
    "Departamento": "Sucre",
    "Tipo": "ServiciosFinancieros",
    "Nombre": "CRECER IFD",
    "Direccion": "Calle Man Cesped Nro 510",
    "Telefono": null,
    "Latitud": null,
    "Longitud": null,
    "Fuente": "web"
  },
  {
    "Id": 772,
    "Departamento": "Sucre",
    "Tipo": "ServiciosFinancieros",
    "Nombre": "DIACONIA",
    "Direccion": "Calle Prudenci Bustillos Nro.262, lado Mercado Ca",
    "Telefono": null,
    "Latitud": -19.0343,
    "Longitud": -65.2551,
    "Fuente": "web"
  },
  {
    "Id": 773,
    "Departamento": "Sucre",
    "Tipo": "ServiciosFinancieros",
    "Nombre": "FUBODE",
    "Direccion": "C. naTANIEL AGUIRRE 391 CASI ESQ. DESTACAMENTO 13",
    "Telefono": null,
    "Latitud": null,
    "Longitud": null,
    "Fuente": "web"
  },
  {
    "Id": 774,
    "Departamento": "Sucre",
    "Tipo": "ServiciosFinancieros",
    "Nombre": "LA PRIMERA EFV",
    "Direccion": "Calle Espa¤a N§31",
    "Telefono": null,
    "Latitud": null,
    "Longitud": null,
    "Fuente": "web"
  },
  {
    "Id": 775,
    "Departamento": "Sucre",
    "Tipo": "ServiciosFinancieros",
    "Nombre": "PRO-MUJER",
    "Direccion": "Calle Marzana Nro. 525.",
    "Telefono": null,
    "Latitud": null,
    "Longitud": null,
    "Fuente": "web"
  },
  {
    "Id": 776,
    "Departamento": "Sucre",
    "Tipo": "ServiciosFinancieros",
    "Nombre": "SEMBRAR SARTAWI",
    "Direccion": "C. J. Prudencio N§ 530 esq. C. Paraguay",
    "Telefono": null,
    "Latitud": null,
    "Longitud": null,
    "Fuente": "web"
  },
  {
    "Id": 777,
    "Departamento": "Sucre",
    "Tipo": "ServiciosFinancieros",
    "Nombre": "BANCO UNION",
    "Direccion": "Plaza 12 de Marzo, esquina calles Bolívar y Sucre",
    "Telefono": null,
    "Latitud": null,
    "Longitud": null,
    "Fuente": "web"
  },
  {
    "Id": 778,
    "Departamento": "Sucre",
    "Tipo": "ServiciosFinancieros",
    "Nombre": "IDEPRO",
    "Direccion": "c. Julio Andia S frente a la plaza Principal",
    "Telefono": null,
    "Latitud": null,
    "Longitud": null,
    "Fuente": "web"
  },
  {
    "Id": 779,
    "Departamento": "Sucre",
    "Tipo": "ServiciosFinancieros",
    "Nombre": "BANCO UNION",
    "Direccion": "Avenida Mauro Nuñez S lote L, Zona central",
    "Telefono": null,
    "Latitud": -19.1244,
    "Longitud": -64.3222,
    "Fuente": "web"
  },
  {
    "Id": 780,
    "Departamento": "Tarija",
    "Tipo": "ServiciosFinancieros",
    "Nombre": "BANCO UNION",
    "Direccion": "Av G. Busch, esq C. Chuquisaca (Plaza Principal)",
    "Telefono": null,
    "Latitud": -22.7317,
    "Longitud": -64.3429,
    "Fuente": "web"
  },
  {
    "Id": 781,
    "Departamento": "Tarija",
    "Tipo": "ServiciosFinancieros",
    "Nombre": "COOP.SAN JOSE DE BERMEJO",
    "Direccion": "CALLE GERMAN BUCH ESQ.LITORAL",
    "Telefono": null,
    "Latitud": -22.732,
    "Longitud": -64.3428,
    "Fuente": "web"
  },
  {
    "Id": 782,
    "Departamento": "Tarija",
    "Tipo": "ServiciosFinancieros",
    "Nombre": "PRO-MUJER",
    "Direccion": "Calle Cochabamba entre Av. Barrientos Ortu¤o y Ca",
    "Telefono": null,
    "Latitud": null,
    "Longitud": null,
    "Fuente": "web"
  },
  {
    "Id": 783,
    "Departamento": "Tarija",
    "Tipo": "ServiciosFinancieros",
    "Nombre": "BANCO UNION",
    "Direccion": "C Bolívar SN Esq Junín, Z Norte de Carapari prov",
    "Telefono": null,
    "Latitud": null,
    "Longitud": null,
    "Fuente": "web"
  },
  {
    "Id": 784,
    "Departamento": "Tarija",
    "Tipo": "ServiciosFinancieros",
    "Nombre": "C.A.C ABIERTA MADRE Y MAESTRA LTDA.",
    "Direccion": "AV 29 DE SEPTIEMBRE SN",
    "Telefono": null,
    "Latitud": -21.5292,
    "Longitud": -64.7344,
    "Fuente": "web"
  },
  {
    "Id": 785,
    "Departamento": "Tarija",
    "Tipo": "ServiciosFinancieros",
    "Nombre": "COOP.MAGISTERIO RURAL TARIJA LTDA",
    "Direccion": "Calle Gilberto Saavedra (a media cuadra de la pla",
    "Telefono": null,
    "Latitud": -21.888,
    "Longitud": -64.7128,
    "Fuente": "web"
  },
  {
    "Id": 786,
    "Departamento": "Tarija",
    "Tipo": "ServiciosFinancieros",
    "Nombre": "BANCO ECOFUTURO",
    "Direccion": "Av.Domingo Paz entre daniel Campos y Colon N.132",
    "Telefono": null,
    "Latitud": -21.5317,
    "Longitud": -64.7316,
    "Fuente": "web"
  },
  {
    "Id": 787,
    "Departamento": "Tarija",
    "Tipo": "ServiciosFinancieros",
    "Nombre": "BANCO FASSIL",
    "Direccion": "15 de Abril 124",
    "Telefono": null,
    "Latitud": -21.5351,
    "Longitud": -64.7322,
    "Fuente": "web"
  },
  {
    "Id": 788,
    "Departamento": "Tarija",
    "Tipo": "ServiciosFinancieros",
    "Nombre": "BANCO FIE",
    "Direccion": "Ingavi 246",
    "Telefono": null,
    "Latitud": -21.5331,
    "Longitud": -64.733,
    "Fuente": "web"
  },
  {
    "Id": 789,
    "Departamento": "Tarija",
    "Tipo": "ServiciosFinancieros",
    "Nombre": "BANCO FORTALEZA",
    "Direccion": "La Madrid",
    "Telefono": null,
    "Latitud": -21.5336,
    "Longitud": -64.7339,
    "Fuente": "web"
  },
  {
    "Id": 790,
    "Departamento": "Tarija",
    "Tipo": "ServiciosFinancieros",
    "Nombre": "BANCO PRODEM",
    "Direccion": "Tarija",
    "Telefono": null,
    "Latitud": -21.521,
    "Longitud": -64.7429,
    "Fuente": "web"
  },
  {
    "Id": 791,
    "Departamento": "Tarija",
    "Tipo": "ServiciosFinancieros",
    "Nombre": "BANCO UNION",
    "Direccion": "Av. La Paz esquina Av. Victor Paz",
    "Telefono": null,
    "Latitud": -21.5408,
    "Longitud": -64.7252,
    "Fuente": "web"
  },
  {
    "Id": 792,
    "Departamento": "Tarija",
    "Tipo": "ServiciosFinancieros",
    "Nombre": "BANCO UNION",
    "Direccion": "Zona Mercado Campesino",
    "Telefono": null,
    "Latitud": -21.5209,
    "Longitud": -64.7426,
    "Fuente": "web"
  },
  {
    "Id": 793,
    "Departamento": "Tarija",
    "Tipo": "ServiciosFinancieros",
    "Nombre": "BANCO UNION",
    "Direccion": "C/MADRID ESQ. GRAL TRIGO NO.390",
    "Telefono": null,
    "Latitud": -21.5334,
    "Longitud": -64.7343,
    "Fuente": "web"
  },
  {
    "Id": 794,
    "Departamento": "Tarija",
    "Tipo": "ServiciosFinancieros",
    "Nombre": "C.A.C ABIERTA MADRE Y MAESTRA LTDA.",
    "Direccion": "Av. Froylan Tejerina N§ 140",
    "Telefono": null,
    "Latitud": -21.5214,
    "Longitud": -64.742,
    "Fuente": "web"
  },
  {
    "Id": 795,
    "Departamento": "Tarija",
    "Tipo": "ServiciosFinancieros",
    "Nombre": "C.A.C ABIERTA MADRE Y MAESTRA LTDA.",
    "Direccion": "CALLE FRAY MANUEL MINGO Nro. 0573",
    "Telefono": null,
    "Latitud": -21.5292,
    "Longitud": -64.7344,
    "Fuente": "web"
  },
  {
    "Id": 796,
    "Departamento": "Tarija",
    "Tipo": "ServiciosFinancieros",
    "Nombre": "C.A.C. EL CHOROLQUE LTDA.",
    "Direccion": "C. INGAVI No.239, edif. CONCORDIA",
    "Telefono": null,
    "Latitud": -21.5332,
    "Longitud": -64.7328,
    "Fuente": "web"
  },
  {
    "Id": 797,
    "Departamento": "Tarija",
    "Tipo": "ServiciosFinancieros",
    "Nombre": "CIDRE IFD",
    "Direccion": "Av. Panamericana S Zona San Jorge",
    "Telefono": null,
    "Latitud": -21.5262,
    "Longitud": -64.7398,
    "Fuente": "web"
  },
  {
    "Id": 798,
    "Departamento": "Tarija",
    "Tipo": "ServiciosFinancieros",
    "Nombre": "CIDRE IFD",
    "Direccion": "C. JUNIN Nro. 625 ENTRE INGAVI Y MADRID",
    "Telefono": null,
    "Latitud": -21.5351,
    "Longitud": -64.728,
    "Fuente": "web"
  },
  {
    "Id": 799,
    "Departamento": "Tarija",
    "Tipo": "ServiciosFinancieros",
    "Nombre": "COOP.MAGISTERIO RURAL TARIJA LTDA",
    "Direccion": "Calle campero N 726 entre Ingavi y Bolivar",
    "Telefono": null,
    "Latitud": -21.5321,
    "Longitud": -64.7349,
    "Fuente": "web"
  },
  {
    "Id": 800,
    "Departamento": "Tarija",
    "Tipo": "ServiciosFinancieros",
    "Nombre": "DIACONIA",
    "Direccion": "Av.Panamericana Nro 1791",
    "Telefono": null,
    "Latitud": -21.5211,
    "Longitud": -64.7428,
    "Fuente": "web"
  },
  {
    "Id": 801,
    "Departamento": "Tarija",
    "Tipo": "ServiciosFinancieros",
    "Nombre": "FONDECO",
    "Direccion": "Av. Froilan Tejerina, entre Ernesto Trigo y Hugo",
    "Telefono": null,
    "Latitud": -21.5185,
    "Longitud": -64.74,
    "Fuente": "web"
  },
  {
    "Id": 802,
    "Departamento": "Tarija",
    "Tipo": "ServiciosFinancieros",
    "Nombre": "IDEPRO",
    "Direccion": "Calle Ingavi",
    "Telefono": null,
    "Latitud": -21.5328,
    "Longitud": -64.7339,
    "Fuente": "web"
  },
  {
    "Id": 803,
    "Departamento": "Tarija",
    "Tipo": "ServiciosFinancieros",
    "Nombre": "PRO-MUJER",
    "Direccion": "Zona Mercado Campesino",
    "Telefono": null,
    "Latitud": -21.5219,
    "Longitud": -64.7424,
    "Fuente": "web"
  },
  {
    "Id": 804,
    "Departamento": "Tarija",
    "Tipo": "ServiciosFinancieros",
    "Nombre": "IDEPRO",
    "Direccion": "Avenida Principal frente a la cancha de futbol s.",
    "Telefono": null,
    "Latitud": null,
    "Longitud": null,
    "Fuente": "web"
  },
  {
    "Id": 805,
    "Departamento": "Tarija",
    "Tipo": "ServiciosFinancieros",
    "Nombre": "IDEPRO",
    "Direccion": "Calle Recreo esquina Bol¡var, Plaza Principal s.n",
    "Telefono": null,
    "Latitud": null,
    "Longitud": null,
    "Fuente": "web"
  },
  {
    "Id": 806,
    "Departamento": "Tarija",
    "Tipo": "ServiciosFinancieros",
    "Nombre": "BANCO UNION",
    "Direccion": "Av. Ingavi, entre Av. H del Chaco y C.Cbba sn z.",
    "Telefono": null,
    "Latitud": -21.263,
    "Longitud": -63.4701,
    "Fuente": "web"
  },
  {
    "Id": 807,
    "Departamento": "Tarija",
    "Tipo": "ServiciosFinancieros",
    "Nombre": "C.A.C. EDUCADORES GRAN CHACO LTDA",
    "Direccion": "Av. Mendez Arcos Esq. Calle Ismael Montes",
    "Telefono": null,
    "Latitud": -21.2658,
    "Longitud": -63.4698,
    "Fuente": "web"
  },
  {
    "Id": 808,
    "Departamento": "Tarija",
    "Tipo": "ServiciosFinancieros",
    "Nombre": "COOP.A.C.SAN FRANCISCO SOLANO",
    "Direccion": "AV MENDEZ ARCO ENTRE POTOSI Y ORURO",
    "Telefono": null,
    "Latitud": -21.265,
    "Longitud": -63.4727,
    "Fuente": "web"
  },