[
  {
    "Id": 7150,
    "Departamento": "Santa Cruz",
    "Tipo": "Mercado",
    "Nombre": "Mercadito 2 de Agosto",
    "Direccion": "Santa Cruz de la Sierra",
    "Telefono": null,
    "Latitud": -17.734,
    "Longitud": -63.143,
    "Fuente": "gamsc"
  },
  {
    "Id": 7151,
    "Departamento": "Santa Cruz",
    "Tipo": "Mercado",
    "Nombre": "Mercado las Pampitas",
    "Direccion": "Av. Las Pampas, Santa Cruz de la Sierra",
    "Telefono": null,
    "Latitud": -17.7691,
    "Longitud": -63.1223,
    "Fuente": "gamsc"
  },
  {
    "Id": 7152,
    "Departamento": "Santa Cruz",
    "Tipo": "Mercado",
    "Nombre": "Mercado LIBERTAD",
    "Direccion": "Calle Jorori, Santa Cruz de la Sierra",
    "Telefono": null,
    "Latitud": -17.7419,
    "Longitud": -63.0866,
    "Fuente": "gamsc"
  },
  {
    "Id": 7153,
    "Departamento": "Santa Cruz",
    "Tipo": "Mercado",
    "Nombre": "Mercado Panamericano",
    "Direccion": "Santa Cruz de la Sierra",
    "Telefono": null,
    "Latitud": -17.7445,
    "Longitud": -63.1134,
    "Fuente": "gamsc"
  },
  {
    "Id": 7154,
    "Departamento": "Santa Cruz",
    "Tipo": "Mercado",
    "Nombre": "Mercado Modelo \"Cortez\"",
    "Direccion": "Santa Cruz de la Sierra",
    "Telefono": null,
    "Latitud": -17.8898,
    "Longitud": -63.1787,
    "Fuente": "gamsc"
  },
  {
    "Id": 7155,
    "Departamento": "Santa Cruz",
    "Tipo": "Mercado",
    "Nombre": "MUTUALISTA 8000 MT.",
    "Direccion": null,
    "Telefono": null,
    "Latitud": -17.7629,
    "Longitud": -63.1618,
    "Fuente": "gamsc"
  },
  {
    "Id": 7156,
    "Departamento": "Santa Cruz",
    "Tipo": "Mercado",
    "Nombre": "CENTRO DE ABASTECIMIENTO( Mercado El Dorado Norte)",
    "Direccion": "000, Santa Cruz de la Sierra",
    "Telefono": null,
    "Latitud": -17.7354,
    "Longitud": -63.0982,
    "Fuente": "gamsc"
  },
  {
    "Id": 7157,
    "Departamento": "Santa Cruz",
    "Tipo": "Mercado",
    "Nombre": "Mercado 21 De MAYO (ARROYITO)",
    "Direccion": "Av Arroyito, Santa Cruz de la Sierra",
    "Telefono": null,
    "Latitud": -17.8197,
    "Longitud": -63.1065,
    "Fuente": "gamsc"
  },
  {
    "Id": 7158,
    "Departamento": "Santa Cruz",
    "Tipo": "Mercado",
    "Nombre": "NUEVO PALMAR mercado parada 15",
    "Direccion": "Nuevo Palmar 23, Santa Cruz de la Sierra",
    "Telefono": null,
    "Latitud": -17.8702,
    "Longitud": -63.1642,
    "Fuente": "gamsc"
  },
  {
    "Id": 7159,
    "Departamento": "Santa Cruz",
    "Tipo": "Mercado",
    "Nombre": "Mercado La Morita",
    "Direccion": "C/ Francisco Kempff y Armando Jordan",
    "Telefono": null,
    "Latitud": -17.8165,
    "Longitud": -63.1878,
    "Fuente": "gamsc"
  },
  {
    "Id": 7160,
    "Departamento": "Santa Cruz",
    "Tipo": "Mercado",
    "Nombre": "Mercado Santa Rosa",
    "Direccion": null,
    "Telefono": null,
    "Latitud": -17.8073,
    "Longitud": -63.1969,
    "Fuente": "gamsc"
  },
  {
    "Id": 7161,
    "Departamento": "Santa Cruz",
    "Tipo": "Mercado",
    "Nombre": "Pro Mayor",
    "Direccion": null,
    "Telefono": null,
    "Latitud": -17.7892,
    "Longitud": -63.1507,
    "Fuente": "gamsc"
  },
  {
    "Id": 7162,
    "Departamento": "Santa Cruz",
    "Tipo": "Mercado",
    "Nombre": "Mercado \"EL PARAISO\"",
    "Direccion": "Santa Cruz de la Sierra",
    "Telefono": null,
    "Latitud": -17.8552,
    "Longitud": -63.1993,
    "Fuente": "gamsc"
  },
  {
    "Id": 7163,
    "Departamento": "Santa Cruz",
    "Tipo": "Mercado",
    "Nombre": "Mercado La Ramada Centro",
    "Direccion": null,
    "Telefono": null,
    "Latitud": -17.7939,
    "Longitud": -63.1873,
    "Fuente": "gamsc"
  },
  {
    "Id": 7164,
    "Departamento": "Santa Cruz",
    "Tipo": "Mercado",
    "Nombre": "Mercado Modelo Plan 3000 - MERCADO SAN AURELIO",
    "Direccion": "Santa Cruz de la Sierra",
    "Telefono": null,
    "Latitud": -17.8221,
    "Longitud": -63.147,
    "Fuente": "gamsc"
  },
  {
    "Id": 7165,
    "Departamento": "Santa Cruz",
    "Tipo": "Mercado",
    "Nombre": "Mercado Plan 3000 \"COPACABAna\"",
    "Direccion": "Av. El Mechero",
    "Telefono": null,
    "Latitud": -17.8261,
    "Longitud": -63.1263,
    "Fuente": "gamsc"
  },
  {
    "Id": 7166,
    "Departamento": "Santa Cruz",
    "Tipo": "Mercado",
    "Nombre": "Mercado  Los Pozos",
    "Direccion": "entre C/ 6 Agosto C/Quijarro y Campero",
    "Telefono": null,
    "Latitud": -17.7785,
    "Longitud": -63.1776,
    "Fuente": "gamsc"
  },
  {
    "Id": 7167,
    "Departamento": "Santa Cruz",
    "Tipo": "Mercado",
    "Nombre": "Mercado Chacarilla",
    "Direccion": null,
    "Telefono": null,
    "Latitud": -17.7728,
    "Longitud": -63.1507,
    "Fuente": "gamsc"
  },
  {
    "Id": 7168,
    "Departamento": "Santa Cruz",
    "Tipo": "Mercado",
    "Nombre": "Mercado Mutualista",
    "Direccion": null,
    "Telefono": null,
    "Latitud": -17.7637,
    "Longitud": -63.161,
    "Fuente": "gamsc"
  },
  {
    "Id": 7169,
    "Departamento": "Santa Cruz",
    "Tipo": "Mercado",
    "Nombre": "Mercado Ramafa",
    "Direccion": "Av. Fuerza Aerea Boliviana y Tumpa",
    "Telefono": null,
    "Latitud": -17.8077,
    "Longitud": -63.1809,
    "Fuente": "gamsc"
  },
  {
    "Id": 7170,
    "Departamento": "Santa Cruz",
    "Tipo": "Mercado",
    "Nombre": "Mercado Miraflores",
    "Direccion": "Av. 3 pasos al frente y C/ 13 este",
    "Telefono": null,
    "Latitud": -17.8003,
    "Longitud": -63.1304,
    "Fuente": "gamsc"
  },
  {
    "Id": 7171,
    "Departamento": "Santa Cruz",
    "Tipo": "Mercado",
    "Nombre": "Mercado 7 Calles",
    "Direccion": "entre C/ Vallegrande C/ Isabel La Catolica",
    "Telefono": null,
    "Latitud": -17.7864,
    "Longitud": -63.1858,
    "Fuente": "gamsc"
  },
  {
    "Id": 7172,
    "Departamento": "Santa Cruz",
    "Tipo": "Mercado",
    "Nombre": "Mercado La Ramada",
    "Direccion": "C/Suto Esq. C/Amboro",
    "Telefono": null,
    "Latitud": -17.7948,
    "Longitud": -63.1907,
    "Fuente": "gamsc"
  },
  {
    "Id": 7173,
    "Departamento": "Santa Cruz",
    "Tipo": "Mercado",
    "Nombre": "Mercado San Luis",
    "Direccion": "2 anillo Av. Roca yCoronado",
    "Telefono": null,
    "Latitud": -17.7838,
    "Longitud": -63.1953,
    "Fuente": "gamsc"
  },
  {
    "Id": 7174,
    "Departamento": "Santa Cruz",
    "Tipo": "Mercado",
    "Nombre": "Mercado 4 de Noviembre",
    "Direccion": "Av. Centenario  y 3 anillo",
    "Telefono": null,
    "Latitud": -17.7784,
    "Longitud": -63.2029,
    "Fuente": "gamsc"
  },
  {
    "Id": 7175,
    "Departamento": "Santa Cruz",
    "Tipo": "Mercado",
    "Nombre": "Mercado El Trompillo",
    "Direccion": "C/José Mercado Aguado",
    "Telefono": null,
    "Latitud": -17.8004,
    "Longitud": -63.1702,
    "Fuente": "gamsc"
  },
  {
    "Id": 7176,
    "Departamento": "Santa Cruz",
    "Tipo": "Mercado",
    "Nombre": "Mercado Coarco",
    "Direccion": "entre C/12 este C/ 13 este",
    "Telefono": null,
    "Latitud": -17.7981,
    "Longitud": -63.1326,
    "Fuente": "gamsc"
  },
  {
    "Id": 7177,
    "Departamento": "Santa Cruz",
    "Tipo": "Mercado",
    "Nombre": "Mercado Belen",
    "Direccion": "Radial 26 C/ Los Guapos",
    "Telefono": null,
    "Latitud": -17.7551,
    "Longitud": -63.1883,
    "Fuente": "gamsc"
  },
  {
    "Id": 7178,
    "Departamento": "Santa Cruz",
    "Tipo": "Mercado",
    "Nombre": "Mercado 12 de Octubre",
    "Direccion": "C/ 8 y Antonio Vicente Ardaya",
    "Telefono": null,
    "Latitud": -17.7549,
    "Longitud": -63.1796,
    "Fuente": "gamsc"
  },
  {
    "Id": 7179,
    "Departamento": "Santa Cruz",
    "Tipo": "Mercado",
    "Nombre": "Mercado Santa Rosa",
    "Direccion": "3er anillo yAv.Prefecto R.",
    "Telefono": null,
    "Latitud": -17.8109,
    "Longitud": -63.1895,
    "Fuente": "gamsc"
  },
  {
    "Id": 7180,
    "Departamento": "Santa Cruz",
    "Tipo": "Mercado",
    "Nombre": "Mercado El Progreso",
    "Direccion": null,
    "Telefono": null,
    "Latitud": -17.8233,
    "Longitud": -63.1361,
    "Fuente": "gamsc"
  },
  {
    "Id": 7181,
    "Departamento": "Santa Cruz",
    "Tipo": "Mercado",
    "Nombre": "Mercado Guapurú",
    "Direccion": "Santa Cruz de la Sierra",
    "Telefono": null,
    "Latitud": -17.8515,
    "Longitud": -63.0995,
    "Fuente": "gamsc"
  },
  {
    "Id": 7182,
    "Departamento": "Santa Cruz",
    "Tipo": "Mercado",
    "Nombre": "Mercado La Campana",
    "Direccion": "Unnamed Road, Santa Cruz de la Sierra",
    "Telefono": null,
    "Latitud": -17.8182,
    "Longitud": -63.1182,
    "Fuente": "gamsc"
  },
  {
    "Id": 7183,
    "Departamento": "Santa Cruz",
    "Tipo": "Mercado",
    "Nombre": "Mercado Los Pocitos",
    "Direccion": "Entel - Plan 3000, Santa Cruz de la Sierra",
    "Telefono": null,
    "Latitud": -17.8415,
    "Longitud": -63.1106,
    "Fuente": "gamsc"
  },
  {
    "Id": 7184,
    "Departamento": "Santa Cruz",
    "Tipo": "Mercado",
    "Nombre": "Mercado Max Fernandez",
    "Direccion": "Santa Cruz de la Sierra",
    "Telefono": null,
    "Latitud": -17.868,
    "Longitud": -63.195,
    "Fuente": "gamsc"
  },
  {
    "Id": 7185,
    "Departamento": "Santa Cruz",
    "Tipo": "Mercado",
    "Nombre": "Mercado Municipal La Cuchilla",
    "Direccion": "Avenida Moscú, Santa Cruz de la Sierra",
    "Telefono": null,
    "Latitud": -17.8263,
    "Longitud": -63.2016,
    "Fuente": "gamsc"
  },
  {
    "Id": 7186,
    "Departamento": "Santa Cruz",
    "Tipo": "Mercado",
    "Nombre": "Mercado 25 Mayo",
    "Direccion": "Santa Cruz de la Sierra",
    "Telefono": null,
    "Latitud": -17.8368,
    "Longitud": -63.2391,
    "Fuente": "gamsc"
  },
  {
    "Id": 7187,
    "Departamento": "Santa Cruz",
    "Tipo": "Mercado",
    "Nombre": "Mercado De Alto San Pedro De Comestibles y Material De Ferreteria",
    "Direccion": "Av Roque Aguilera y, Santa Cruz de la Sierra",
    "Telefono": null,
    "Latitud": -17.8108,
    "Longitud": -63.1894,
    "Fuente": "gamsc"
  },
  {
    "Id": 7188,
    "Departamento": "Santa Cruz",
    "Tipo": "Mercado",
    "Nombre": "Mercado el Fuerte",
    "Direccion": "Av El Fuerte, Santa Cruz de la Sierra",
    "Telefono": null,
    "Latitud": -17.8472,
    "Longitud": -63.1478,
    "Fuente": "gamsc"
  },
  {
    "Id": 7189,
    "Departamento": "Santa Cruz",
    "Tipo": "Mercado",
    "Nombre": "Mercado El Progreso",
    "Direccion": "Calle 9, Santa Cruz de la Sierra",
    "Telefono": null,
    "Latitud": -17.8234,
    "Longitud": -63.1359,
    "Fuente": "gamsc"
  },
  {
    "Id": 7190,
    "Departamento": "Santa Cruz",
    "Tipo": "Mercado",
    "Nombre": "Mercado El Quior",
    "Direccion": "Santa Cruz de la Sierra",
    "Telefono": null,
    "Latitud": -17.8471,
    "Longitud": -63.0814,
    "Fuente": "gamsc"
  },
  {
    "Id": 7191,
    "Departamento": "Santa Cruz",
    "Tipo": "Mercado",
    "Nombre": "Mercado 7 de Abril",
    "Direccion": "Santa Cruz de la Sierra",
    "Telefono": null,
    "Latitud": -17.7773,
    "Longitud": -63.108,
    "Fuente": "gamsc"
  },
  {
    "Id": 7192,
    "Departamento": "Santa Cruz",
    "Tipo": "Mercado",
    "Nombre": "Mercado Santa Cruz Sur",
    "Direccion": "Nuevo Palmar, Santa Cruz de la Sierra",
    "Telefono": null,
    "Latitud": -17.8512,
    "Longitud": -63.1818,
    "Fuente": "gamsc"
  },
  {
    "Id": 7193,
    "Departamento": "Santa Cruz",
    "Tipo": "Mercado",
    "Nombre": "Mercado Palmira(plan 4000)",
    "Direccion": "Unnamed Road, Santa Cruz de la Sierra",
    "Telefono": null,
    "Latitud": -17.8772,
    "Longitud": -63.1712,
    "Fuente": "gamsc"
  },
  {
    "Id": 7194,
    "Departamento": "Santa Cruz",
    "Tipo": "Mercado",
    "Nombre": "Mercado Santa Cruz Sur",
    "Direccion": "Nuevo Palmar, Santa Cruz de la Sierra",
    "Telefono": null,
    "Latitud": -17.8512,
    "Longitud": -63.1818,
    "Fuente": "gamsc"
  },
  {
    "Id": 7195,
    "Departamento": "Santa Cruz",
    "Tipo": "Mercado",
    "Nombre": "Mercado Villa Ortuño",
    "Direccion": null,
    "Telefono": null,
    "Latitud": -17.8286,
    "Longitud": -63.2078,
    "Fuente": "gamsc"
  },
  {
    "Id": 7196,
    "Departamento": "Santa Cruz",
    "Tipo": "Mercado",
    "Nombre": "Mercado El Triunfo",
    "Direccion": null,
    "Telefono": null,
    "Latitud": -17.8609,
    "Longitud": -63.1547,
    "Fuente": "gamsc"
  },
  {
    "Id": 7197,
    "Departamento": "Santa Cruz",
    "Tipo": "Mercado",
    "Nombre": "Mercado Magisterio Sur",
    "Direccion": null,
    "Telefono": null,
    "Latitud": -17.8708,
    "Longitud": -63.1781,
    "Fuente": "gamsc"
  },
  {
    "Id": 7198,
    "Departamento": "Santa Cruz",
    "Tipo": "Mercado",
    "Nombre": "Mercado Urkupiña",
    "Direccion": null,
    "Telefono": null,
    "Latitud": -17.834,
    "Longitud": -63.1144,
    "Fuente": "gamsc"
  },
  {
    "Id": 7199,
    "Departamento": "Santa Cruz",
    "Tipo": "Mercado",
    "Nombre": "Mercado Turere",
    "Direccion": null,
    "Telefono": null,
    "Latitud": -17.8424,
    "Longitud": -63.1004,
    "Fuente": "gamsc"
  },
  {
    "Id": 7200,
    "Departamento": "Santa Cruz",
    "Tipo": "Mercado",
    "Nombre": "Mercado Los Tusequis",
    "Direccion": null,
    "Telefono": null,
    "Latitud": -17.7417,
    "Longitud": -63.1544,
    "Fuente": "gamsc"
  },
  {
    "Id": 7201,
    "Departamento": "Santa Cruz",
    "Tipo": "Mercado",
    "Nombre": "Mercado  Estacion Argentina",
    "Direccion": null,
    "Telefono": null,
    "Latitud": -17.8001,
    "Longitud": -63.1524,
    "Fuente": "gamsc"
  },
  {
    "Id": 7202,
    "Departamento": "Santa Cruz",
    "Tipo": "Mercado",
    "Nombre": "Mercado Villa Fatima",
    "Direccion": "C/ Quirusillas y El Torno",
    "Telefono": null,
    "Latitud": -17.813,
    "Longitud": -63.2027,
    "Fuente": "gamsc"
  },
  {
    "Id": 7203,
    "Departamento": "Santa Cruz",
    "Tipo": "Mercado",
    "Nombre": "Mercado Noel Kempffp",
    "Direccion": "Av. Radial 10",
    "Telefono": null,
    "Latitud": -17.8124,
    "Longitud": -63.1236,
    "Fuente": "gamsc"
  },
  {
    "Id": 7204,
    "Departamento": "Santa Cruz",
    "Tipo": "Mercado",
    "Nombre": "Mercado Primavera",
    "Direccion": "5to anillo de circunvalacion y radial 12",
    "Telefono": null,
    "Latitud": -17.8234,
    "Longitud": -63.1636,
    "Fuente": "gamsc"
  },
  {
    "Id": 7205,
    "Departamento": "Santa Cruz",
    "Tipo": "Mercado",
    "Nombre": "Mercado Nuevo(Sucre)",
    "Direccion": "entre C/Isabel La Catolica, C/ Sucre",
    "Telefono": null,
    "Latitud": -17.7837,
    "Longitud": -63.1784,
    "Fuente": "gamsc"
  },
  {
    "Id": 7206,
    "Departamento": "Santa Cruz",
    "Tipo": "Mercado",
    "Nombre": "Mercado Las Orquideas",
    "Direccion": null,
    "Telefono": null,
    "Latitud": -17.8301,
    "Longitud": -63.1285,
    "Fuente": "gamsc"
  },
  {
    "Id": 7207,
    "Departamento": "Santa Cruz",
    "Tipo": "Mercado",
    "Nombre": "Mercado Virgen de Lujan",
    "Direccion": null,
    "Telefono": null,
    "Latitud": -17.7604,
    "Longitud": -63.128,
    "Fuente": "gamsc"
  },
  {
    "Id": 7208,
    "Departamento": "Santa Cruz",
    "Tipo": "Mercado",
    "Nombre": "Mercado San Antonio",
    "Direccion": "Av. El Bajio y C/Bibosi",
    "Telefono": null,
    "Latitud": -17.8265,
    "Longitud": -63.2274,
    "Fuente": "gamsc"
  },
  {
    "Id": 7209,
    "Departamento": "Santa Cruz",
    "Tipo": "Mercado",
    "Nombre": "Mercado La Cuchilla",
    "Direccion": "Av. Moscu y C/ 16 de Julio",
    "Telefono": null,
    "Latitud": -17.8263,
    "Longitud": -63.2015,
    "Fuente": "gamsc"
  },
  {
    "Id": 7210,
    "Departamento": "Santa Cruz",
    "Tipo": "Mercado",
    "Nombre": "Mercado Los Bosques",
    "Direccion": "Av. Los Bosques. Esq. C/Coridin",
    "Telefono": null,
    "Latitud": -17.8127,
    "Longitud": -63.2145,
    "Fuente": "gamsc"
  },
  {
    "Id": 7211,
    "Departamento": "Santa Cruz",
    "Tipo": "Mercado",
    "Nombre": "Mercado copacabana",
    "Direccion": "Calle 6, Santa Cruz de la Sierra",
    "Telefono": null,
    "Latitud": -17.8266,
    "Longitud": -63.1258,
    "Fuente": "gamsc"
  },
  {
    "Id": 7212,
    "Departamento": "Santa Cruz",
    "Tipo": "Mercado",
    "Nombre": "Cooperativa Societaria 2 de junio Abasto R.L.",
    "Direccion": "Santa Cruz de la Sierra",
    "Telefono": null,
    "Latitud": -17.7948,
    "Longitud": -63.2043,
    "Fuente": "gamsc"
  },
  {
    "Id": 7213,
    "Departamento": "Santa Cruz",
    "Tipo": "Mercado",
    "Nombre": "Mercado Tito Solari",
    "Direccion": "Av. Lujan y El Bateon",
    "Telefono": null,
    "Latitud": -17.7416,
    "Longitud": -63.1074,
    "Fuente": "gamsc"
  },
  {
    "Id": 7214,
    "Departamento": "Santa Cruz",
    "Tipo": "Mercado",
    "Nombre": "Mercado \"Coarco\"",
    "Direccion": "Santa Cruz de la Sierra",
    "Telefono": null,
    "Latitud": -17.798,
    "Longitud": -63.1326,
    "Fuente": "gamsc"
  },
  {
    "Id": 7215,
    "Departamento": "Santa Cruz",
    "Tipo": "Mercado",
    "Nombre": "26 de Abril",
    "Direccion": "Tamarindo Seco, Santa Cruz de la Sierra",
    "Telefono": null,
    "Latitud": -17.83,
    "Longitud": -63.1746,
    "Fuente": "gamsc"
  },
  {
    "Id": 7216,
    "Departamento": "Santa Cruz",
    "Tipo": "Mercado",
    "Nombre": "Mercado David Trapero",
    "Direccion": null,
    "Telefono": null,
    "Latitud": -17.7588,
    "Longitud": -63.1587,
    "Fuente": "gamsc"
  },
  {
    "Id": 7217,
    "Departamento": "Santa Cruz",
    "Tipo": "Mercado",
    "Nombre": "Mercado San Juan",
    "Direccion": "Av. Cumavi y C/6",
    "Telefono": null,
    "Latitud": -17.7913,
    "Longitud": -63.1371,
    "Fuente": "gamsc"
  },
  {
    "Id": 7218,
    "Departamento": "Santa Cruz",
    "Tipo": "Mercado",
    "Nombre": "Mercado Las Américas",
    "Direccion": null,
    "Telefono": null,
    "Latitud": -17.8573,
    "Longitud": -63.1955,
    "Fuente": "gamsc"
  },
  {
    "Id": 7219,
    "Departamento": "Santa Cruz",
    "Tipo": "Mercado",
    "Nombre": "Mercado Paurito",
    "Direccion": null,
    "Telefono": null,
    "Latitud": -17.8819,
    "Longitud": -62.9398,
    "Fuente": "gamsc"
  },
  {
    "Id": 7220,
    "Departamento": "Santa Cruz",
    "Tipo": "Mercado",
    "Nombre": "Mercado Montero Hoyos",
    "Direccion": null,
    "Telefono": null,
    "Latitud": -17.6395,
    "Longitud": -62.8169,
    "Fuente": "gamsc"
  },
  {
    "Id": 7221,
    "Departamento": "Santa Cruz",
    "Tipo": "Mercado",
    "Nombre": "Mercado \"La Ramada\" C/ámboro y muchiri",
    "Direccion": null,
    "Telefono": null,
    "Latitud": -17.7942,
    "Longitud": -63.1902,
    "Fuente": "gamsc"
  },
  {
    "Id": 7222,
    "Departamento": "Santa Cruz",
    "Tipo": "Mercado",
    "Nombre": "Mercado Fortaleza",
    "Direccion": "Santa Cruz de la Sierra",
    "Telefono": null,
    "Latitud": -17.8632,
    "Longitud": -63.1609,
    "Fuente": "gamsc"
  },
  {
    "Id": 7223,
    "Departamento": "Santa Cruz",
    "Tipo": "Mercado",
    "Nombre": "Mercado La Ramada Minorista",
    "Direccion": null,
    "Telefono": null,
    "Latitud": -17.8359,
    "Longitud": -63.2147,
    "Fuente": "gamsc"
  },
  {
    "Id": 7224,
    "Departamento": "Santa Cruz",
    "Tipo": "Mercado",
    "Nombre": "Mercado Mutualista Abasto II",
    "Direccion": null,
    "Telefono": null,
    "Latitud": -17.7626,
    "Longitud": -63.1624,
    "Fuente": "gamsc"
  },
  {
    "Id": 7225,
    "Departamento": "Santa Cruz",
    "Tipo": "Mercado",
    "Nombre": "Mercado Modelo Plan 3000",
    "Direccion": null,
    "Telefono": null,
    "Latitud": -17.8218,
    "Longitud": -63.1474,
    "Fuente": "gamsc"
  },
  {
    "Id": 7226,
    "Departamento": "Santa Cruz",
    "Tipo": "Mercado",
    "Nombre": "Mercado Abasto Campesino",
    "Direccion": "3er anillo ext. Av. Pirai",
    "Telefono": null,
    "Latitud": -17.7965,
    "Longitud": -63.2043,
    "Fuente": "gamsc"
  },
  {
    "Id": 7227,
    "Departamento": "Santa Cruz",
    "Tipo": "Mercado",
    "Nombre": "Mercado Abasto Mayorista",
    "Direccion": null,
    "Telefono": null,
    "Latitud": -17.8501,
    "Longitud": -63.2311,
    "Fuente": "gamsc"
  },
  {
    "Id": 7228,
    "Departamento": "Santa Cruz",
    "Tipo": "Mercado",
    "Nombre": "Mercado Los Pozos Minorista",
    "Direccion": null,
    "Telefono": null,
    "Latitud": -17.7254,
    "Longitud": -63.1482,
    "Fuente": "gamsc"
  },
  {
    "Id": 7229,
    "Departamento": "Santa Cruz",
    "Tipo": "Mercado",
    "Nombre": "Mercado San Jose Obrero",
    "Direccion": "C/Fernando Paticu y Pailon",
    "Telefono": null,
    "Latitud": -17.7833,
    "Longitud": -63.1599,
    "Fuente": "gamsc"
  },
  {
    "Id": 7230,
    "Departamento": "Santa Cruz",
    "Tipo": "Mercado",
    "Nombre": "Mercado Florida",
    "Direccion": "C/Florida y Buenos Aires",
    "Telefono": null,
    "Latitud": -17.7818,
    "Longitud": -63.1879,
    "Fuente": "gamsc"
  },
  {
    "Id": 7231,
    "Departamento": "Santa Cruz",
    "Tipo": "MercadoMovil",
    "Nombre": "Distrito Urbano 11",
    "Direccion": "ROTONDA 2DO ANILLO AV. BENI",
    "Telefono": null,
    "Latitud": -17.7704,
    "Longitud": -63.1789,
    "Fuente": "gamsc"
  },
  {
    "Id": 7232,
    "Departamento": "Santa Cruz",
    "Tipo": "MercadoMovil",
    "Nombre": "Distrito Urbano 1",
    "Direccion": "ROTONDA 2DO ANILLO CRISTO REDENTOR",
    "Telefono": null,
    "Latitud": -17.7705,
    "Longitud": -63.1825,
    "Fuente": "gamsc"
  },
  {
    "Id": 7233,
    "Departamento": "Santa Cruz",
    "Tipo": "MercadoMovil",
    "Nombre": "Distrito Urbano 1",
    "Direccion": "ROTONDA 2DO ANILLO CENTEnaRIO",
    "Telefono": null,
    "Latitud": -17.7793,
    "Longitud": -63.1937,
    "Fuente": "gamsc"
  },
  {
    "Id": 7234,
    "Departamento": "Santa Cruz",
    "Tipo": "MercadoMovil",
    "Nombre": "Distrito Urbano 3",
    "Direccion": "ROTONDA 2DO ANILLO AV. BRASIL",
    "Telefono": null,
    "Latitud": -17.7874,
    "Longitud": -63.1643,
    "Fuente": "gamsc"
  },
  {
    "Id": 7235,
    "Departamento": "Santa Cruz",
    "Tipo": "MercadoMovil",
    "Nombre": "Distrito Urbano 4",
    "Direccion": "ROTONDA 2DO ANILLO AV. LA BARRANCA",
    "Telefono": null,
    "Latitud": -17.7981,
    "Longitud": -63.1754,
    "Fuente": "gamsc"
  },
  {
    "Id": 7236,
    "Departamento": "Santa Cruz",
    "Tipo": "MercadoMovil",
    "Nombre": "Distrito Urbano 11",
    "Direccion": "MELCHOR PINTO PARADA",
    "Telefono": null,
    "Latitud": -17.783,
    "Longitud": -63.1722,
    "Fuente": "gamsc"
  },
  {
    "Id": 7237,
    "Departamento": "Santa Cruz",
    "Tipo": "MercadoMovil",
    "Nombre": "Distrito Urbano 11",
    "Direccion": "AV. LAS AMERICAS",
    "Telefono": null,
    "Latitud": -17.7919,
    "Longitud": -63.1777,
    "Fuente": "gamsc"
  },
  {
    "Id": 7238,
    "Departamento": "Santa Cruz",
    "Tipo": "MercadoMovil",
    "Nombre": "Distrito Urbano 11",
    "Direccion": "PLAZA ESPA?A / AV. ARGENTIna",
    "Telefono": null,
    "Latitud": -17.7912,
    "Longitud": -63.1736,
    "Fuente": "gamsc"
  },
  {
    "Id": 7239,
    "Departamento": "Santa Cruz",
    "Tipo": "MercadoMovil",
    "Nombre": "Distrito Urbano 11",
    "Direccion": "AV. EJERCITO /AV. IRALA",
    "Telefono": null,
    "Latitud": -17.7932,
    "Longitud": -63.1869,
    "Fuente": "gamsc"
  },
  {
    "Id": 7240,
    "Departamento": "Santa Cruz",
    "Tipo": "MercadoMovil",
    "Nombre": "Distrito Urbano 11",
    "Direccion": "AV. LANDIVAR",
    "Telefono": null,
    "Latitud": -17.7844,
    "Longitud": -63.1889,
    "Fuente": "gamsc"
  },
  {
    "Id": 7241,
    "Departamento": "Santa Cruz",
    "Tipo": "MercadoMovil",
    "Nombre": "Distrito Urbano 11",
    "Direccion": "AV. BRASIL/ AV. VIEDMA",
    "Telefono": null,
    "Latitud": -17.7855,
    "Longitud": -63.1719,
    "Fuente": "gamsc"
  },
  {
    "Id": 7242,
    "Departamento": "Santa Cruz",
    "Tipo": "MercadoMovil",
    "Nombre": "Distrito Urbano 11",
    "Direccion": "CALLE PARI/ ISABEL LA CATOLICA",
    "Telefono": null,
    "Latitud": -17.7886,
    "Longitud": -63.1878,
    "Fuente": "gamsc"
  },
  {
    "Id": 7243,
    "Departamento": "Santa Cruz",
    "Tipo": "MercadoMovil",
    "Nombre": "Distrito Urbano 1",
    "Direccion": "Mercado movilES",
    "Telefono": null,
    "Latitud": -17.7623,
    "Longitud": -63.1913,
    "Fuente": "gamsc"
  },
  {
    "Id": 7244,
    "Departamento": "Santa Cruz",
    "Tipo": "MercadoMovil",
    "Nombre": "Distrito Urbano 1",
    "Direccion": "Mercado movilES",
    "Telefono": null,
    "Latitud": -17.7609,
    "Longitud": -63.1873,
    "Fuente": "gamsc"
  },
  {
    "Id": 7245,
    "Departamento": "Santa Cruz",
    "Tipo": "MercadoMovil",
    "Nombre": "Distrito Urbano 1",
    "Direccion": "Mercado movilES",
    "Telefono": null,
    "Latitud": -17.7599,
    "Longitud": -63.1828,
    "Fuente": "gamsc"
  },
  {
    "Id": 7246,
    "Departamento": "Santa Cruz",
    "Tipo": "MercadoMovil",
    "Nombre": "Distrito Urbano 2",
    "Direccion": "Mercado movilES",
    "Telefono": null,
    "Latitud": -17.7595,
    "Longitud": -63.1748,
    "Fuente": "gamsc"
  },
  {
    "Id": 7247,
    "Departamento": "Santa Cruz",
    "Tipo": "MercadoMovil",
    "Nombre": "Distrito Urbano 2",
    "Direccion": "Mercado movilES",
    "Telefono": null,
    "Latitud": -17.7765,
    "Longitud": -63.155,
    "Fuente": "gamsc"
  },
  {
    "Id": 7248,
    "Departamento": "Santa Cruz",
    "Tipo": "MercadoMovil",
    "Nombre": "Distrito Urbano 2",
    "Direccion": "Mercado movilES",
    "Telefono": null,
    "Latitud": -17.7798,
    "Longitud": -63.1474,
    "Fuente": "gamsc"
  },
  {
    "Id": 7249,
    "Departamento": "Santa Cruz",
    "Tipo": "MercadoMovil",
    "Nombre": "Distrito Urbano 6",
    "Direccion": "Mercado movilES",
    "Telefono": null,
    "Latitud": -17.7857,
    "Longitud": -63.148,
    "Fuente": "gamsc"
  },
  {
    "Id": 7250,
    "Departamento": "Santa Cruz",
    "Tipo": "MercadoMovil",
    "Nombre": "Distrito Urbano 3",
    "Direccion": "Mercado movilES",
    "Telefono": null,
    "Latitud": -17.7891,
    "Longitud": -63.1482,
    "Fuente": "gamsc"
  },
  {
    "Id": 7251,
    "Departamento": "Santa Cruz",
    "Tipo": "MercadoMovil",
    "Nombre": "Distrito Urbano 3",
    "Direccion": "Mercado movilES",
    "Telefono": null,
    "Latitud": -17.8024,
    "Longitud": -63.1516,
    "Fuente": "gamsc"
  },
  {
    "Id": 7252,
    "Departamento": "Santa Cruz",
    "Tipo": "MercadoMovil",
    "Nombre": "Distrito Urbano 3",
    "Direccion": "Mercado movilES",
    "Telefono": null,
    "Latitud": -17.8089,
    "Longitud": -63.1576,
    "Fuente": "gamsc"
  },
  {
    "Id": 7253,
    "Departamento": "Santa Cruz",
    "Tipo": "MercadoMovil",
    "Nombre": "Distrito Urbano 3",
    "Direccion": "Mercado movilES",
    "Telefono": null,
    "Latitud": -17.8105,
    "Longitud": -63.1599,
    "Fuente": "gamsc"
  },
  {
    "Id": 7254,
    "Departamento": "Santa Cruz",
    "Tipo": "MercadoMovil",
    "Nombre": "Distrito Urbano 3",
    "Direccion": "Mercado movilES",
    "Telefono": null,
    "Latitud": -17.8059,
    "Longitud": -63.1541,
    "Fuente": "gamsc"
  },
  {
    "Id": 7255,
    "Departamento": "Santa Cruz",
    "Tipo": "MercadoMovil",
    "Nombre": "Distrito Urbano 9",
    "Direccion": "Mercado movilES",
    "Telefono": null,
    "Latitud": -17.8198,
    "Longitud": -63.1717,
    "Fuente": "gamsc"
  },
  {
    "Id": 7256,
    "Departamento": "Santa Cruz",
    "Tipo": "MercadoMovil",
    "Nombre": "Distrito Urbano 9",
    "Direccion": "Mercado movilES",
    "Telefono": null,
    "Latitud": -17.8221,
    "Longitud": -63.177,
    "Fuente": "gamsc"
  },
  {
    "Id": 7257,
    "Departamento": "Santa Cruz",
    "Tipo": "MercadoMovil",
    "Nombre": "Distrito Urbano 9",
    "Direccion": "Mercado movilES",
    "Telefono": null,
    "Latitud": -17.8227,
    "Longitud": -63.1843,
    "Fuente": "gamsc"
  },
  {
    "Id": 7258,
    "Departamento": "Santa Cruz",
    "Tipo": "MercadoMovil",
    "Nombre": "Distrito Urbano 10",
    "Direccion": "Mercado movilES",
    "Telefono": null,
    "Latitud": -17.8192,
    "Longitud": -63.1983,
    "Fuente": "gamsc"
  },
  {
    "Id": 7259,
    "Departamento": "Santa Cruz",
    "Tipo": "MercadoMovil",
    "Nombre": "Distrito Urbano 10",
    "Direccion": "Mercado movilES",
    "Telefono": null,
    "Latitud": -17.8155,
    "Longitud": -63.2042,
    "Fuente": "gamsc"
  },
  {
    "Id": 7260,
    "Departamento": "Santa Cruz",
    "Tipo": "MercadoMovil",
    "Nombre": "Distrito Urbano 10",
    "Direccion": "Mercado movilES",
    "Telefono": null,
    "Latitud": -17.8057,
    "Longitud": -63.2127,
    "Fuente": "gamsc"
  },
  {
    "Id": 7261,
    "Departamento": "Santa Cruz",
    "Tipo": "MercadoMovil",
    "Nombre": "Distrito Urbano 10",
    "Direccion": "Mercado movilES",
    "Telefono": null,
    "Latitud": -17.8013,
    "Longitud": -63.2148,
    "Fuente": "gamsc"
  },
  {
    "Id": 7262,
    "Departamento": "Santa Cruz",
    "Tipo": "MercadoMovil",
    "Nombre": "Distrito Urbano 1",
    "Direccion": "Mercado movilES",
    "Telefono": null,
    "Latitud": -17.7918,
    "Longitud": -63.2167,
    "Fuente": "gamsc"
  },
  {
    "Id": 7263,
    "Departamento": "Santa Cruz",
    "Tipo": "MercadoMovil",
    "Nombre": "Distrito Urbano 1",
    "Direccion": "Mercado movilES",
    "Telefono": null,
    "Latitud": -17.7778,
    "Longitud": -63.2163,
    "Fuente": "gamsc"
  },
  {
    "Id": 7264,
    "Departamento": "Santa Cruz",
    "Tipo": "MercadoMovil",
    "Nombre": "Distrito Urbano 1",
    "Direccion": "Mercado movilES",
    "Telefono": null,
    "Latitud": -17.752,
    "Longitud": -63.1921,
    "Fuente": "gamsc"
  },
  {
    "Id": 7265,
    "Departamento": "Santa Cruz",
    "Tipo": "MercadoMovil",
    "Nombre": "Distrito Urbano 1",
    "Direccion": "Mercado movilES",
    "Telefono": null,
    "Latitud": -17.7505,
    "Longitud": -63.1868,
    "Fuente": "gamsc"
  },
  {
    "Id": 7266,
    "Departamento": "Santa Cruz",
    "Tipo": "MercadoMovil",
    "Nombre": "Distrito Urbano 1",
    "Direccion": "Mercado movilES",
    "Telefono": null,
    "Latitud": -17.7497,
    "Longitud": -63.1807,
    "Fuente": "gamsc"
  },
  {
    "Id": 7267,
    "Departamento": "Santa Cruz",
    "Tipo": "MercadoMovil",
    "Nombre": "Distrito Urbano 1",
    "Direccion": "Mercado movilES",
    "Telefono": null,
    "Latitud": -17.75,
    "Longitud": -63.1753,
    "Fuente": "gamsc"
  },
  {
    "Id": 7268,
    "Departamento": "Santa Cruz",
    "Tipo": "MercadoMovil",
    "Nombre": "Distrito Urbano 2",
    "Direccion": "Mercado movilES",
    "Telefono": null,
    "Latitud": -17.7518,
    "Longitud": -63.1639,
    "Fuente": "gamsc"
  },
  {
    "Id": 7269,
    "Departamento": "Santa Cruz",
    "Tipo": "MercadoMovil",
    "Nombre": "Distrito Urbano 2",
    "Direccion": "Mercado movilES",
    "Telefono": null,
    "Latitud": -17.7548,
    "Longitud": -63.1574,
    "Fuente": "gamsc"
  },
  {
    "Id": 7270,
    "Departamento": "Santa Cruz",
    "Tipo": "MercadoMovil",
    "Nombre": "Distrito Urbano 2",
    "Direccion": "Mercado movilES",
    "Telefono": null,
    "Latitud": -17.7652,
    "Longitud": -63.1487,
    "Fuente": "gamsc"
  },
  {
    "Id": 7271,
    "Departamento": "Santa Cruz",
    "Tipo": "MercadoMovil",
    "Nombre": "Distrito Urbano 2",
    "Direccion": "Mercado movilES",
    "Telefono": null,
    "Latitud": -17.7756,
    "Longitud": -63.1471,
    "Fuente": "gamsc"
  },
  {
    "Id": 7272,
    "Departamento": "Santa Cruz",
    "Tipo": "MercadoMovil",
    "Nombre": "Distrito Urbano 7",
    "Direccion": "Mercado movilES",
    "Telefono": null,
    "Latitud": -17.7913,
    "Longitud": -63.1393,
    "Fuente": "gamsc"
  },
  {
    "Id": 7273,
    "Departamento": "Santa Cruz",
    "Tipo": "MercadoMovil",
    "Nombre": "Distrito Urbano 7",
    "Direccion": "Mercado movilES",
    "Telefono": null,
    "Latitud": -17.8005,
    "Longitud": -63.1423,
    "Fuente": "gamsc"
  },
  {
    "Id": 7274,
    "Departamento": "Santa Cruz",
    "Tipo": "MercadoMovil",
    "Nombre": "Distrito Urbano 3",
    "Direccion": "Mercado movilES",
    "Telefono": null,
    "Latitud": -17.8077,
    "Longitud": -63.1412,
    "Fuente": "gamsc"
  },
  {
    "Id": 7275,
    "Departamento": "Santa Cruz",
    "Tipo": "MercadoMovil",
    "Nombre": "Distrito Urbano 3",
    "Direccion": "Mercado movilES",
    "Telefono": null,
    "Latitud": -17.8117,
    "Longitud": -63.1433,
    "Fuente": "gamsc"
  },
  {
    "Id": 7276,
    "Departamento": "Santa Cruz",
    "Tipo": "MercadoMovil",
    "Nombre": "Distrito Urbano 9",
    "Direccion": "Mercado movilES",
    "Telefono": null,
    "Latitud": -17.8311,
    "Longitud": -63.1757,
    "Fuente": "gamsc"
  },
  {
    "Id": 7277,
    "Departamento": "Santa Cruz",
    "Tipo": "MercadoMovil",
    "Nombre": "Distrito Urbano 9",
    "Direccion": "Mercado movilES",
    "Telefono": null,
    "Latitud": -17.8324,
    "Longitud": -63.1945,
    "Fuente": "gamsc"
  },
  {
    "Id": 7278,
    "Departamento": "Santa Cruz",
    "Tipo": "MercadoMovil",
    "Nombre": "Distrito Urbano 10",
    "Direccion": "Mercado movilES",
    "Telefono": null,
    "Latitud": -17.8249,
    "Longitud": -63.2064,
    "Fuente": "gamsc"
  },
  {
    "Id": 7279,
    "Departamento": "Santa Cruz",
    "Tipo": "MercadoMovil",
    "Nombre": "Distrito Urbano 10",
    "Direccion": "Mercado movilES",
    "Telefono": null,
    "Latitud": -17.8214,
    "Longitud": -63.209,
    "Fuente": "gamsc"
  },
  {
    "Id": 7280,
    "Departamento": "Santa Cruz",
    "Tipo": "MercadoMovil",
    "Nombre": "Distrito Urbano 10",
    "Direccion": "Mercado movilES",
    "Telefono": null,
    "Latitud": -17.8163,
    "Longitud": -63.2132,
    "Fuente": "gamsc"
  },
  {
    "Id": 7281,
    "Departamento": "Santa Cruz",
    "Tipo": "MercadoMovil",
    "Nombre": "Distrito Urbano 1",
    "Direccion": "Mercado movilES",
    "Telefono": null,
    "Latitud": -17.8016,
    "Longitud": -63.2263,
    "Fuente": "gamsc"
  },
  {
    "Id": 7282,
    "Departamento": "Santa Cruz",
    "Tipo": "MercadoMovil",
    "Nombre": "Distrito Urbano 1",
    "Direccion": "Mercado movilES",
    "Telefono": null,
    "Latitud": -17.7891,
    "Longitud": -63.2245,
    "Fuente": "gamsc"
  },
  {
    "Id": 7283,
    "Departamento": "Santa Cruz",
    "Tipo": "MercadoMovil",
    "Nombre": "Distrito Urbano 1",
    "Direccion": "Mercado movilES",
    "Telefono": null,
    "Latitud": -17.7862,
    "Longitud": -63.2236,
    "Fuente": "gamsc"
  },
  {
    "Id": 7284,
    "Departamento": "Santa Cruz",
    "Tipo": "MercadoMovil",
    "Nombre": "Distrito Urbano 1",
    "Direccion": "Mercado movilES",
    "Telefono": null,
    "Latitud": -17.7408,
    "Longitud": -63.1899,
    "Fuente": "gamsc"
  },
  {
    "Id": 7285,
    "Departamento": "Santa Cruz",
    "Tipo": "MercadoMovil",
    "Nombre": "Distrito Urbano 5",
    "Direccion": "Mercado movilES",
    "Telefono": null,
    "Latitud": -17.7374,
    "Longitud": -63.1797,
    "Fuente": "gamsc"
  },
  {
    "Id": 7286,
    "Departamento": "Santa Cruz",
    "Tipo": "MercadoMovil",
    "Nombre": "Distrito Urbano 5",
    "Direccion": "Mercado movilES",
    "Telefono": null,
    "Latitud": -17.7405,
    "Longitud": -63.1714,
    "Fuente": "gamsc"
  },
  {
    "Id": 7287,
    "Departamento": "Santa Cruz",
    "Tipo": "MercadoMovil",
    "Nombre": "Distrito Urbano 5",
    "Direccion": "Mercado movilES",
    "Telefono": null,
    "Latitud": -17.7444,
    "Longitud": -63.1611,
    "Fuente": "gamsc"
  },
  {
    "Id": 7288,
    "Departamento": "Santa Cruz",
    "Tipo": "MercadoMovil",
    "Nombre": "Distrito Urbano 5",
    "Direccion": "Mercado movilES",
    "Telefono": null,
    "Latitud": -17.7478,
    "Longitud": -63.1524,
    "Fuente": "gamsc"
  },
  {
    "Id": 7289,
    "Departamento": "Santa Cruz",
    "Tipo": "MercadoMovil",
    "Nombre": "Distrito Industrial",
    "Direccion": "Mercado movilES",
    "Telefono": null,
    "Latitud": -17.7489,
    "Longitud": -63.1498,
    "Fuente": "gamsc"
  },
  {
    "Id": 7290,
    "Departamento": "Santa Cruz",
    "Tipo": "MercadoMovil",
    "Nombre": "Distrito Urbano 7",
    "Direccion": "Mercado movilES",
    "Telefono": null,
    "Latitud": -17.7866,
    "Longitud": -63.1338,
    "Fuente": "gamsc"
  },
  {
    "Id": 7291,
    "Departamento": "Santa Cruz",
    "Tipo": "MercadoMovil",
    "Nombre": "Distrito Urbano 7",
    "Direccion": "Mercado movilES",
    "Telefono": null,
    "Latitud": -17.8015,
    "Longitud": -63.1353,
    "Fuente": "gamsc"
  },
  {
    "Id": 7292,
    "Departamento": "Santa Cruz",
    "Tipo": "MercadoMovil",
    "Nombre": "Distrito Urbano 7",
    "Direccion": "Mercado movilES",
    "Telefono": null,
    "Latitud": -17.7845,
    "Longitud": -63.1275,
    "Fuente": "gamsc"
  },
  {
    "Id": 7293,
    "Departamento": "Santa Cruz",
    "Tipo": "MercadoMovil",
    "Nombre": "Distrito Urbano 7",
    "Direccion": "Mercado movilES",
    "Telefono": null,
    "Latitud": -17.7924,
    "Longitud": -63.1266,
    "Fuente": "gamsc"
  },
  {
    "Id": 7294,
    "Departamento": "Santa Cruz",
    "Tipo": "MercadoMovil",
    "Nombre": "Distrito Urbano 7",
    "Direccion": "Mercado movilES",
    "Telefono": null,
    "Latitud": -17.797,
    "Longitud": -63.127,
    "Fuente": "gamsc"
  },
  {
    "Id": 7295,
    "Departamento": "Santa Cruz",
    "Tipo": "MercadoMovil",
    "Nombre": "Distrito Urbano 7",
    "Direccion": "Mercado movilES",
    "Telefono": null,
    "Latitud": -17.8022,
    "Longitud": -63.1276,
    "Fuente": "gamsc"
  },
  {
    "Id": 7296,
    "Departamento": "Santa Cruz",
    "Tipo": "MercadoMovil",
    "Nombre": "Distrito Urbano 8",
    "Direccion": "Mercado movilES",
    "Telefono": null,
    "Latitud": -17.812,
    "Longitud": -63.1366,
    "Fuente": "gamsc"
  },
  {
    "Id": 7297,
    "Departamento": "Santa Cruz",
    "Tipo": "MercadoMovil",
    "Nombre": "Distrito Urbano 8",
    "Direccion": "Mercado movilES",
    "Telefono": null,
    "Latitud": -17.8149,
    "Longitud": -63.1287,
    "Fuente": "gamsc"
  },
  {
    "Id": 7298,
    "Departamento": "Santa Cruz",
    "Tipo": "MercadoMovil",
    "Nombre": "Distrito Urbano 8",
    "Direccion": "Mercado movilES",
    "Telefono": null,
    "Latitud": -17.8211,
    "Longitud": -63.1358,
    "Fuente": "gamsc"
  },
  {
    "Id": 7299,
    "Departamento": "Santa Cruz",
    "Tipo": "MercadoMovil",
    "Nombre": "Distrito Urbano 9",
    "Direccion": "Mercado movilES",
    "Telefono": null,
    "Latitud": -17.8264,
    "Longitud": -63.1587,
    "Fuente": "gamsc"
  },
  {
    "Id": 7300,
    "Departamento": "Santa Cruz",
    "Tipo": "MercadoMovil",
    "Nombre": "Distrito Urbano 8",
    "Direccion": "Mercado movilES",
    "Telefono": null,
    "Latitud": -17.8289,
    "Longitud": -63.1391,
    "Fuente": "gamsc"
  },
  {
    "Id": 7301,
    "Departamento": "Santa Cruz",
    "Tipo": "MercadoMovil",
    "Nombre": "Distrito Urbano 12",
    "Direccion": "Mercado movilES",
    "Telefono": null,
    "Latitud": -17.8344,
    "Longitud": -63.1657,
    "Fuente": "gamsc"
  },
  {
    "Id": 7302,
    "Departamento": "Santa Cruz",
    "Tipo": "MercadoMovil",
    "Nombre": "Distrito Urbano 9",
    "Direccion": "Mercado movilES",
    "Telefono": null,
    "Latitud": -17.8235,
    "Longitud": -63.1647,
    "Fuente": "gamsc"
  },
  {
    "Id": 7303,
    "Departamento": "Santa Cruz",
    "Tipo": "MercadoMovil",
    "Nombre": "Distrito Urbano 9",
    "Direccion": "Mercado movilES",
    "Telefono": null,
    "Latitud": -17.8411,
    "Longitud": -63.1722,
    "Fuente": "gamsc"
  },
  {
    "Id": 7304,
    "Departamento": "Santa Cruz",
    "Tipo": "MercadoMovil",
    "Nombre": "Distrito Urbano 12",
    "Direccion": "Mercado movilES",
    "Telefono": null,
    "Latitud": -17.8407,
    "Longitud": -63.1605,
    "Fuente": "gamsc"
  },
  {
    "Id": 7305,
    "Departamento": "Santa Cruz",
    "Tipo": "MercadoMovil",
    "Nombre": "Distrito Urbano 9",
    "Direccion": "Mercado movilES",
    "Telefono": null,
    "Latitud": -17.8451,
    "Longitud": -63.1811,
    "Fuente": "gamsc"
  },
  {
    "Id": 7306,
    "Departamento": "Santa Cruz",
    "Tipo": "MercadoMovil",
    "Nombre": "Distrito Urbano 12",
    "Direccion": "Mercado movilES",
    "Telefono": null,
    "Latitud": -17.8519,
    "Longitud": -63.1812,
    "Fuente": "gamsc"
  },
  {
    "Id": 7307,
    "Departamento": "Santa Cruz",
    "Tipo": "MercadoMovil",
    "Nombre": "Distrito Urbano 12",
    "Direccion": "Mercado movilES",
    "Telefono": null,
    "Latitud": -17.8591,
    "Longitud": -63.1864,
    "Fuente": "gamsc"
  },
  {
    "Id": 7308,
    "Departamento": "Santa Cruz",
    "Tipo": "MercadoMovil",
    "Nombre": "Distrito Urbano 9",
    "Direccion": "Mercado movilES",
    "Telefono": null,
    "Latitud": -17.8518,
    "Longitud": -63.1986,
    "Fuente": "gamsc"
  },
  {
    "Id": 7309,
    "Departamento": "Santa Cruz",
    "Tipo": "MercadoMovil",
    "Nombre": "Distrito Urbano 9",
    "Direccion": "Mercado movilES",
    "Telefono": null,
    "Latitud": -17.8415,
    "Longitud": -63.1959,
    "Fuente": "gamsc"
  },
  {
    "Id": 7310,
    "Departamento": "Santa Cruz",
    "Tipo": "MercadoMovil",
    "Nombre": "Distrito Urbano 10",
    "Direccion": "Mercado movilES",
    "Telefono": null,
    "Latitud": -17.8356,
    "Longitud": -63.2082,
    "Fuente": "gamsc"
  },
  {
    "Id": 7311,
    "Departamento": "Santa Cruz",
    "Tipo": "MercadoMovil",
    "Nombre": "Distrito Urbano 10",
    "Direccion": "Mercado movilES",
    "Telefono": null,
    "Latitud": -17.8435,
    "Longitud": -63.2137,
    "Fuente": "gamsc"
  },
  {
    "Id": 7312,
    "Departamento": "Santa Cruz",
    "Tipo": "MercadoMovil",
    "Nombre": "Distrito Urbano 10",
    "Direccion": "Mercado movilES",
    "Telefono": null,
    "Latitud": -17.8273,
    "Longitud": -63.2151,
    "Fuente": "gamsc"
  },
  {
    "Id": 7313,
    "Departamento": "Santa Cruz",
    "Tipo": "MercadoMovil",
    "Nombre": "Distrito Urbano 10",
    "Direccion": "Mercado movilES",
    "Telefono": null,
    "Latitud": -17.8373,
    "Longitud": -63.2231,
    "Fuente": "gamsc"
  },
  {
    "Id": 7314,
    "Departamento": "Santa Cruz",
    "Tipo": "MercadoMovil",
    "Nombre": "Distrito Urbano 10",
    "Direccion": "Mercado movilES",
    "Telefono": null,
    "Latitud": -17.8224,
    "Longitud": -63.2202,
    "Fuente": "gamsc"
  },
  {
    "Id": 7315,
    "Departamento": "Santa Cruz",
    "Tipo": "MercadoMovil",
    "Nombre": "Distrito Urbano 10",
    "Direccion": "Mercado movilES",
    "Telefono": null,
    "Latitud": -17.8315,
    "Longitud": -63.2304,
    "Fuente": "gamsc"
  },
  {
    "Id": 7316,
    "Departamento": "Santa Cruz",
    "Tipo": "MercadoMovil",
    "Nombre": "Distrito Urbano 10",
    "Direccion": "Mercado movilES",
    "Telefono": null,
    "Latitud": -17.8174,
    "Longitud": -63.2257,
    "Fuente": "gamsc"
  },
  {
    "Id": 7317,
    "Departamento": "Santa Cruz",
    "Tipo": "MercadoMovil",
    "Nombre": "Distrito Urbano 10",
    "Direccion": "Mercado movilES",
    "Telefono": null,
    "Latitud": -17.8248,
    "Longitud": -63.234,
    "Fuente": "gamsc"
  },
  {
    "Id": 7318,
    "Departamento": "Santa Cruz",
    "Tipo": "MercadoMovil",
    "Nombre": "Distrito Urbano 10",
    "Direccion": "Mercado movilES",
    "Telefono": null,
    "Latitud": -17.8108,
    "Longitud": -63.2328,
    "Fuente": "gamsc"
  },
  {
    "Id": 7319,
    "Departamento": "Santa Cruz",
    "Tipo": "MercadoMovil",
    "Nombre": "Distrito Urbano 10",
    "Direccion": "Mercado movilES",
    "Telefono": null,
    "Latitud": -17.816,
    "Longitud": -63.2386,
    "Fuente": "gamsc"
  },
  {
    "Id": 7320,
    "Departamento": "Santa Cruz",
    "Tipo": "MercadoMovil",
    "Nombre": "Distrito Urbano 5",
    "Direccion": "Mercado movilES",
    "Telefono": null,
    "Latitud": -17.7249,
    "Longitud": -63.1908,
    "Fuente": "gamsc"
  },
  {
    "Id": 7321,
    "Departamento": "Santa Cruz",
    "Tipo": "MercadoMovil",
    "Nombre": "Distrito Urbano 5",
    "Direccion": "Mercado movilES",
    "Telefono": null,
    "Latitud": -17.7209,
    "Longitud": -63.1893,
    "Fuente": "gamsc"
  },
  {
    "Id": 7322,
    "Departamento": "Santa Cruz",
    "Tipo": "MercadoMovil",
    "Nombre": "Distrito Urbano 5",
    "Direccion": "Mercado movilES",
    "Telefono": null,
    "Latitud": -17.7293,
    "Longitud": -63.1759,
    "Fuente": "gamsc"
  },
  {
    "Id": 7323,
    "Departamento": "Santa Cruz",
    "Tipo": "MercadoMovil",
    "Nombre": "Distrito Urbano 5",
    "Direccion": "Mercado movilES",
    "Telefono": null,
    "Latitud": -17.7223,
    "Longitud": -63.1734,
    "Fuente": "gamsc"
  },
  {
    "Id": 7324,
    "Departamento": "Santa Cruz",
    "Tipo": "MercadoMovil",
    "Nombre": "Distrito Urbano 5",
    "Direccion": "Mercado movilES",
    "Telefono": null,
    "Latitud": -17.7199,
    "Longitud": -63.1807,
    "Fuente": "gamsc"
  },
  {
    "Id": 7325,
    "Departamento": "Santa Cruz",
    "Tipo": "MercadoMovil",
    "Nombre": "Distrito Urbano 5",
    "Direccion": "Mercado movilES",
    "Telefono": null,
    "Latitud": -17.7349,
    "Longitud": -63.1603,
    "Fuente": "gamsc"
  },
  {
    "Id": 7326,
    "Departamento": "Santa Cruz",
    "Tipo": "MercadoMovil",
    "Nombre": "Distrito Urbano 5",
    "Direccion": "Mercado movilES",
    "Telefono": null,
    "Latitud": -17.7283,
    "Longitud": -63.157,
    "Fuente": "gamsc"
  },
  {
    "Id": 7327,
    "Departamento": "Santa Cruz",
    "Tipo": "MercadoMovil",
    "Nombre": "Distrito Urbano 5",
    "Direccion": "Mercado movilES",
    "Telefono": null,
    "Latitud": -17.731,
    "Longitud": -63.1502,
    "Fuente": "gamsc"
  },
  {
    "Id": 7328,
    "Departamento": "Santa Cruz",
    "Tipo": "MercadoMovil",
    "Nombre": "Distrito Urbano 4",
    "Direccion": "Mercado movilES",
    "Telefono": null,
    "Latitud": -17.8009,
    "Longitud": -63.1857,
    "Fuente": "gamsc"
  },
  {
    "Id": 7329,
    "Departamento": "Santa Cruz",
    "Tipo": "MercadoMovil",
    "Nombre": "Distrito Urbano 4",
    "Direccion": "Mercado movilES",
    "Telefono": null,
    "Latitud": -17.8009,
    "Longitud": -63.1892,
    "Fuente": "gamsc"
  },
  {
    "Id": 7330,
    "Departamento": "Santa Cruz",
    "Tipo": "MercadoMovil",
    "Nombre": "Distrito Urbano 11",
    "Direccion": "Mercado movilES",
    "Telefono": null,
    "Latitud": -17.7981,
    "Longitud": -63.1927,
    "Fuente": "gamsc"
  },
  {
    "Id": 7331,
    "Departamento": "Santa Cruz",
    "Tipo": "MercadoMovil",
    "Nombre": "Distrito Urbano 1",
    "Direccion": "Mercado movilES",
    "Telefono": null,
    "Latitud": -17.7849,
    "Longitud": -63.195,
    "Fuente": "gamsc"
  },
  {
    "Id": 7332,
    "Departamento": "Santa Cruz",
    "Tipo": "MercadoMovil",
    "Nombre": "Distrito Urbano 3",
    "Direccion": "Mercado movilES",
    "Telefono": null,
    "Latitud": -17.8045,
    "Longitud": -63.1654,
    "Fuente": "gamsc"
  },
  {
    "Id": 7333,
    "Departamento": "Santa Cruz",
    "Tipo": "MercadoMovil",
    "Nombre": "Distrito Urbano 4",
    "Direccion": "Mercado movilES",
    "Telefono": null,
    "Latitud": -17.8111,
    "Longitud": -63.1742,
    "Fuente": "gamsc"
  },
  {
    "Id": 7334,
    "Departamento": "Santa Cruz",
    "Tipo": "MercadoMovil",
    "Nombre": "Distrito Urbano 4",
    "Direccion": "Mercado movilES",
    "Telefono": null,
    "Latitud": -17.8106,
    "Longitud": -63.1774,
    "Fuente": "gamsc"
  },
  {
    "Id": 7335,
    "Departamento": "Santa Cruz",
    "Tipo": "MercadoMovil",
    "Nombre": "Distrito Urbano 4",
    "Direccion": "Mercado movilES",
    "Telefono": null,
    "Latitud": -17.811,
    "Longitud": -63.1902,
    "Fuente": "gamsc"
  },
  {
    "Id": 7336,
    "Departamento": "Santa Cruz",
    "Tipo": "MercadoMovil",
    "Nombre": "Distrito Urbano 4",
    "Direccion": "Mercado movilES",
    "Telefono": null,
    "Latitud": -17.8104,
    "Longitud": -63.1951,
    "Fuente": "gamsc"
  },
  {
    "Id": 7337,
    "Departamento": "Santa Cruz",
    "Tipo": "MercadoMovil",
    "Nombre": "Distrito Urbano 5",
    "Direccion": "Mercado movilES",
    "Telefono": null,
    "Latitud": -17.7373,
    "Longitud": -63.1542,
    "Fuente": "gamsc"
  },
  {
    "Id": 7338,
    "Departamento": "Santa Cruz",
    "Tipo": "MercadoMovil",
    "Nombre": "Distrito Industrial",
    "Direccion": "Mercado movilES",
    "Telefono": null,
    "Latitud": -17.7368,
    "Longitud": -63.1416,
    "Fuente": "gamsc"
  },
  {
    "Id": 7339,
    "Departamento": "Santa Cruz",
    "Tipo": "MercadoMovil",
    "Nombre": "Distrito Industrial",
    "Direccion": "Mercado movilES",
    "Telefono": null,
    "Latitud": -17.7425,
    "Longitud": -63.1455,
    "Fuente": "gamsc"
  },
  {
    "Id": 7340,
    "Departamento": "Santa Cruz",
    "Tipo": "MercadoMovil",
    "Nombre": "Distrito Urbano 5",
    "Direccion": "Mercado movilES",
    "Telefono": null,
    "Latitud": -17.7348,
    "Longitud": -63.1439,
    "Fuente": "gamsc"
  },
  {
    "Id": 7341,
    "Departamento": "Santa Cruz",
    "Tipo": "MercadoMovil",
    "Nombre": "Distrito Urbano 5",
    "Direccion": "Mercado movilES",
    "Telefono": null,
    "Latitud": -17.741,
    "Longitud": -63.148,
    "Fuente": "gamsc"
  },
  {
    "Id": 7342,
    "Departamento": "Santa Cruz",
    "Tipo": "MercadoMovil",
    "Nombre": "Distrito Urbano 6",
    "Direccion": "Mercado movilES",
    "Telefono": null,
    "Latitud": -17.7426,
    "Longitud": -63.114,
    "Fuente": "gamsc"
  },
  {
    "Id": 7343,
    "Departamento": "Santa Cruz",
    "Tipo": "MercadoMovil",
    "Nombre": "Distrito Urbano 6",
    "Direccion": "Mercado movilES",
    "Telefono": null,
    "Latitud": -17.752,
    "Longitud": -63.1291,
    "Fuente": "gamsc"
  },
  {
    "Id": 7344,
    "Departamento": "Santa Cruz",
    "Tipo": "MercadoMovil",
    "Nombre": "Distrito Urbano 6",
    "Direccion": "Mercado movilES",
    "Telefono": null,
    "Latitud": -17.7618,
    "Longitud": -63.1274,
    "Fuente": "gamsc"
  },
  {
    "Id": 7345,
    "Departamento": "Santa Cruz",
    "Tipo": "MercadoMovil",
    "Nombre": "Distrito Urbano 6",
    "Direccion": "Mercado movilES",
    "Telefono": null,
    "Latitud": -17.7594,
    "Longitud": -63.1205,
    "Fuente": "gamsc"
  },
  {
    "Id": 7346,
    "Departamento": "Santa Cruz",
    "Tipo": "MercadoMovil",
    "Nombre": "Distrito Urbano 5",
    "Direccion": "Mercado movilES",
    "Telefono": null,
    "Latitud": -17.7163,
    "Longitud": -63.162,
    "Fuente": "gamsc"
  },
  {
    "Id": 7347,
    "Departamento": "Santa Cruz",
    "Tipo": "MercadoMovil",
    "Nombre": "Distrito Urbano 9",
    "Direccion": "Mercado movilES",
    "Telefono": null,
    "Latitud": -17.8294,
    "Longitud": -63.2001,
    "Fuente": "gamsc"
  },
  {
    "Id": 7348,
    "Departamento": "Santa Cruz",
    "Tipo": "MercadoMovil",
    "Nombre": "Distrito Urbano 5",
    "Direccion": "Mercado movilES",
    "Telefono": null,
    "Latitud": -17.7094,
    "Longitud": -63.16,
    "Fuente": "gamsc"
  },
  {
    "Id": 7349,
    "Departamento": "Santa Cruz",
    "Tipo": "MercadoMovil",
    "Nombre": "Distrito Urbano 5",
    "Direccion": "Mercado movilES",
    "Telefono": null,
    "Latitud": -17.7039,
    "Longitud": -63.1597,
    "Fuente": "gamsc"
  },
  {
    "Id": 7350,
    "Departamento": "Santa Cruz",
    "Tipo": "MercadoMovil",
    "Nombre": "Distrito Urbano 5",
    "Direccion": "Mercado movilES",
    "Telefono": null,
    "Latitud": -17.6984,
    "Longitud": -63.1351,
    "Fuente": "gamsc"
  },
  {
    "Id": 7351,
    "Departamento": "Santa Cruz",
    "Tipo": "MercadoMovil",
    "Nombre": "Distrito Urbano 5",
    "Direccion": "Mercado movilES",
    "Telefono": null,
    "Latitud": -17.687,
    "Longitud": -63.1464,
    "Fuente": "gamsc"
  },
  {
    "Id": 7352,
    "Departamento": "Santa Cruz",
    "Tipo": "MercadoMovil",
    "Nombre": "Distrito Urbano 5",
    "Direccion": "Mercado movilES",
    "Telefono": null,
    "Latitud": -17.7328,
    "Longitud": -63.156,
    "Fuente": "gamsc"
  },
  {
    "Id": 7353,
    "Departamento": "Santa Cruz",
    "Tipo": "MercadoMovil",
    "Nombre": "Distrito Urbano 5",
    "Direccion": "Mercado movilES",
    "Telefono": null,
    "Latitud": -17.7315,
    "Longitud": -63.1638,
    "Fuente": "gamsc"
  },
  {
    "Id": 7354,
    "Departamento": "Santa Cruz",
    "Tipo": "MercadoMovil",
    "Nombre": "Distrito Urbano 5",
    "Direccion": "Mercado movilES",
    "Telefono": null,
    "Latitud": -17.7164,
    "Longitud": -63.1562,
    "Fuente": "gamsc"
  },
  {
    "Id": 7355,
    "Departamento": "Santa Cruz",
    "Tipo": "MercadoMovil",
    "Nombre": "Distrito Urbano 5",
    "Direccion": "Mercado movilES",
    "Telefono": null,
    "Latitud": -17.696,
    "Longitud": -63.1591,
    "Fuente": "gamsc"
  },
  {
    "Id": 7356,
    "Departamento": "Santa Cruz",
    "Tipo": "MercadoMovil",
    "Nombre": "Distrito Urbano 6",
    "Direccion": "Mercado movilES",
    "Telefono": null,
    "Latitud": -17.7493,
    "Longitud": -63.1104,
    "Fuente": "gamsc"
  },
  {
    "Id": 7357,
    "Departamento": "Santa Cruz",
    "Tipo": "MercadoMovil",
    "Nombre": "Distrito Urbano 6",
    "Direccion": "Mercado movilES",
    "Telefono": null,
    "Latitud": -17.7519,
    "Longitud": -63.0941,
    "Fuente": "gamsc"
  },
  {
    "Id": 7358,
    "Departamento": "Santa Cruz",
    "Tipo": "MercadoMovil",
    "Nombre": "Distrito Urbano 6",
    "Direccion": "Mercado movilES",
    "Telefono": null,
    "Latitud": -17.7501,
    "Longitud": -63.09,
    "Fuente": "gamsc"
  },
  {
    "Id": 7359,
    "Departamento": "Santa Cruz",
    "Tipo": "MercadoMovil",
    "Nombre": "Distrito Urbano 6",
    "Direccion": "Mercado movilES",
    "Telefono": null,
    "Latitud": -17.7535,
    "Longitud": -63.0987,
    "Fuente": "gamsc"
  },
  {
    "Id": 7360,
    "Departamento": "Santa Cruz",
    "Tipo": "MercadoMovil",
    "Nombre": "Distrito Urbano 6",
    "Direccion": "Mercado movilES",
    "Telefono": null,
    "Latitud": -17.7652,
    "Longitud": -63.1131,
    "Fuente": "gamsc"
  },
  {
    "Id": 7361,
    "Departamento": "Santa Cruz",
    "Tipo": "MercadoMovil",
    "Nombre": "Distrito Urbano 6",
    "Direccion": "Mercado movilES",
    "Telefono": null,
    "Latitud": -17.7658,
    "Longitud": -63.1077,
    "Fuente": "gamsc"
  },
  {
    "Id": 7362,
    "Departamento": "Santa Cruz",
    "Tipo": "MercadoMovil",
    "Nombre": "Distrito Urbano 7",
    "Direccion": "Mercado movilES",
    "Telefono": null,
    "Latitud": -17.7768,
    "Longitud": -63.1075,
    "Fuente": "gamsc"
  },
  {
    "Id": 7363,
    "Departamento": "Santa Cruz",
    "Tipo": "MercadoMovil",
    "Nombre": "Distrito Urbano 6",
    "Direccion": "Mercado movilES",
    "Telefono": null,
    "Latitud": -17.7602,
    "Longitud": -63.0899,
    "Fuente": "gamsc"
  },
  {
    "Id": 7364,
    "Departamento": "Santa Cruz",
    "Tipo": "MercadoMovil",
    "Nombre": "Distrito Urbano 6",
    "Direccion": "Mercado movilES",
    "Telefono": null,
    "Latitud": -17.7218,
    "Longitud": -63.0832,
    "Fuente": "gamsc"
  },
  {
    "Id": 7365,
    "Departamento": "Santa Cruz",
    "Tipo": "MercadoMovil",
    "Nombre": "Distrito Urbano 6",
    "Direccion": "Mercado movilES",
    "Telefono": null,
    "Latitud": -17.759,
    "Longitud": -63.0994,
    "Fuente": "gamsc"
  },
  {
    "Id": 7366,
    "Departamento": "Santa Cruz",
    "Tipo": "MercadoMovil",
    "Nombre": "Distrito Urbano 7",
    "Direccion": "Mercado movilES",
    "Telefono": null,
    "Latitud": -17.7914,
    "Longitud": -63.0894,
    "Fuente": "gamsc"
  },
  {
    "Id": 7367,
    "Departamento": "Santa Cruz",
    "Tipo": "MercadoMovil",
    "Nombre": "Distrito Urbano 7",
    "Direccion": "Mercado movilES",
    "Telefono": null,
    "Latitud": -17.7986,
    "Longitud": -63.0862,
    "Fuente": "gamsc"
  },
  {
    "Id": 7368,
    "Departamento": "Santa Cruz",
    "Tipo": "MercadoMovil",
    "Nombre": "Distrito Urbano 7",
    "Direccion": "Mercado movilES",
    "Telefono": null,
    "Latitud": -17.7835,
    "Longitud": -63.0907,
    "Fuente": "gamsc"
  },
  {
    "Id": 7369,
    "Departamento": "Santa Cruz",
    "Tipo": "MercadoMovil",
    "Nombre": "Distrito Urbano 6",
    "Direccion": "Mercado movilES",
    "Telefono": null,
    "Latitud": -17.7667,
    "Longitud": -63.0949,
    "Fuente": "gamsc"
  },
  {
    "Id": 7370,
    "Departamento": "Santa Cruz",
    "Tipo": "MercadoMovil",
    "Nombre": "Distrito Urbano 7",
    "Direccion": "Mercado movilES",
    "Telefono": null,
    "Latitud": -17.7927,
    "Longitud": -63.1181,
    "Fuente": "gamsc"
  },
  {
    "Id": 7371,
    "Departamento": "Santa Cruz",
    "Tipo": "MercadoMovil",
    "Nombre": "Distrito Urbano 7",
    "Direccion": "Mercado movilES",
    "Telefono": null,
    "Latitud": -17.7929,
    "Longitud": -63.1085,
    "Fuente": "gamsc"
  },
  {
    "Id": 7372,
    "Departamento": "Santa Cruz",
    "Tipo": "MercadoMovil",
    "Nombre": "Distrito Urbano 7",
    "Direccion": "Mercado movilES",
    "Telefono": null,
    "Latitud": -17.7974,
    "Longitud": -63.1185,
    "Fuente": "gamsc"
  },
  {
    "Id": 7373,
    "Departamento": "Santa Cruz",
    "Tipo": "MercadoMovil",
    "Nombre": "Distrito Urbano 1",
    "Direccion": "B. LAS CARMELITAS  UE SARAH PORRAS",
    "Telefono": null,
    "Latitud": -17.796,
    "Longitud": -63.2231,
    "Fuente": "gamsc"
  },
  {
    "Id": 7374,
    "Departamento": "Santa Cruz",
    "Tipo": "MercadoMovil",
    "Nombre": "Distrito Urbano 11",
    "Direccion": "ROTONDA 2DO ANILLO AV. GUAPAY O CAnaL COTOCA",
    "Telefono": null,
    "Latitud": -17.7783,
    "Longitud": -63.1651,
    "Fuente": "gamsc"
  },
  {
    "Id": 7375,
    "Departamento": "Santa Cruz",
    "Tipo": "MercadoMovil",
    "Nombre": "Distrito Urbano 11",
    "Direccion": "ROTONDA 2DO ANILLO PARAGUA",
    "Telefono": null,
    "Latitud": -17.7743,
    "Longitud": -63.1659,
    "Fuente": "gamsc"
  },
  {
    "Id": 7376,
    "Departamento": "Santa Cruz",
    "Tipo": "MercadoMovil",
    "Nombre": "Distrito Urbano 11",
    "Direccion": "ROTONDA 2DO ANILLO MUTUALISTA",
    "Telefono": null,
    "Latitud": -17.7716,
    "Longitud": -63.1681,
    "Fuente": "gamsc"
  },
  {
    "Id": 7377,
    "Departamento": "Santa Cruz",
    "Tipo": "MercadoMovil",
    "Nombre": "Distrito Urbano 11",
    "Direccion": "ROTONDA 2DO ANILLO AV. ALEMAna",
    "Telefono": null,
    "Latitud": -17.7703,
    "Longitud": -63.1712,
    "Fuente": "gamsc"
  },
  {
    "Id": 7378,
    "Departamento": "Santa Cruz",
    "Tipo": "MercadoMovil",
    "Nombre": "Distrito Urbano 4",
    "Direccion": "Mercado movilES",
    "Telefono": null,
    "Latitud": -17.8064,
    "Longitud": -63.1972,
    "Fuente": "gamsc"
  },
  {
    "Id": 7379,
    "Departamento": "Santa Cruz",
    "Tipo": "MercadoMovil",
    "Nombre": "Distrito Urbano 4",
    "Direccion": "Mercado movilES",
    "Telefono": null,
    "Latitud": -17.8039,
    "Longitud": -63.1992,
    "Fuente": "gamsc"
  },
  {
    "Id": 7380,
    "Departamento": "Santa Cruz",
    "Tipo": "MercadoMovil",
    "Nombre": "Distrito Urbano 1",
    "Direccion": "Mercado movilES",
    "Telefono": null,
    "Latitud": -17.79,
    "Longitud": -63.2049,
    "Fuente": "gamsc"
  },
  {
    "Id": 7381,
    "Departamento": "Santa Cruz",
    "Tipo": "MercadoMovil",
    "Nombre": "Distrito Urbano 1",
    "Direccion": "Mercado movilES",
    "Telefono": null,
    "Latitud": -17.7853,
    "Longitud": -63.2046,
    "Fuente": "gamsc"
  },
  {
    "Id": 7382,
    "Departamento": "Santa Cruz",
    "Tipo": "MercadoMovil",
    "Nombre": "Distrito Urbano 1",
    "Direccion": "Mercado movilES",
    "Telefono": null,
    "Latitud": -17.7776,
    "Longitud": -63.2036,
    "Fuente": "gamsc"
  },
  {
    "Id": 7383,
    "Departamento": "Santa Cruz",
    "Tipo": "MercadoMovil",
    "Nombre": "Distrito Urbano 1",
    "Direccion": "Mercado movilES",
    "Telefono": null,
    "Latitud": -17.7696,
    "Longitud": -63.2017,
    "Fuente": "gamsc"
  },
  {
    "Id": 7384,
    "Departamento": "Santa Cruz",
    "Tipo": "MercadoMovil",
    "Nombre": "Distrito Urbano 7",
    "Direccion": "Mercado movilES",
    "Telefono": null,
    "Latitud": -17.7979,
    "Longitud": -63.1088,
    "Fuente": "gamsc"
  },
  {
    "Id": 7385,
    "Departamento": "Santa Cruz",
    "Tipo": "MercadoMovil",
    "Nombre": "Distrito Urbano 7",
    "Direccion": "Mercado movilES",
    "Telefono": null,
    "Latitud": -17.8024,
    "Longitud": -63.1171,
    "Fuente": "gamsc"
  },
  {
    "Id": 7386,
    "Departamento": "Santa Cruz",
    "Tipo": "MercadoMovil",
    "Nombre": "Distrito Urbano 7",
    "Direccion": "Mercado movilES",
    "Telefono": null,
    "Latitud": -17.8028,
    "Longitud": -63.1091,
    "Fuente": "gamsc"
  },
  {
    "Id": 7387,
    "Departamento": "Santa Cruz",
    "Tipo": "MercadoMovil",
    "Nombre": "Distrito Urbano 7",
    "Direccion": "Mercado movilES",
    "Telefono": null,
    "Latitud": -17.8022,
    "Longitud": -63.0982,
    "Fuente": "gamsc"
  },
  {
    "Id": 7388,
    "Departamento": "Santa Cruz",
    "Tipo": "MercadoMovil",
    "Nombre": "Distrito Urbano 8",
    "Direccion": "Mercado movilES",
    "Telefono": null,
    "Latitud": -17.8217,
    "Longitud": -63.125,
    "Fuente": "gamsc"
  },
  {
    "Id": 7389,
    "Departamento": "Santa Cruz",
    "Tipo": "MercadoMovil",
    "Nombre": "Distrito Urbano 8",
    "Direccion": "Mercado movilES",
    "Telefono": null,
    "Latitud": -17.8138,
    "Longitud": -63.1098,
    "Fuente": "gamsc"
  },
  {
    "Id": 7390,
    "Departamento": "Santa Cruz",
    "Tipo": "MercadoMovil",
    "Nombre": "Distrito Urbano 8",
    "Direccion": "Mercado movilES",
    "Telefono": null,
    "Latitud": -17.8276,
    "Longitud": -63.0966,
    "Fuente": "gamsc"
  },
  {
    "Id": 7391,
    "Departamento": "Santa Cruz",
    "Tipo": "MercadoMovil",
    "Nombre": "Distrito Urbano 8",
    "Direccion": "Mercado movilES",
    "Telefono": null,
    "Latitud": -17.8386,
    "Longitud": -63.1202,
    "Fuente": "gamsc"
  },
  {
    "Id": 7392,
    "Departamento": "Santa Cruz",
    "Tipo": "MercadoMovil",
    "Nombre": "Distrito Urbano 5",
    "Direccion": "Mercado movilES",
    "Telefono": null,
    "Latitud": -17.6941,
    "Longitud": -63.1636,
    "Fuente": "gamsc"
  },
  {
    "Id": 7393,
    "Departamento": "Santa Cruz",
    "Tipo": "MercadoMovil",
    "Nombre": "Distrito Urbano 5",
    "Direccion": "Mercado movilES",
    "Telefono": null,
    "Latitud": -17.723,
    "Longitud": -63.1794,
    "Fuente": "gamsc"
  },
  {
    "Id": 7394,
    "Departamento": "Santa Cruz",
    "Tipo": "MercadoMovil",
    "Nombre": "Distrito Urbano 5",
    "Direccion": "Mercado movilES",
    "Telefono": null,
    "Latitud": -17.7295,
    "Longitud": -63.1807,
    "Fuente": "gamsc"
  },
  {
    "Id": 7395,
    "Departamento": "Santa Cruz",
    "Tipo": "MercadoMovil",
    "Nombre": "Distrito Urbano 6",
    "Direccion": "Mercado movilES",
    "Telefono": null,
    "Latitud": -17.7368,
    "Longitud": -63.1116,
    "Fuente": "gamsc"
  },
  {
    "Id": 7396,
    "Departamento": "Santa Cruz",
    "Tipo": "MercadoMovil",
    "Nombre": "Distrito Urbano 12",
    "Direccion": "Mercado movilES",
    "Telefono": null,
    "Latitud": -17.8429,
    "Longitud": -63.1725,
    "Fuente": "gamsc"
  },
  {
    "Id": 7397,
    "Departamento": "Santa Cruz",
    "Tipo": "MercadoMovil",
    "Nombre": "Distrito Urbano 12",
    "Direccion": "Mercado movilES",
    "Telefono": null,
    "Latitud": -17.8731,
    "Longitud": -63.1923,
    "Fuente": "gamsc"
  },
  {
    "Id": 7398,
    "Departamento": "Santa Cruz",
    "Tipo": "MercadoMovil",
    "Nombre": "Distrito Urbano 12",
    "Direccion": "Mercado movilES",
    "Telefono": null,
    "Latitud": -17.8539,
    "Longitud": -63.1468,
    "Fuente": "gamsc"
  },
  {
    "Id": 7399,
    "Departamento": "Santa Cruz",
    "Tipo": "MercadoMovil",
    "Nombre": "Distrito Urbano 10",
    "Direccion": "Mercado movilES",
    "Telefono": null,
    "Latitud": -17.8511,
    "Longitud": -63.2191,
    "Fuente": "gamsc"
  },
  {
    "Id": 7400,
    "Departamento": "Santa Cruz",
    "Tipo": "MercadoMovil",
    "Nombre": "Distrito Urbano 10",
    "Direccion": "Mercado movilES",
    "Telefono": null,
    "Latitud": -17.856,
    "Longitud": -63.2139,
    "Fuente": "gamsc"
  },
  {
    "Id": 7401,
    "Departamento": "Santa Cruz",
    "Tipo": "MercadoMovil",
    "Nombre": "Distrito Urbano 5",
    "Direccion": "Mercado movilES",
    "Telefono": null,
    "Latitud": -17.7141,
    "Longitud": -63.1864,
    "Fuente": "gamsc"
  },
  {
    "Id": 7402,
    "Departamento": "Santa Cruz",
    "Tipo": "MercadoMovil",
    "Nombre": "Distrito Urbano 5",
    "Direccion": "Mercado movilES",
    "Telefono": null,
    "Latitud": -17.6836,
    "Longitud": -63.1803,
    "Fuente": "gamsc"
  },
  {
    "Id": 7403,
    "Departamento": "Santa Cruz",
    "Tipo": "MercadoMovil",
    "Nombre": "Distrito Urbano 5",
    "Direccion": "Mercado movilES",
    "Telefono": null,
    "Latitud": -17.6865,
    "Longitud": -63.172,
    "Fuente": "gamsc"
  },
  {
    "Id": 7404,
    "Departamento": "Santa Cruz",
    "Tipo": "MercadoMovil",
    "Nombre": "Distrito Urbano 9",
    "Direccion": "Mercado movilES",
    "Telefono": null,
    "Latitud": -17.8658,
    "Longitud": -63.2022,
    "Fuente": "gamsc"
  },
  {
    "Id": 7405,
    "Departamento": "Santa Cruz",
    "Tipo": "MercadoMovil",
    "Nombre": "Distrito Urbano 12",
    "Direccion": "Mercado movilES",
    "Telefono": null,
    "Latitud": -17.8546,
    "Longitud": -63.1636,
    "Fuente": "gamsc"
  },
  {
    "Id": 7406,
    "Departamento": "Santa Cruz",
    "Tipo": "MercadoMovil",
    "Nombre": "Distrito Urbano 12",
    "Direccion": "Mercado movilES",
    "Telefono": null,
    "Latitud": -17.857,
    "Longitud": -63.1769,
    "Fuente": "gamsc"
  },
  {
    "Id": 7407,
    "Departamento": "Santa Cruz",
    "Tipo": "MercadoMovil",
    "Nombre": "Distrito Urbano 9",
    "Direccion": "Mercado movilES",
    "Telefono": null,
    "Latitud": -17.8657,
    "Longitud": -63.1893,
    "Fuente": "gamsc"
  },
  {
    "Id": 7408,
    "Departamento": "Santa Cruz",
    "Tipo": "MercadoMovil",
    "Nombre": "Distrito Urbano/Rural 13",
    "Direccion": "Mercado movilES",
    "Telefono": null,
    "Latitud": -17.8857,
    "Longitud": -63.1145,
    "Fuente": "gamsc"
  },
  {
    "Id": 7409,
    "Departamento": "Santa Cruz",
    "Tipo": "MercadoMovil",
    "Nombre": "Distrito Urbano 5",
    "Direccion": "Mercado movilES",
    "Telefono": null,
    "Latitud": -17.7115,
    "Longitud": -63.1277,
    "Fuente": "gamsc"
  },
  {
    "Id": 7410,
    "Departamento": "Santa Cruz",
    "Tipo": "MercadoMovil",
    "Nombre": "Distrito Urbano 5",
    "Direccion": "Mercado movilES",
    "Telefono": null,
    "Latitud": -17.7039,
    "Longitud": -63.173,
    "Fuente": "gamsc"
  },
  {
    "Id": 7411,
    "Departamento": "Santa Cruz",
    "Tipo": "MercadoMovil",
    "Nombre": "Distrito Urbano 5",
    "Direccion": "Mercado movilES",
    "Telefono": null,
    "Latitud": -17.7199,
    "Longitud": -63.1526,
    "Fuente": "gamsc"
  },
  {
    "Id": 7412,
    "Departamento": "Santa Cruz",
    "Tipo": "MercadoMovil",
    "Nombre": "Distrito Industrial",
    "Direccion": "Mercado movilES",
    "Telefono": null,
    "Latitud": -17.7281,
    "Longitud": -63.1359,
    "Fuente": "gamsc"
  },
  {
    "Id": 7413,
    "Departamento": "Santa Cruz",
    "Tipo": "MercadoMovil",
    "Nombre": "Distrito Industrial",
    "Direccion": "Mercado movilES",
    "Telefono": null,
    "Latitud": -17.7201,
    "Longitud": -63.1306,
    "Fuente": "gamsc"
  },
  {
    "Id": 7414,
    "Departamento": "Santa Cruz",
    "Tipo": "MercadoMovil",
    "Nombre": "Distrito Urbano 5",
    "Direccion": "Mercado movilES",
    "Telefono": null,
    "Latitud": -17.7136,
    "Longitud": -63.147,
    "Fuente": "gamsc"
  },
  {
    "Id": 7415,
    "Departamento": "Santa Cruz",
    "Tipo": "MercadoMovil",
    "Nombre": "Distrito Urbano 6",
    "Direccion": "Mercado movilES",
    "Telefono": null,
    "Latitud": -17.7384,
    "Longitud": -63.1072,
    "Fuente": "gamsc"
  },
  {
    "Id": 7416,
    "Departamento": "Santa Cruz",
    "Tipo": "MercadoMovil",
    "Nombre": "Distrito Urbano 6",
    "Direccion": "Mercado movilES",
    "Telefono": null,
    "Latitud": -17.7354,
    "Longitud": -63.1017,
    "Fuente": "gamsc"
  },
  {
    "Id": 7417,
    "Departamento": "Santa Cruz",
    "Tipo": "MercadoMovil",
    "Nombre": "Distrito Urbano 6",
    "Direccion": "Mercado movilES",
    "Telefono": null,
    "Latitud": -17.7322,
    "Longitud": -63.0962,
    "Fuente": "gamsc"
  },
  {
    "Id": 7418,
    "Departamento": "Santa Cruz",
    "Tipo": "MercadoMovil",
    "Nombre": "Distrito Urbano 6",
    "Direccion": "Mercado movilES",
    "Telefono": null,
    "Latitud": -17.7456,
    "Longitud": -63.1027,
    "Fuente": "gamsc"
  },
  {
    "Id": 7419,
    "Departamento": "Santa Cruz",
    "Tipo": "MercadoMovil",
    "Nombre": "Distrito Urbano 6",
    "Direccion": "Mercado movilES",
    "Telefono": null,
    "Latitud": -17.7433,
    "Longitud": -63.0977,
    "Fuente": "gamsc"
  },
  {
    "Id": 7420,
    "Departamento": "Santa Cruz",
    "Tipo": "MercadoMovil",
    "Nombre": "Distrito Urbano 6",
    "Direccion": "Mercado movilES",
    "Telefono": null,
    "Latitud": -17.7407,
    "Longitud": -63.0917,
    "Fuente": "gamsc"
  },
  {
    "Id": 7421,
    "Departamento": "Santa Cruz",
    "Tipo": "Supermercado",
    "Nombre": "Hipermaxi Suc. España",
    "Direccion": "Santa Cruz de la Sierra",
    "Telefono": null,
    "Latitud": -17.8419,
    "Longitud": -63.1956,
    "Fuente": "gamsc"
  },
  {
    "Id": 7422,
    "Departamento": "Santa Cruz",
    "Tipo": "Supermercado",
    "Nombre": "Supermercado Wonderful",
    "Direccion": "Santa Cruz de la Sierra",
    "Telefono": null,
    "Latitud": -17.8414,
    "Longitud": -63.1956,
    "Fuente": "gamsc"
  },
  {
    "Id": 7423,
    "Departamento": "Santa Cruz",
    "Tipo": "Supermercado",
    "Nombre": "Estación de Servicio Moragrande 1",
    "Direccion": "Zona La Cuchilla, Av Moscú, Quinto anillo, Santa Cruz de la Sierra",
    "Telefono": null,
    "Latitud": -17.8279,
    "Longitud": -63.203,
    "Fuente": "gamsc"
  },
  {
    "Id": 7424,
    "Departamento": "Santa Cruz",
    "Tipo": "Supermercado",
    "Nombre": "Hipermaxi Las Palmas",
    "Direccion": "Doble vía La Guardia, Santa Cruz de la Sierra",
    "Telefono": null,
    "Latitud": -17.8106,
    "Longitud": -63.2085,
    "Fuente": "gamsc"
  },
  {
    "Id": 7425,
    "Departamento": "Santa Cruz",
    "Tipo": "Supermercado",
    "Nombre": "Hiper Bagio",
    "Direccion": "Santa Cruz de la Sierra",
    "Telefono": null,
    "Latitud": -17.8278,
    "Longitud": -63.2266,
    "Fuente": "gamsc"
  },
  {
    "Id": 7426,
    "Departamento": "Santa Cruz",
    "Tipo": "Supermercado",
    "Nombre": "Micromercado Macarena",
    "Direccion": "Avenida Iberica, Santa Cruz de la Sierra",
    "Telefono": null,
    "Latitud": -17.8066,
    "Longitud": -63.2069,
    "Fuente": "gamsc"
  },
  {
    "Id": 7427,
    "Departamento": "Santa Cruz",
    "Tipo": "Supermercado",
    "Nombre": "Hipermercado Plaza",
    "Direccion": "Av. Grigota entre 2do. y 3er. Anillo, Av Grigotá, Santa Cruz de la Sierra",
    "Telefono": null,
    "Latitud": -17.8013,
    "Longitud": -63.196,
    "Fuente": "gamsc"
  },
  {
    "Id": 7428,
    "Departamento": "Santa Cruz",
    "Tipo": "Supermercado",
    "Nombre": "Supermercados Wonderful",
    "Direccion": "Santa Cruz de la Sierra",
    "Telefono": null,
    "Latitud": -17.8189,
    "Longitud": -63.1836,
    "Fuente": "gamsc"
  },
  {
    "Id": 7429,
    "Departamento": "Santa Cruz",
    "Tipo": "Supermercado",
    "Nombre": "Super Tienda QUIna",
    "Direccion": "Av Santos Dumont esquina, Santa Cruz de la Sierra",
    "Telefono": null,
    "Latitud": -17.8201,
    "Longitud": -63.1841,
    "Fuente": "gamsc"
  },
  {
    "Id": 7430,
    "Departamento": "Santa Cruz",
    "Tipo": "Supermercado",
    "Nombre": "Hipermaxi Sur",
    "Direccion": "Av. Santos Dumont entre Av. Mario R. Gutierrez y, Av Roque Aguilera, Santa Cruz de la Sierra",
    "Telefono": null,
    "Latitud": -17.8135,
    "Longitud": -63.1841,
    "Fuente": "gamsc"
  },
  {
    "Id": 7431,
    "Departamento": "Santa Cruz",
    "Tipo": "Supermercado",
    "Nombre": "Supermercados MAX",
    "Direccion": "Av. Radial 12, Santa Cruz de la Sierra",
    "Telefono": null,
    "Latitud": -17.8076,
    "Longitud": -63.1719,
    "Fuente": "gamsc"
  },
  {
    "Id": 7432,
    "Departamento": "Santa Cruz",
    "Tipo": "Supermercado",
    "Nombre": "Supermercado Quina Sucursal 3",
    "Direccion": "Av.Prefecto Rivas Nro 250, Santa Cruz de la Sierra",
    "Telefono": null,
    "Latitud": -17.8044,
    "Longitud": -63.1904,
    "Fuente": "gamsc"
  },
  {
    "Id": 7433,
    "Departamento": "Santa Cruz",
    "Tipo": "Supermercado",
    "Nombre": "Fidalga",
    "Direccion": "Avenida El Trompillo 632, Santa Cruz de la Sierra",
    "Telefono": null,
    "Latitud": -17.8005,
    "Longitud": -63.1833,
    "Fuente": "gamsc"
  },
  {
    "Id": 7434,
    "Departamento": "Santa Cruz",
    "Tipo": "Supermercado",
    "Nombre": "Fidalga Reyes",
    "Direccion": "Avenida 26 De Febrero, Santa Cruz de la Sierra",
    "Telefono": null,
    "Latitud": -17.7897,
    "Longitud": -63.1943,
    "Fuente": "gamsc"
  },
  {
    "Id": 7435,
    "Departamento": "Santa Cruz",
    "Tipo": "Supermercado",
    "Nombre": "Hipermaxi Piraí",
    "Direccion": "Segundo anillo esquina, Santa Cruz de la Sierra",
    "Telefono": null,
    "Latitud": -17.7897,
    "Longitud": -63.1951,
    "Fuente": "gamsc"
  },
  {
    "Id": 7436,
    "Departamento": "Santa Cruz",
    "Tipo": "Supermercado",
    "Nombre": "H P Medical",
    "Direccion": "Av. Roca y Coronado, Santa Cruz de la Sierra",
    "Telefono": null,
    "Latitud": -17.7852,
    "Longitud": -63.1997,
    "Fuente": "gamsc"
  },
  {
    "Id": 7437,
    "Departamento": "Santa Cruz",
    "Tipo": "Supermercado",
    "Nombre": "Hipermaxi",
    "Direccion": "Avenida Roca y Coronado # 800, Santa Cruz de la Sierra",
    "Telefono": null,
    "Latitud": -17.7849,
    "Longitud": -63.2119,
    "Fuente": "gamsc"
  },
  {
    "Id": 7438,
    "Departamento": "Santa Cruz",
    "Tipo": "Supermercado",
    "Nombre": "IC Norte",
    "Direccion": "3er anillo interno,, Avenida Busch, Santa Cruz de la Sierra",
    "Telefono": null,
    "Latitud": -17.7727,
    "Longitud": -63.2034,
    "Fuente": "gamsc"
  },
  {
    "Id": 7439,
    "Departamento": "Santa Cruz",
    "Tipo": "Supermercado",
    "Nombre": "Fidalga Equipetrol",
    "Direccion": "Dr Fermín Peralta, Santa Cruz de la Sierra",
    "Telefono": null,
    "Latitud": -17.7603,
    "Longitud": -63.198,
    "Fuente": "gamsc"
  },
  {
    "Id": 7440,
    "Departamento": "Santa Cruz",
    "Tipo": "Supermercado",
    "Nombre": "Tía",
    "Direccion": "Santa Cruz de la Sierra",
    "Telefono": null,
    "Latitud": -17.7552,
    "Longitud": -63.1998,
    "Fuente": "gamsc"
  },
  {
    "Id": 7441,
    "Departamento": "Santa Cruz",
    "Tipo": "Supermercado",
    "Nombre": "Hipermaxi Equipetrol",
    "Direccion": "Santa Cruz de la Sierra",
    "Telefono": null,
    "Latitud": -17.7567,
    "Longitud": -63.2,
    "Fuente": "gamsc"
  },
  {
    "Id": 7442,
    "Departamento": "Santa Cruz",
    "Tipo": "Supermercado",
    "Nombre": "Supermercado El Cristo",
    "Direccion": "Santa Cruz de la Sierra",
    "Telefono": null,
    "Latitud": -17.7735,
    "Longitud": -63.1821,
    "Fuente": "gamsc"
  },
  {
    "Id": 7443,
    "Departamento": "Santa Cruz",
    "Tipo": "Supermercado",
    "Nombre": "FIDALGA",
    "Direccion": "Santa Cruz de la Sierra",
    "Telefono": null,
    "Latitud": -17.7714,
    "Longitud": -63.1858,
    "Fuente": "gamsc"
  },
  {
    "Id": 7444,
    "Departamento": "Santa Cruz",
    "Tipo": "Supermercado",
    "Nombre": "Shopping Fidalga",
    "Direccion": "Av. Cristo Redentor entre Av. Pedro Ribera Mendez, Tercer Anillo Externo, Santa Cruz de la Sierra",
    "Telefono": null,
    "Latitud": -17.7585,
    "Longitud": -63.1781,
    "Fuente": "gamsc"
  },
  {
    "Id": 7445,
    "Departamento": "Santa Cruz",
    "Tipo": "Supermercado",
    "Nombre": "Fidalga Hamacas",
    "Direccion": "Av. Beni # 500 esquina, Santa Cruz de la Sierra",
    "Telefono": null,
    "Latitud": -17.7551,
    "Longitud": -63.1717,
    "Fuente": "gamsc"
  },
  {
    "Id": 7446,
    "Departamento": "Santa Cruz",
    "Tipo": "Supermercado",
    "Nombre": "Hiper Plaza",
    "Direccion": "Santa Cruz de la Sierra",
    "Telefono": null,
    "Latitud": -17.7505,
    "Longitud": -63.1765,
    "Fuente": "gamsc"
  },
  {
    "Id": 7447,
    "Departamento": "Santa Cruz",
    "Tipo": "Supermercado",
    "Nombre": "Supermercado",
    "Direccion": null,
    "Telefono": null,
    "Latitud": -17.7458,
    "Longitud": -63.1742,
    "Fuente": "gamsc"
  },
  {
    "Id": 7448,
    "Departamento": "Santa Cruz",
    "Tipo": "Supermercado",
    "Nombre": "Hipermaxi",
    "Direccion": "Avenida Cuarto Anillo, Santa Cruz de la Sierra",
    "Telefono": null,
    "Latitud": -17.7497,
    "Longitud": -63.1854,
    "Fuente": "gamsc"
  },
  {
    "Id": 7449,
    "Departamento": "Santa Cruz",
    "Tipo": "Supermercado",
    "Nombre": "Hipermaxi Gourmet",
    "Direccion": "Avenida Cuarto Anillo, Santa Cruz de la Sierra",
    "Telefono": null,
    "Latitud": -17.7493,
    "Longitud": -63.1761,
    "Fuente": "gamsc"
  },
  {
    "Id": 7450,
    "Departamento": "Santa Cruz",
    "Tipo": "Supermercado",
    "Nombre": "Hipermaxi Super Center",
    "Direccion": "Av. Cristo Redentor 6500, Santa Cruz de la Sierra",
    "Telefono": null,
    "Latitud": -17.7288,
    "Longitud": -63.166,
    "Fuente": "gamsc"
  },
  {
    "Id": 7451,
    "Departamento": "Santa Cruz",
    "Tipo": "Supermercado",
    "Nombre": "Drinksmart",
    "Direccion": "Santa Cruz de la Sierra",
    "Telefono": null,
    "Latitud": -17.7152,
    "Longitud": -63.1662,
    "Fuente": "gamsc"
  },
  {
    "Id": 7452,
    "Departamento": "Santa Cruz",
    "Tipo": "Supermercado",
    "Nombre": "Supermercado Wonderful",
    "Direccion": "Santa Cruz de la Sierra",
    "Telefono": null,
    "Latitud": -17.7149,
    "Longitud": -63.1693,
    "Fuente": "gamsc"
  },
  {
    "Id": 7453,
    "Departamento": "Santa Cruz",
    "Tipo": "Supermercado",
    "Nombre": "Micro Mercado Wonderfull",
    "Direccion": "Unnamed Road, Santa Cruz de la Sierra",
    "Telefono": null,
    "Latitud": -17.682,
    "Longitud": -63.1544,
    "Fuente": "gamsc"
  },
  {
    "Id": 7454,
    "Departamento": "Santa Cruz",
    "Tipo": "Supermercado",
    "Nombre": "Fresh meat",
    "Direccion": "Unnamed Road, Santa Cruz de la Sierra",
    "Telefono": null,
    "Latitud": -17.6832,
    "Longitud": -63.1547,
    "Fuente": "gamsc"
  },
  {
    "Id": 7455,
    "Departamento": "Santa Cruz",
    "Tipo": "Supermercado",
    "Nombre": "Hipermaxi beni",
    "Direccion": "Santa Cruz de la Sierra",
    "Telefono": null,
    "Latitud": -17.7504,
    "Longitud": -63.1686,
    "Fuente": "gamsc"
  },
  {
    "Id": 7456,
    "Departamento": "Santa Cruz",
    "Tipo": "Supermercado",
    "Nombre": "Supermercados Tia",
    "Direccion": "Av Alemania, Santa Cruz de la Sierra",
    "Telefono": null,
    "Latitud": -17.7547,
    "Longitud": -63.1654,
    "Fuente": "gamsc"
  },
  {
    "Id": 7457,
    "Departamento": "Santa Cruz",
    "Tipo": "Supermercado",
    "Nombre": "Hipermaxi Mutualista",
    "Direccion": "zona Mutualista, Tercer Anillo Externo, Santa Cruz de la Sierra",
    "Telefono": null,
    "Latitud": -17.7658,
    "Longitud": -63.1587,
    "Fuente": "gamsc"
  },
  {
    "Id": 7458,
    "Departamento": "Santa Cruz",
    "Tipo": "Supermercado",
    "Nombre": "Supermercado Pronto",
    "Direccion": "Av. Sta. Cruz, Santa Cruz de la Sierra",
    "Telefono": null,
    "Latitud": -17.7746,
    "Longitud": -63.1661,
    "Fuente": "gamsc"
  },
  {
    "Id": 7459,
    "Departamento": "Santa Cruz",
    "Tipo": "Supermercado",
    "Nombre": "Makro Parque",
    "Direccion": "Av Cuarto Anillo y, Santa Cruz de la Sierra",
    "Telefono": null,
    "Latitud": -17.7651,
    "Longitud": -63.1475,
    "Fuente": "gamsc"
  },
  {
    "Id": 7460,
    "Departamento": "Santa Cruz",
    "Tipo": "Supermercado",
    "Nombre": "Hipermaxi Embutidos Fabrica",
    "Direccion": "Santa Cruz de la Sierra",
    "Telefono": null,
    "Latitud": -17.7727,
    "Longitud": -63.134,
    "Fuente": "gamsc"
  },
  {
    "Id": 7461,
    "Departamento": "Santa Cruz",
    "Tipo": "Supermercado",
    "Nombre": "Hipermaxi La Pampa",
    "Direccion": "4 Oeste, Santa Cruz de la Sierra",
    "Telefono": null,
    "Latitud": -17.7718,
    "Longitud": -63.1245,
    "Fuente": "gamsc"
  },
  {
    "Id": 7462,
    "Departamento": "Santa Cruz",
    "Tipo": "Supermercado",
    "Nombre": "Fidalga Cotoca",
    "Direccion": "Km. 8 Doble Via a Cotoca",
    "Telefono": null,
    "Latitud": -17.7657,
    "Longitud": -63.1045,
    "Fuente": "gamsc"
  },
  {
    "Id": 7463,
    "Departamento": "Santa Cruz",
    "Tipo": "Supermercado",
    "Nombre": "Pampa De La Isla",
    "Direccion": "Santa Cruz de la Sierra",
    "Telefono": null,
    "Latitud": -17.7676,
    "Longitud": -63.1151,
    "Fuente": "gamsc"
  },
  {
    "Id": 7464,
    "Departamento": "Santa Cruz",
    "Tipo": "Supermercado",
    "Nombre": "Mercado",
    "Direccion": null,
    "Telefono": null,
    "Latitud": -17.7646,
    "Longitud": -63.0967,
    "Fuente": "gamsc"
  },
  {
    "Id": 7465,
    "Departamento": "Santa Cruz",
    "Tipo": "Supermercado",
    "Nombre": "Hipermaxi",
    "Direccion": "Av Tres Pasos Al Frente, Santa Cruz de la Sierra",
    "Telefono": null,
    "Latitud": -17.7953,
    "Longitud": -63.1608,
    "Fuente": "gamsc"
  },
  {
    "Id": 7466,
    "Departamento": "Santa Cruz",
    "Tipo": "Supermercado",
    "Nombre": "Hipermaxi Villa 1° de Mayo",
    "Direccion": "Calle 10 Este, Santa Cruz de la Sierra",
    "Telefono": null,
    "Latitud": -17.7979,
    "Longitud": -63.1342,
    "Fuente": "gamsc"
  },
  {
    "Id": 7467,
    "Departamento": "Santa Cruz",
    "Tipo": "Supermercado",
    "Nombre": "PUNTO",
    "Direccion": "Avenida 3 Pasos Al Frente, Santa Cruz de la Sierra",
    "Telefono": null,
    "Latitud": -17.8076,
    "Longitud": -63.1058,
    "Fuente": "gamsc"
  },
  {
    "Id": 7468,
    "Departamento": "Santa Cruz",
    "Tipo": "Supermercado",
    "Nombre": "Hipermaxi Plan 3000",
    "Direccion": "Santa Cruz de la Sierra",
    "Telefono": null,
    "Latitud": -17.8356,
    "Longitud": -63.1323,
    "Fuente": "gamsc"
  },
  {
    "Id": 7469,
    "Departamento": "Santa Cruz",
    "Tipo": "Supermercado",
    "Nombre": "Placemark",
    "Direccion": "Avenida Principal Plan 3 Mil, Santa Cruz de la Sierra",
    "Telefono": null,
    "Latitud": -17.8288,
    "Longitud": -63.1385,
    "Fuente": "gamsc"
  },
  {
    "Id": 7470,
    "Departamento": "Santa Cruz",
    "Tipo": "Supermercado",
    "Nombre": "Super Sur Fidalga SRL Central",
    "Direccion": "Av. Rene Moreno # 212 esquina, Diego de Mendoza, Santa Cruz de la Sierra",
    "Telefono": null,
    "Latitud": -17.7938,
    "Longitud": -63.18,
    "Fuente": "gamsc"
  },
  {
    "Id": 7471,
    "Departamento": "Santa Cruz",
    "Tipo": "Supermercado",
    "Nombre": "Hipermaxi",
    "Direccion": "Santa Cruz de la Sierra",
    "Telefono": null,
    "Latitud": -17.7942,
    "Longitud": -63.1813,
    "Fuente": "gamsc"
  },
  {
    "Id": 7472,
    "Departamento": "Santa Cruz",
    "Tipo": "Supermercado",
    "Nombre": "HiperMaxi Centro",
    "Direccion": "Santa Cruz de la Sierra",
    "Telefono": null,
    "Latitud": -17.7885,
    "Longitud": -63.179,
    "Fuente": "gamsc"
  },
  {
    "Id": 7473,
    "Departamento": "Santa Cruz",
    "Tipo": "Supermercado",
    "Nombre": "Hipermaxi Florida",
    "Direccion": "Florida, Santa Cruz de la Sierra",
    "Telefono": null,
    "Latitud": -17.7819,
    "Longitud": -63.1835,
    "Fuente": "gamsc"
  },
  {
    "Id": 7474,
    "Departamento": "Santa Cruz",
    "Tipo": "Supermercado",
    "Nombre": "Hipermaxi Cañoto",
    "Direccion": "Avenida Cañoto, Santa Cruz de la Sierra",
    "Telefono": null,
    "Latitud": -17.7789,
    "Longitud": -63.1883,
    "Fuente": "gamsc"
  },
  {
    "Id": 7475,
    "Departamento": "Santa Cruz",
    "Tipo": "Supermercado",
    "Nombre": "Supermercado Ekko Fidalga",
    "Direccion": "Avenida Cañoto 202, Santa Cruz de la Sierra",
    "Telefono": null,
    "Latitud": -17.7791,
    "Longitud": -63.1884,
    "Fuente": "gamsc"
  },
  {
    "Id": 7476,
    "Departamento": "Santa Cruz",
    "Tipo": "Supermercado",
    "Nombre": "Supermercados Tia",
    "Direccion": "24 de septiembre, Santa Cruz de la Sierra",
    "Telefono": null,
    "Latitud": -17.7788,
    "Longitud": -63.1817,
    "Fuente": "gamsc"
  },
  {
    "Id": 7477,
    "Departamento": "Santa Cruz",
    "Tipo": "Supermercado",
    "Nombre": "CHINBOL",
    "Direccion": "Centro,, Santa Cruz de la Sierra",
    "Telefono": null,
    "Latitud": -17.7833,
    "Longitud": -63.1741,
    "Fuente": "gamsc"
  },
  {
    "Id": 7478,
    "Departamento": "Santa Cruz",
    "Tipo": "Supermercado",
    "Nombre": "Macro Fidalga",
    "Direccion": "G.Velasco, Santa Cruz de la Sierra",
    "Telefono": null,
    "Latitud": -17.7767,
    "Longitud": -63.1733,
    "Fuente": "gamsc"
  },
  {
    "Id": 7479,
    "Departamento": "Santa Cruz",
    "Tipo": "Supermercado",
    "Nombre": "Supermercado Okinawa",
    "Direccion": "Calle Quijarro, Santa Cruz de la Sierra",
    "Telefono": null,
    "Latitud": -17.7766,
    "Longitud": -63.1785,
    "Fuente": "gamsc"
  },
  {
    "Id": 7480,
    "Departamento": "Santa Cruz",
    "Tipo": "Supermercado",
    "Nombre": "Yuri Market",
    "Direccion": "0000, Santa Cruz de la Sierra",
    "Telefono": null,
    "Latitud": -17.7769,
    "Longitud": -63.1785,
    "Fuente": "gamsc"
  },
  {
    "Id": 7481,
    "Departamento": "Santa Cruz",
    "Tipo": "CentroMedico",
    "Nombre": "CENTRO DE SALUD TIERRAS NUEVAS",
    "Direccion": "Barrio Tierras Nuevas, Av. Moscú, 5 cuadras antes del Rest. Tutumazo",
    "Telefono": "3 3536010",
    "Latitud": -17.8488,
    "Longitud": -63.2153,
    "Fuente": "gamsc"
  },
  {
    "Id": 7482,
    "Departamento": "Santa Cruz",
    "Tipo": "CentroMedico",
    "Nombre": "CENTRO DE SALUD MONTERO HOYOS",
    "Direccion": "Localidad de  Montero Hoyos",
    "Telefono": "6 9561424",
    "Latitud": -17.6409,
    "Longitud": -62.8245,
    "Fuente": "gamsc"
  },
  {
    "Id": 7483,
    "Departamento": "Santa Cruz",
    "Tipo": "CentroMedico",
    "Nombre": "CENTRO DE SALUD ZAFRANILLA",
    "Direccion": "Comunidad Zafranilla",
    "Telefono": null,
    "Latitud": -17.6208,
    "Longitud": -62.9888,
    "Fuente": "gamsc"
  },
  {
    "Id": 7484,
    "Departamento": "Santa Cruz",
    "Tipo": "CentroMedico",
    "Nombre": "CENTRO DE SALUD SAN MIGUEL DE LOS JUNOS",
    "Direccion": "Comunidad San Miguel De Los Junos – Zona del Tanque de Agua Elevado",
    "Telefono": "3 3226753",
    "Latitud": -17.9325,
    "Longitud": -63.0266,
    "Fuente": "gamsc"
  },
  {
    "Id": 7485,
    "Departamento": "Santa Cruz",
    "Tipo": "CentroMedico",
    "Nombre": "CENTRO DE SALUD PALMASOLA",
    "Direccion": "Centro Penitenciario Palmasola",
    "Telefono": "3 3562928",
    "Latitud": -17.8737,
    "Longitud": -63.1849,
    "Fuente": "gamsc"
  },
  {
    "Id": 7486,
    "Departamento": "Santa Cruz",
    "Tipo": "CentroMedico",
    "Nombre": "CENTRO DE SALUD EL DORADO NORTE",
    "Direccion": "B/ El Dorado Norte, llegar a la Av. Virgen de Lujan donde termina el pavimento, ir a la derecha  4 cuadras, luego entrar al lado izquierdo 3 cuadras hasta llegar a una plazuela.",
    "Telefono": "3 3224388",
    "Latitud": -17.7392,
    "Longitud": -63.0966,
    "Fuente": "gamsc"
  },
  {
    "Id": 7487,
    "Departamento": "Santa Cruz",
    "Tipo": "CentroMedico",
    "Nombre": "CENTRO DE SALUD EL RETOÑO/LOS CUSIS",
    "Direccion": "B/ El Retoño / Los Cusis",
    "Telefono": "3 3498786",
    "Latitud": -17.7356,
    "Longitud": -63.077,
    "Fuente": "gamsc"
  },
  {
    "Id": 7488,
    "Departamento": "Santa Cruz",
    "Tipo": "CentroMedico",
    "Nombre": "CENTRO DE SALUD LAS GRAMAS/26 DE SEPTIEMBRE",
    "Direccion": "B/ Las Gramas / 26 de Septiembre",
    "Telefono": "3 3224504",
    "Latitud": -17.721,
    "Longitud": -63.1049,
    "Fuente": "gamsc"
  },
  {
    "Id": 7489,
    "Departamento": "Santa Cruz",
    "Tipo": "CentroMedico",
    "Nombre": "CENTRO DE SALUD EL PORVENIR",
    "Direccion": "B/ El Porvenir",
    "Telefono": "3 3621675",
    "Latitud": -17.7871,
    "Longitud": -63.1292,
    "Fuente": "gamsc"
  },
  {
    "Id": 7490,
    "Departamento": "Santa Cruz",
    "Tipo": "CentroMedico",
    "Nombre": "CENTRO DE SALUD ROQUE AGUILERA",
    "Direccion": "C/ Santiago Vaca Guzman C/Antoni Barba",
    "Telefono": "3 3377366",
    "Latitud": -17.7661,
    "Longitud": -63.1863,
    "Fuente": "gamsc"
  },
  {
    "Id": 7491,
    "Departamento": "Santa Cruz",
    "Tipo": "CentroMedico",
    "Nombre": "CENTRO DE SALUD EL RECREO",
    "Direccion": "URB/ EL RECREO",
    "Telefono": null,
    "Latitud": -17.8728,
    "Longitud": -63.1013,
    "Fuente": "gamsc"
  },
  {
    "Id": 7492,
    "Departamento": "Santa Cruz",
    "Tipo": "CentroMedico",
    "Nombre": "CENTRO DE SALUD BUEN SAMARITANO",
    "Direccion": "B/ Buen Samaritano",
    "Telefono": "3 3226439",
    "Latitud": -17.7951,
    "Longitud": -63.0957,
    "Fuente": "gamsc"
  },
  {
    "Id": 7493,
    "Departamento": "Santa Cruz",
    "Tipo": "CentroMedico",
    "Nombre": "CENTRO DE SALUD SANTIAGO PARADA",
    "Direccion": "B/ Santiago Parada",
    "Telefono": "3 3224920",
    "Latitud": -17.7818,
    "Longitud": -63.1068,
    "Fuente": "gamsc"
  },
  {
    "Id": 7494,
    "Departamento": "Santa Cruz",
    "Tipo": "CentroMedico",
    "Nombre": "CENTRO DE SALUD SAN AGUSTIN",
    "Direccion": "Av. Paurito frente a la plaza San Agustín",
    "Telefono": "3 3701909",
    "Latitud": -17.84,
    "Longitud": -63.1199,
    "Fuente": "gamsc"
  },
  {
    "Id": 7495,
    "Departamento": "Santa Cruz",
    "Tipo": "CentroMedico",
    "Nombre": "CENTRO DE SALUD SAN LUISITO",
    "Direccion": "B/ San Luisito o Roberto Fernandez, ingresando por la Av.  Espinal Campos entrando C/Mexico, detrás del cementerio. Parada final de la linea 70.",
    "Telefono": "3 3222191",
    "Latitud": -17.8284,
    "Longitud": -63.1032,
    "Fuente": "gamsc"
  },
  {
    "Id": 7496,
    "Departamento": "Santa Cruz",
    "Tipo": "CentroMedico",
    "Nombre": "CENTRO DE SALUD MARIA CECILIA",
    "Direccion": "Av. Radial 10 Final",
    "Telefono": "3621699",
    "Latitud": -17.8139,
    "Longitud": -63.1145,
    "Fuente": "gamsc"
  },
  {
    "Id": 7497,
    "Departamento": "Santa Cruz",
    "Tipo": "CentroMedico",
    "Nombre": "CENTRO DE SALUD PALMAR DEL ORATORIO",
    "Direccion": "Palmar del Oratorio Frente a la Plaza",
    "Telefono": "3 3227404",
    "Latitud": -17.8816,
    "Longitud": -63.1509,
    "Fuente": "gamsc"
  },
  {
    "Id": 7498,
    "Departamento": "Santa Cruz",
    "Tipo": "CentroMedico",
    "Nombre": "CENTRO DE SALUD EL TAJIBO",
    "Direccion": "B/ El Tajibo pasando Av. Bolivia del mercado Fortaleza",
    "Telefono": "3 3280587",
    "Latitud": -17.862,
    "Longitud": -63.1502,
    "Fuente": "gamsc"
  },
  {
    "Id": 7499,
    "Departamento": "Santa Cruz",
    "Tipo": "CentroMedico",
    "Nombre": "CENTRO DE SALUD CORTEZ",
    "Direccion": "B/ URB. CORTEZ",
    "Telefono": "3 3280532",
    "Latitud": -17.8937,
    "Longitud": -63.1735,
    "Fuente": "gamsc"
  },
  {
    "Id": 7500,
    "Departamento": "Santa Cruz",
    "Tipo": "CentroMedico",
    "Nombre": "CENTRO DE SALUD MAGISTERIO",
    "Direccion": "B/ MAGISTERIO",
    "Telefono": "3 3280943",
    "Latitud": -17.8688,
    "Longitud": -63.1839,
    "Fuente": "gamsc"
  },
  {
    "Id": 7501,
    "Departamento": "Santa Cruz",
    "Tipo": "CentroMedico",
    "Nombre": "CENTRO DE SALUD PLAN 4000",
    "Direccion": "B/ Plan 4000",
    "Telefono": "3 3280563",
    "Latitud": -17.8822,
    "Longitud": -63.1746,
    "Fuente": "gamsc"
  },
  {
    "Id": 7502,
    "Departamento": "Santa Cruz",
    "Tipo": "CentroMedico",
    "Nombre": "CENTRO DE SALUD ROCA Y COROnaDO",
    "Direccion": "B/ Roca y Coronado entrando por Mercado Primavera, pasar el trillo e ingresar 9 cuadras, luego ingresar a la derecha 1 1/2 cuadra.",
    "Telefono": "3 3568829",
    "Latitud": -17.8362,
    "Longitud": -63.1578,
    "Fuente": "gamsc"
  },
  {
    "Id": 7503,
    "Departamento": "Santa Cruz",
    "Tipo": "CentroMedico",
    "Nombre": "CENTRO DE SALUD VILLA BERMUDEZ",
    "Direccion": "Rad 17/2 -8 Ani, 2 cuadras de Piramide",
    "Telefono": "3 3550468",
    "Latitud": -17.8215,
    "Longitud": -63.2491,
    "Fuente": "gamsc"
  },
  {
    "Id": 7504,
    "Departamento": "Santa Cruz",
    "Tipo": "CentroMedico",
    "Nombre": "CENTRO DE SALUD PEDRO DIEZ",
    "Direccion": "B/Pedro Diez 2 1/2 cuadras Av. Los Lotes",
    "Telefono": "3 3227909",
    "Latitud": -17.8604,
    "Longitud": -63.177,
    "Fuente": "gamsc"
  },
  {
    "Id": 7505,
    "Departamento": "Santa Cruz",
    "Tipo": "CentroMedico",
    "Nombre": "CENTRO DE SALUD VILLA BRIGIDA",
    "Direccion": "Barrio Villa Brígida Calle Nª 7",
    "Telefono": "3 3418228",
    "Latitud": -17.7562,
    "Longitud": -63.1949,
    "Fuente": "gamsc"
  },
  {
    "Id": 7506,
    "Departamento": "Santa Cruz",
    "Tipo": "CentroMedico",
    "Nombre": "CENTRO DE SALUD EL PAJOnaL",
    "Direccion": "Pajonal lado del Centro Cultural El Pajonal",
    "Telefono": "3 3582246",
    "Latitud": -17.8133,
    "Longitud": -63.1668,
    "Fuente": "gamsc"
  },
  {
    "Id": 7507,
    "Departamento": "Santa Cruz",
    "Tipo": "CentroMedico",
    "Nombre": "CENTRO DE SALUD SANTA ISABEL",
    "Direccion": "Av. Paraguá pasando el tercer anillo calle Nº 6  lado Colegio  Wenceslao Montero  Barrio Conavi",
    "Telefono": "3 3475090",
    "Latitud": -17.7697,
    "Longitud": -63.1507,
    "Fuente": "gamsc"
  },
  {
    "Id": 7508,
    "Departamento": "Santa Cruz",
    "Tipo": "CentroMedico",
    "Nombre": "CENTRO DE SALUD HAMACAS",
    "Direccion": "B/  Hamacas C/ Río Blanco 3105 entre C/ 11 y Av. Alemana",
    "Telefono": "3 3427473",
    "Latitud": -17.7563,
    "Longitud": -63.169,
    "Fuente": "gamsc"
  },
  {
    "Id": 7509,
    "Departamento": "Santa Cruz",
    "Tipo": "CentroMedico",
    "Nombre": "CENTRO DE SALUD ANITA SUÁREZ DE LEIGUE",
    "Direccion": "Av. Banzer Km. 4½ al norte detrás Coop. Humberto Leigue",
    "Telefono": "3 3438531",
    "Latitud": -17.7371,
    "Longitud": -63.1716,
    "Fuente": "gamsc"
  },
  {
    "Id": 7510,
    "Departamento": "Santa Cruz",
    "Tipo": "CentroMedico",
    "Nombre": "CENTRO DE SALUD NOEL KEMPFF",
    "Direccion": "B/ Noel Kempff Merado, a la Radial 10 5to Anillo",
    "Telefono": "3 3621781",
    "Latitud": -17.8111,
    "Longitud": -63.1237,
    "Fuente": "gamsc"
  },
  {
    "Id": 7511,
    "Departamento": "Santa Cruz",
    "Tipo": "CentroMedico",
    "Nombre": "CENTRO DE SALUD LOS TUSEQUIS",
    "Direccion": null,
    "Telefono": "3 3469644",
    "Latitud": -17.742,
    "Longitud": -63.1552,
    "Fuente": "gamsc"
  },
  {
    "Id": 7512,
    "Departamento": "Santa Cruz",
    "Tipo": "CentroMedico",
    "Nombre": "CENTRO DE SALUD SANTE SUD",
    "Direccion": "B/ Alto Olivo calle Nº 9 entre Radial 13 y Av. Santos Dumont Entrando seis cuadra a mano izquierda",
    "Telefono": "3 3560379",
    "Latitud": -17.8339,
    "Longitud": -63.1781,
    "Fuente": "gamsc"
  },
  {
    "Id": 7513,
    "Departamento": "Santa Cruz",
    "Tipo": "CentroMedico",
    "Nombre": "CENTRO DE SALUD ONDULINE GUAPURU",
    "Direccion": "B/ Onduline Guapuru",
    "Telefono": "3 3226438",
    "Latitud": -17.8098,
    "Longitud": -63.1068,
    "Fuente": "gamsc"
  },
  {
    "Id": 7514,
    "Departamento": "Santa Cruz",
    "Tipo": "CentroMedico",
    "Nombre": "CENTRO DE SALUD CAÑADA EL CARMEN",
    "Direccion": "B/ Cañada El Carmen",
    "Telefono": "3 3556492",
    "Latitud": -17.8105,
    "Longitud": -63.1527,
    "Fuente": "gamsc"
  },
  {
    "Id": 7515,
    "Departamento": "Santa Cruz",
    "Tipo": "CentroMedico",
    "Nombre": "CENTRO DE SALUD POCHOLA TRAPERO",
    "Direccion": "B/ Claracuta lado Col. Vertino Candia",
    "Telefono": "3 3442168",
    "Latitud": -17.733,
    "Longitud": -63.1559,
    "Fuente": "gamsc"
  },
  {
    "Id": 7516,
    "Departamento": "Santa Cruz",
    "Tipo": "CentroMedico",
    "Nombre": "CENTRO DE SALUD MI SALUD",
    "Direccion": "Barrio  7 de Julio  Av. Campana, lado escuela 7 de julio",
    "Telefono": "3 3628357",
    "Latitud": -17.8286,
    "Longitud": -63.1128,
    "Fuente": "gamsc"
  },
  {
    "Id": 7517,
    "Departamento": "Santa Cruz",
    "Tipo": "CentroMedico",
    "Nombre": "CENTRO DE SALUD LA COLORADA",
    "Direccion": "B/ La Colorada Calle Nº 6 Radial 13 entre 4º y 5º anillo",
    "Telefono": "3 3569872",
    "Latitud": -17.8236,
    "Longitud": -63.172,
    "Fuente": "gamsc"
  },
  {
    "Id": 7518,
    "Departamento": "Santa Cruz",
    "Tipo": "CentroMedico",
    "Nombre": "CENTRO DE SALUD LAS AMÉRICAS",
    "Direccion": "B/El Paraiso Av. Las AmÚricas",
    "Telefono": "3 3569332",
    "Latitud": -17.8588,
    "Longitud": -63.1941,
    "Fuente": "gamsc"
  },
  {
    "Id": 7519,
    "Departamento": "Santa Cruz",
    "Tipo": "CentroMedico",
    "Nombre": "CENTRO DE SALUD ANTOFAGASTA",
    "Direccion": "B/Antofagasta Avenida San Martín entre 5º y 6º anillo, se entra 5 cuadras por la calle B",
    "Telefono": "3 3580418",
    "Latitud": -17.8269,
    "Longitud": -63.2106,
    "Fuente": "gamsc"
  },
  {
    "Id": 7520,
    "Departamento": "Santa Cruz",
    "Tipo": "CentroMedico",
    "Nombre": "CENTRO DE SALUD BARRIO NUEVO/30 DE ENERO",
    "Direccion": "B/ NUEVO / 30 ENERO",
    "Telefono": null,
    "Latitud": -17.8306,
    "Longitud": -63.0844,
    "Fuente": "gamsc"
  },
  {
    "Id": 7521,
    "Departamento": "Santa Cruz",
    "Tipo": "CentroMedico",
    "Nombre": "CENTRO DE SALUD EL QUIOR",
    "Direccion": "B/ EL QUIOR",
    "Telefono": "3 3223616",
    "Latitud": -17.8477,
    "Longitud": -63.0837,
    "Fuente": "gamsc"
  },
  {
    "Id": 7522,
    "Departamento": "Santa Cruz",
    "Tipo": "CentroMedico",
    "Nombre": "CENTRO DE SALUD LOS BOSQUES",
    "Direccion": "B/ Los Bosques, lado del mercado Los Bosques",
    "Telefono": "3 3563252",
    "Latitud": -17.8123,
    "Longitud": -63.2148,
    "Fuente": "gamsc"
  },
  {
    "Id": 7523,
    "Departamento": "Santa Cruz",
    "Tipo": "CentroMedico",
    "Nombre": "CENTRO DE SALUD VIRGEN DE COTOCA",
    "Direccion": "Cuarto anillo  y Radial 27 c/ San Pedro lado Guardería PRONIDES Barrio Virgen de Cotoca",
    "Telefono": "3 3425834",
    "Latitud": -17.7475,
    "Longitud": -63.1818,
    "Fuente": "gamsc"
  },
  {
    "Id": 7524,
    "Departamento": "Santa Cruz",
    "Tipo": "CentroMedico",
    "Nombre": "CENTRO DE SALUD WILLY LEMAITRE",
    "Direccion": "Entre 2° y 3° anillo, Av. Busch, ingresando por la calle 6 esq. Calle Nicolás Ortiz.",
    "Telefono": "3 3427701",
    "Latitud": -17.7702,
    "Longitud": -63.1979,
    "Fuente": "gamsc"
  },
  {
    "Id": 7525,
    "Departamento": "Santa Cruz",
    "Tipo": "CentroMedico",
    "Nombre": "CENTRO DE SALUD NUTRICIOnaL",
    "Direccion": "Av. Cumavi Final, entre 6º y 7º anillo",
    "Telefono": "3 3476900",
    "Latitud": -17.7927,
    "Longitud": -63.1229,
    "Fuente": "gamsc"
  },
  {
    "Id": 7526,
    "Departamento": "Santa Cruz",
    "Tipo": "CentroMedico",
    "Nombre": "CENTRO DE SALUD 12 DE DICIEMBRE",
    "Direccion": "B/ 12 de Diciembre C/ Los Sauces final",
    "Telefono": "3 3628161",
    "Latitud": -17.82,
    "Longitud": -63.1308,
    "Fuente": "gamsc"
  },
  {
    "Id": 7527,
    "Departamento": "Santa Cruz",
    "Tipo": "CentroMedico",
    "Nombre": "CENTRO DE SALUD PUEBLO NUEVO",
    "Direccion": "Normandía",
    "Telefono": "3 3229902",
    "Latitud": -17.8507,
    "Longitud": -63.0643,
    "Fuente": "gamsc"
  },