departamento,provincia,municipio,codigo_municipio,codigo,nombre,urbano-rural,camas,latitude,longitude,subsector,tipo,nivel,telefono
Chuquisaca,Oropeza,Sucre,10101,100001,C.S. Cossmil,urbano,0,-19.054669,-65.268052,seguridad social (cajas),centro salud,1,0
Chuquisaca,Oropeza,Sucre,10101,100002,Arabate,rural,0,-19.087345000000003,-65.148389,publico,puesto de salud,1,72891285
Chuquisaca,Oropeza,Sucre,10101,100003,Caja Petrolera,urbano,24,-19.037249,-65.25990300000001,seguridad social (cajas),hospital segundo nivel,2,0
Chuquisaca,Oropeza,Sucre,10101,100004,C.S.C.I.E.S. Sucre,urbano,0,-19.035306,-65.25369599999999,organismos no gubernamentales,centro salud,1,0
Chuquisaca,Oropeza,Sucre,10101,100005,Inst.Psicopedagogico,urbano,25,-19.046128,-65.275705,publico,instituto especializado,3,0
Chuquisaca,Oropeza,Sucre,10101,100006,Hosp.Gineco Obstetrico,urbano,66,-19.045279,-65.268233,publico,instituto especializado,3,0
Chuquisaca,Oropeza,Sucre,10101,100007,Hosp.Gastroenterologico,urbano,30,-19.045709,-65.268136,publico,instituto especializado,3,0
Chuquisaca,Oropeza,Sucre,10101,100008,C.S.Cons. Sagrada Familia,urbano,0,0.0,0.0,,,,0
Chuquisaca,Oropeza,Sucre,10101,100009,C.S.Its-Sida,urbano,0,0.0,0.0,,,,0
Chuquisaca,Oropeza,Sucre,10101,100010,Villa Rosario,urbano,0,-19.057471,-65.271051,publico,centro salud,1,6435239
Chuquisaca,Oropeza,Sucre,10101,100011,Barrio Japon,urbano,0,-19.051586,-65.233172,publico,centro salud,1,6438870
Chuquisaca,Oropeza,Sucre,10101,100012,C.S. Maria Auxiliadora,urbano,0,-19.032808,-65.254339,iglesia,centro salud,1,0
Chuquisaca,Oropeza,Sucre,10101,100013,San Antonio Alto (Chq),urbano,0,-19.050836,-65.244191,publico,centro salud,1,6480152
Chuquisaca,Oropeza,Sucre,10101,100014,San Jose (Chq),urbano,0,-19.054315,-65.24955,publico,centro salud,1,6421104
Chuquisaca,Oropeza,Sucre,10101,100015,C.S. Med.Barrio San Jose,urbano,0,0.0,0.0,,,,0
Chuquisaca,Oropeza,Sucre,10101,100016,San Roque,urbano,0,-19.053434,-65.263725,publico,centro salud,1,6441042
Chuquisaca,Oropeza,Sucre,10101,100017,C.S.Med.Barrio Santa Barbara,urbano,0,0.0,0.0,,,,0
Chuquisaca,Oropeza,Sucre,10101,100018,Villa Copacabana,urbano,0,-19.065462,-65.244652,publico,centro salud,1,0
Chuquisaca,Oropeza,Sucre,10101,100019,Clinica San Cristobal,urbano,15,-19.045609,-65.261718,seguridad social (cajas),hospital segundo nivel,2,0
Chuquisaca,Oropeza,Sucre,10101,100020,Clinica Del Sur,urbano,0,0.0,0.0,,,,0
Chuquisaca,Oropeza,Sucre,10101,100021,Hosp.Mons. Jesus Perez,urbano,0,-19.051035,-65.255573,organismos privados,hospital segundo nivel,2,0
Chuquisaca,Oropeza,Sucre,10101,100022,C.S. Maria Estopes Sucre,urbano,0,0.0,0.0,,,,0
Chuquisaca,Oropeza,Sucre,10101,100023,C.S. Clinica Copacabana,urbano,0,-19.050693,-65.265617,seguridad social (cajas),centro salud,1,0
Chuquisaca,Oropeza,Sucre,10101,100024,C. S. Iptk Central,urbano,0,0.0,0.0,,,,0
Chuquisaca,Oropeza,Sucre,10101,100025,Cantu Molino,rural,1,-18.862345,-65.235389,publico,centro salud,1,0
Chuquisaca,Oropeza,Sucre,10101,100026,Chaunaca,rural,2,-18.991345000000003,-65.435389,publico,puesto de salud,1,67142989
Chuquisaca,Oropeza,Sucre,10101,100027,Chuqui Chuqui,rural,3,-18.833345,-65.120389,publico,centro salud,1,72864783
Chuquisaca,Oropeza,Sucre,10101,100028,C.S. Policlinico 35,urbano,0,-19.048097,-65.264325,seguridad social (cajas),centro salud,1,0
Chuquisaca,Oropeza,Sucre,10101,100029,C.S.Banca Privada,urbano,0,0.0,0.0,,,,0
Chuquisaca,Oropeza,Sucre,10101,100030,Hosp.Santa Barbara,urbano,196,-19.044667,-65.262742,publico,hospital general,3,0
Chuquisaca,Oropeza,Sucre,10101,100031,El Chaco,rural,1,-18.889345000000002,-65.111389,publico,centro salud,1,73417543
Chuquisaca,Oropeza,Sucre,10101,100032,C.S. Med.Barrio El Tejar,urbano,0,0.0,0.0,,,,0
Chuquisaca,Oropeza,Sucre,10101,100033,Hosp.Jaime Mendoza,urbano,0,-19.045811999999998,-65.267602,seguridad social (cajas),hospital general,3,0
Chuquisaca,Oropeza,Sucre,10101,100034,Mercado Campesino,urbano,0,-19.033085,-65.25316600000001,publico,centro salud,1,0
Chuquisaca,Oropeza,Sucre,10101,100035,Cs. Cotes Ltda,urbano,2,0.0,0.0,,,,0
Chuquisaca,Oropeza,Sucre,10101,100036,C.S.Carcel Publica,urbano,0,0.0,0.0,,,,0
Chuquisaca,Oropeza,Sucre,10101,100037,C.S. Kausaj Pujyu,urbano,0,0.0,0.0,,,,0
Chuquisaca,Oropeza,Sucre,10101,100038,Inst. Cupertino Arteaga,urbano,0,0.0,0.0,,,,0
Chuquisaca,Oropeza,Sucre,10101,100039,Imilla Huanusca,rural,0,-18.638345,-65.179389,publico,puesto de salud,1,46933555
Chuquisaca,Oropeza,Sucre,10101,100040,Hosp. Cristo De Las Americas,urbano,7,-19.045132000000002,-65.268728,iglesia,hospital segundo nivel,2,0
Chuquisaca,Oropeza,Sucre,10101,100041,C.S.Banco Vacunas,urbano,0,0.0,0.0,,,,0
Chuquisaca,Oropeza,Sucre,10101,100042,Mercado Central,urbano,0,-19.045665,-65.257859,publico,centro salud,1,0
Chuquisaca,Oropeza,Sucre,10101,100043,Mercado Minorista,urbano,0,-19.040726,-65.254712,publico,centro salud,1,6462390
Chuquisaca,Oropeza,Sucre,10101,100044,Khochis,rural,1,-19.134345,-65.206389,publico,puesto de salud,1,71166136
Chuquisaca,Oropeza,Sucre,10101,100045,La Palma,rural,6,-18.954345,-65.128389,publico,centro salud,1,76119983
Chuquisaca,Oropeza,Sucre,10101,100046,C.S. Senac,urbano,0,-19.049139999999998,-65.26602700000001,seguridad social (cajas),centro salud,1,0
Chuquisaca,Oropeza,Sucre,10101,100047,San Pedro Claver,urbano,84,-19.007645999999998,-65.30709300000001,publico,hospital segundo nivel,2,6451667
Chuquisaca,Oropeza,Sucre,10101,100048,Maragua (Chq),rural,0,-19.052345000000003,-65.433389,publico,puesto de salud,1,46938088
Chuquisaca,Oropeza,Sucre,10101,100049,C.S. Cimes,urbano,0,-19.035685,-65.25254,organismos no gubernamentales,centro salud,1,0
Chuquisaca,Oropeza,Sucre,10101,100050,C.S.Cruz Roja,urbano,0,0.0,0.0,,,,0
Chuquisaca,Oropeza,Sucre,10101,100051,C.S. Pro Mujer(Sucre),urbano,0,0.0,0.0,,,,0
Chuquisaca,Oropeza,Sucre,10101,100052,Inst..Psiquiatrico Nacional,urbano,454,-19.041137,-65.26675300000001,publico,instituto especializado,3,0
Chuquisaca,Oropeza,Sucre,10101,100053,Hospital Materno Infantil De Poconas,urbano,15,-19.047123000000003,-65.248942,publico,hospital segundo nivel,2,6438943
Chuquisaca,Oropeza,Sucre,10101,100054,C.S. Cons. San Juanillo,urbano,0,0.0,0.0,,,,0
Chuquisaca,Oropeza,Sucre,10101,100055,Central,urbano,0,-19.048457,-65.26227800000001,publico,centro salud,1,0
Chuquisaca,Oropeza,Sucre,10101,100056,Cristo Rey De Potolo,rural,6,-19.018345,-65.533389,publico,centro salud,1,72868795
Chuquisaca,Oropeza,Sucre,10101,100057,C.S. Cimes Potolo,rural,0,0.0,0.0,,,,0
Chuquisaca,Oropeza,Sucre,10101,100058,Punilla,rural,0,-18.958345,-65.37438900000001,publico,centro salud,1,72871092
Chuquisaca,Oropeza,Sucre,10101,100059,Quila Quila,rural,0,-19.090345000000003,-65.394389,publico,puesto de salud,1,0
Chuquisaca,Oropeza,Sucre,10101,100060,C.S. Pro Mujer San Jose,urbano,0,0.0,0.0,,,,0
Chuquisaca,Oropeza,Sucre,10101,100061,Sonkho Chipa,rural,1,-18.985345000000002,-65.208389,publico,puesto de salud,1,73429024
Chuquisaca,Oropeza,Sucre,10101,100062,C.S. Santa Barbara,urbano,0,0.0,0.0,,,,0
Chuquisaca,Oropeza,Sucre,10101,100063,Morro Municipal,urbano,0,-19.025609,-65.239209,publico,centro salud,1,6480179
Chuquisaca,Oropeza,Sucre,10101,100064,Alto San Juanillo,urbano,0,-19.033532,-65.245264,publico,centro salud,1,6464883
Chuquisaca,Oropeza,Sucre,10101,100065,Valle Hermoso,urbano,5,-19.033357000000002,-65.264674,publico,centro salud,1,6421105
Chuquisaca,Oropeza,Sucre,10101,100066,C.S.Fe Y Alegria,urbano,0,-19.036811,-65.268651,iglesia,centro salud,1,0
Chuquisaca,Oropeza,Sucre,10101,100067,C.S.San Ricardo Pampuri,urbano,0,0.0,0.0,,,,0
Chuquisaca,Oropeza,Sucre,10101,100068,C.S. Seguro Universitario,urbano,0,-19.046076,-65.260646,seguridad social (cajas),centro salud,1,0
Chuquisaca,Oropeza,Sucre,10101,100069,Caja Cordes - Chuquisaca,urbano,17,0.0,0.0,,,,0
Chuquisaca,Oropeza,Sucre,10101,100070,C.S Virgen Del Remedio,urbano,0,-19.056475,-65.277082,iglesia,centro salud,1,0
Chuquisaca,Oropeza,Sucre,10101,100071,C.S.S.O.Ejercito,urbano,0,0.0,0.0,,,,0
Chuquisaca,Oropeza,Sucre,10101,100072,C.S.Coinca,urbano,0,-19.045813,-65.261579,organismos no gubernamentales,centro salud,1,0
Chuquisaca,Oropeza,Sucre,10101,100073,Patacon,urbano,0,-19.028329,-65.265982,publico,centro salud,1,0
Chuquisaca,Oropeza,Sucre,10101,100074,Surima,rural,2,-18.775345,-65.132389,publico,centro salud,1,74687067
Chuquisaca,Oropeza,Sucre,10101,100075,Banco De Sangre,urbano,0,0.0,0.0,,,,0
Chuquisaca,Oropeza,Sucre,10101,100076,C.S. Med.Barrio Valle Hermoso,urbano,0,0.0,0.0,,,,0
Chuquisaca,Oropeza,Sucre,10101,100077,Villa Armonia (Chq),urbano,9,-19.023681,-65.248699,publico,centro salud,1,0
Chuquisaca,Oropeza,Sucre,10101,100078,Villa Margarita,urbano,0,-19.018357,-65.252199,publico,centro salud,1,6438877
Chuquisaca,Oropeza,Yotala,10102,100079,Anfaya,rural,0,-19.254345,-65.219389,publico,puesto de salud,1,0
Chuquisaca,Oropeza,Yotala,10102,100080,Cachimayu,rural,0,-19.152345,-65.290389,publico,puesto de salud,1,74455212
Chuquisaca,Oropeza,Yotala,10102,100081,Calera,rural,0,-19.232345000000002,-65.322389,publico,puesto de salud,1,0
Chuquisaca,Oropeza,Yotala,10102,100082,Huayllas,rural,0,-19.165345000000002,-65.327389,publico,puesto de salud,1,74403006
Chuquisaca,Oropeza,Yotala,10102,100083,Nucchu,rural,0,-19.198345,-65.289389,publico,puesto de salud,1,0
Chuquisaca,Oropeza,Yotala,10102,100084,Tambo Ackachila,rural,0,-19.304345,-65.176389,publico,puesto de salud,1,68630064
Chuquisaca,Oropeza,Yotala,10102,100085,Tipaka,rural,0,-19.261345000000002,-65.313389,publico,puesto de salud,1,0
Chuquisaca,Oropeza,Yotala,10102,100086,Tuero,rural,0,-19.340345000000003,-65.202389,publico,puesto de salud,1,0
Chuquisaca,Oropeza,Yotala,10102,100087,Unala,rural,0,-19.236345,-65.26138900000001,publico,puesto de salud,1,75766838
Chuquisaca,Oropeza,Yotala,10102,100088,Nicolas Ortiz,rural,5,-19.161345,-65.265389,publico,c.s. con internacion,1,6430023
Chuquisaca,Oropeza,Poroma,10103,100089,Chijmuri,rural,1,-18.802345000000003,-65.403389,publico,centro salud,1,46938258
Chuquisaca,Oropeza,Poroma,10103,100090,Copavilque,rural,0,-18.626345,-65.286389,publico,centro salud,1,46938203
Chuquisaca,Oropeza,Poroma,10103,100091,Cucuri,rural,0,-18.852345,-65.312389,publico,puesto de salud,1,73440303
Chuquisaca,Oropeza,Poroma,10103,100092,El Ajial,rural,1,-18.521345,-65.282389,publico,puesto de salud,1,73133818
Chuquisaca,Oropeza,Poroma,10103,100093,Tholapampa,rural,1,-18.455345,-65.586389,publico,centro salud,1,73419069
Chuquisaca,Oropeza,Poroma,10103,100094,Kainacas,rural,0,-18.866345000000003,-65.399389,publico,puesto de salud,1,73434771
Chuquisaca,Oropeza,Poroma,10103,100095,Luje,rural,1,-18.737345,-65.26138900000001,publico,centro salud,1,68642254
Chuquisaca,Oropeza,Poroma,10103,100096,Pojpo,rural,0,-18.793345000000002,-65.327389,publico,centro salud,1,74447417
Chuquisaca,Oropeza,Poroma,10103,100097,Virgen Del Rosario,rural,8,-18.539345,-65.430389,publico,centro salud,1,68660621
Chuquisaca,Oropeza,Poroma,10103,100098,San Juan De Orcas,rural,0,-18.739345,-65.303389,publico,centro salud,1,75761589
Chuquisaca,Oropeza,Poroma,10103,100099,Challcha,rural,0,-18.433345000000003,-65.534389,publico,centro salud,1,74695807
Chuquisaca,Oropeza,Poroma,10103,100100,La Palca (Chq-Poroma),rural,0,-18.769345,-65.336389,publico,puesto de salud,1,0
Chuquisaca,Azurduy,Villa Azurduy,10201,100101,Dr. Gustavo Haase Perez,rural,15,-20.106345,-64.415389,publico,centro salud,1,68660878
Chuquisaca,Azurduy,Villa Azurduy,10201,100102,Duraznal,rural,3,-20.415345000000002,-64.421389,publico,centro salud,1,72886490
Chuquisaca,Azurduy,Villa Azurduy,10201,100103,Pinos,rural,2,-20.336345,-64.473389,publico,puesto de salud,1,68660168
Chuquisaca,Azurduy,Villa Azurduy,10201,100104,Rodeo Chico,rural,0,-20.246345,-64.545389,publico,centro salud,1,72869875
Chuquisaca,Azurduy,Villa Azurduy,10201,100105,San Roque,rural,3,-20.135345,-64.51438900000001,publico,puesto de salud,1,74409649
Chuquisaca,Azurduy,Villa Azurduy,10201,100106,Santa Rosa (Chq),rural,3,-19.879345,-64.405389,publico,centro salud,1,67607171
Chuquisaca,Azurduy,Villa Azurduy,10201,100107,Tablani,rural,3,-20.052345000000003,-64.561389,publico,centro salud,1,46938248
Chuquisaca,Azurduy,Tarvita,10202,100108,Abra Kasa,rural,3,-19.971345,-64.558389,publico,centro salud,1,71161812
Chuquisaca,Azurduy,Tarvita,10202,100109,Chunca Cancha,rural,3,-19.669228,-64.676285,publico,centro salud,1,71161084
Chuquisaca,Azurduy,Tarvita,10202,100110,La Sillada,rural,3,-19.812345,-64.626389,publico,puesto de salud,1,71161524
Chuquisaca,Azurduy,Tarvita,10202,100111,Molleni,rural,0,-19.774345,-64.470389,publico,centro salud,1,71161775
Chuquisaca,Azurduy,Tarvita,10202,100112,Pampa Huasi,rural,3,-19.626901,-64.661068,publico,centro salud,1,71161190
Chuquisaca,Azurduy,Tarvita,10202,100113,San Miguel,rural,2,-19.919454,-64.594267,publico,centro salud,1,71161850
Chuquisaca,Azurduy,Tarvita,10202,100114,San Pedro (Chq),rural,0,-19.617345,-64.451996,publico,centro salud,1,71161844
Chuquisaca,Azurduy,Tarvita,10202,100115,Virgen Del Rosario,rural,27,-19.922345,-64.485389,publico,centro salud,1,71161670
Chuquisaca,Azurduy,Tarvita,10202,100116,P.S. Mollecancha,rural,0,0.0,0.0,,,,0
Chuquisaca,Zudañez,Villa Zudañez,10301,100117,Waca Huasi,rural,0,-18.960345,-64.73438900000001,publico,puesto de salud,1,71160691
Chuquisaca,Zudañez,Villa Zudañez,10301,100118,San Jorge,rural,8,-19.119345000000003,-64.700389,publico,centro salud,1,68660822
Chuquisaca,Zudañez,Villa Zudañez,10301,100119,Mandinga,rural,0,-19.277345,-64.689389,publico,puesto de salud,1,71160684
Chuquisaca,Zudañez,Villa Zudañez,10301,100120,Sayanchaca,rural,0,-19.251345,-64.63938900000001,publico,centro salud,1,71160687
Chuquisaca,Zudañez,Villa Zudañez,10301,100121,Mayutorcoco,rural,0,-19.039345,-64.678389,publico,puesto de salud,1,68637732
Chuquisaca,Zudañez,Villa Zudañez,10301,100122,Paraqty,rural,0,-19.045345,-64.739389,publico,puesto de salud,1,71160685
Chuquisaca,Zudañez,Presto,10302,100123,Puno Kasa,rural,0,-18.875345000000003,-64.946389,publico,puesto de salud,1,68615480
Chuquisaca,Zudañez,Presto,10302,100124,Rodeo El Palmar,rural,0,-18.601345000000002,-64.954389,publico,centro salud,1,67614421
Chuquisaca,Zudañez,Presto,10302,100125,Santiago De Presto,rural,2,-18.928274,-64.939217,publico,centro salud,1,68660641
Chuquisaca,Zudañez,Presto,10302,100126,Pasopaya (Presto),rural,0,-18.770345000000002,-64.943389,publico,centro salud,1,73477217
Chuquisaca,Zudañez,Villa Mojocoya,10303,100127,La Abra,rural,0,-18.874345,-64.512389,publico,puesto de salud,1,0
Chuquisaca,Zudañez,Villa Mojocoya,10303,100128,San Juan De Dios (Chq),rural,9,-18.829345,-64.619389,publico,centro salud,1,71163235
Chuquisaca,Zudañez,Villa Mojocoya,10303,100129,Yacambe,rural,3,-18.938345,-64.569389,publico,centro salud,1,71163237
Chuquisaca,Zudañez,Villa Mojocoya,10303,100130,Churicana,rural,2,-18.916345,-64.622389,publico,centro salud,1,71163237
Chuquisaca,Zudañez,Villa Mojocoya,10303,100131,Sachapampa,rural,0,-18.702345,-64.513389,publico,puesto de salud,1,0
Chuquisaca,Zudañez,Villa Mojocoya,10303,100132,Quivale,rural,0,-18.627345000000002,-64.738389,publico,centro salud,1,71163234
Chuquisaca,Zudañez,Villa Mojocoya,10303,100133,Mojocoya,rural,4,-18.764345000000002,-64.620389,publico,centro salud,1,71163239
Chuquisaca,Zudañez,Icla,10304,100134,Cantar Gallo,rural,1,-19.516345,-64.684389,publico,centro salud,1,67601136
Chuquisaca,Zudañez,Icla,10304,100135,Candelaria,rural,2,-19.302345000000003,-64.795389,publico,centro salud,1,67601139
Chuquisaca,Zudañez,Icla,10304,100136,Virgen Del Rosario,rural,8,-19.363345000000002,-64.794389,publico,centro salud,1,67601311
Chuquisaca,Zudañez,Icla,10304,100137,P.S. Guitarrani,rural,0,0.0,0.0,,,,0
Chuquisaca,Zudañez,Icla,10304,100138,Tacopampa,rural,2,-19.420345,-64.693389,publico,centro salud,1,67601138
Chuquisaca,Zudañez,Icla,10304,100139,Uyuni (Chq),rural,2,-19.452345,-64.825389,publico,centro salud,1,67601135
Chuquisaca,Tomina,Padilla,10401,100140,Corey,rural,0,-19.402345,-63.990389,publico,puesto de salud,1,0
Chuquisaca,Tomina,Padilla,10401,100141,El Rosal,rural,0,-19.475345,-64.173389,publico,puesto de salud,1,73476972
Chuquisaca,Tomina,Padilla,10401,100142,Lampacillos,rural,0,-19.378345,-64.220389,publico,puesto de salud,1,74402853
Chuquisaca,Tomina,Padilla,10401,100143,Hosp. Padilla,urbano,29,-19.306345,-64.304389,publico,hospital segundo nivel,2,46932381
Chuquisaca,Tomina,Padilla,10401,100144,C.S. C.N.S. Padilla,rural,0,0.0,0.0,,,,0
Chuquisaca,Tomina,Padilla,10401,100145,Tabacal,rural,0,-19.325345000000002,-64.142389,publico,centro salud,1,71164561
Chuquisaca,Tomina,Padilla,10401,100146,Tihumayu,rural,0,-19.567345,-64.100389,publico,centro salud,1,71164562
Chuquisaca,Tomina,Tomina,10402,100147,Corso,rural,1,-19.146345,-64.495389,publico,puesto de salud,1,71160170
Chuquisaca,Tomina,Tomina,10402,100148,Rodeo Porvenir,rural,3,-19.063345,-64.580389,publico,puesto de salud,1,71160171
Chuquisaca,Tomina,Tomina,10402,100149,Fuerte Rua,rural,1,-19.254345,-64.528389,publico,centro salud,1,71160164
Chuquisaca,Tomina,Tomina,10402,100150,Otorongo,rural,0,-19.151345000000003,-64.546389,publico,puesto de salud,1,71160172
Chuquisaca,Tomina,Tomina,10402,100151,Pucara (Chq),rural,1,-19.034345000000002,-64.504389,publico,puesto de salud,1,71160173
Chuquisaca,Tomina,Tomina,10402,100152,Tarabuquillo,rural,1,-19.349345,-64.478389,publico,centro salud,1,71160165
Chuquisaca,Tomina,Tomina,10402,100153,Tomina,rural,15,-19.185345,-64.461389,publico,centro salud,1,67601346
Chuquisaca,Tomina,Sopachuy,10403,100154,Amancaya,rural,0,-19.335345,-64.562389,publico,centro salud,1,71160124
Chuquisaca,Tomina,Sopachuy,10403,100155,Pampas Del Carmen,rural,0,-19.547345,-64.413389,publico,puesto de salud,1,67601431
Chuquisaca,Tomina,Sopachuy,10403,100156,Hospital Virgen De Remedios Sopachuy,urbano,29,-19.488345000000002,-64.477389,publico,centro salud,1,71160125
Chuquisaca,Tomina,Villa Alcalá,10404,100157,Alcala,rural,5,-19.364345,-64.390389,publico,centro salud,1,67601452
Chuquisaca,Tomina,Villa Alcalá,10404,100158,Limabamba,rural,4,-19.501345,-64.336389,publico,centro salud,1,67601451
Chuquisaca,Tomina,El Villar,10405,100159,El Dorado,rural,1,-19.796345000000002,-64.331389,publico,puesto de salud,1,67601488
Chuquisaca,Tomina,El Villar,10405,100160,El Villar,rural,6,-19.628345,-64.310389,publico,centro salud,1,68660236
Chuquisaca,Tomina,El Villar,10405,100161,Rodeito,rural,1,-19.812345,-64.207389,publico,puesto de salud,1,67601446
Chuquisaca,Tomina,El Villar,10405,100162,Segura,rural,3,-19.807345,-64.207389,publico,centro salud,1,67600524
Chuquisaca,Hernando Siles,Monteagudo,10501,100163,Leonardo Gamberti Alvino,rural,6,-19.809345,-63.979389000000005,publico,centro salud,1,67602518
Chuquisaca,Hernando Siles,Monteagudo,10501,100164,Cerrillos (Chq),rural,8,-19.997345000000003,-63.914389,publico,puesto de salud,1,0
Chuquisaca,Hernando Siles,Monteagudo,10501,100165,Chapimayu,rural,3,-19.882345,-64.147389,publico,centro salud,1,67041781
Chuquisaca,Hernando Siles,Monteagudo,10501,100166,Cruce Piraimiri,rural,3,-20.017345000000002,-63.981389,publico,centro salud,1,68660147
Chuquisaca,Hernando Siles,Monteagudo,10501,100167,Ingavi,rural,2,-20.226345000000002,-64.104389,publico,puesto de salud,1,0
Chuquisaca,Hernando Siles,Monteagudo,10501,100168,Itapenti,rural,2,-20.183345000000003,-63.849389,publico,puesto de salud,1,0
Chuquisaca,Hernando Siles,Monteagudo,10501,100169,Los Arcos,rural,2,-20.317345,-64.229389,publico,puesto de salud,1,46302003
Chuquisaca,Hernando Siles,Monteagudo,10501,100170,Hosp. Monteagudo San Antonio De Los Sauces,urbano,40,-19.799345000000002,-63.955389000000004,publico,hospital segundo nivel,2,6472224
Chuquisaca,Hernando Siles,Monteagudo,10501,100171,C.S. C.N.S. Monteagudo,rural,0,0.0,0.0,,,,0
Chuquisaca,Hernando Siles,Monteagudo,10501,100172,C.S. Cies Monteagudo,rural,0,0.0,0.0,,,,0
Chuquisaca,Hernando Siles,Monteagudo,10501,100173,Rodeo,rural,3,-20.149345,-64.224389,publico,puesto de salud,1,0
Chuquisaca,Hernando Siles,Monteagudo,10501,100174,San Juan Bautista,rural,0,-20.334345000000003,-64.123389,publico,centro salud,1,68660140
Chuquisaca,Hernando Siles,Monteagudo,10501,100175,San Miguel Del Banado,rural,4,-20.079345,-63.886389,publico,centro salud,1,0
Chuquisaca,Hernando Siles,Monteagudo,10501,100176,Valle Nuevo,rural,0,-19.920345,-63.987389,publico,puesto de salud,1,68660146
Chuquisaca,Hernando Siles,Monteagudo,10501,100177,Dermatologico,rural,27,-19.807345,-64.00538900000001,publico,centro salud,1,6472662
Chuquisaca,Hernando Siles,Monteagudo,10501,100178,Roldana,rural,1,-19.809345,-64.122389,publico,puesto de salud,1,68660142
Chuquisaca,Hernando Siles,Monteagudo,10501,100179,Despensas,rural,0,-20.085345,-64.103389,publico,puesto de salud,1,0
Chuquisaca,Hernando Siles,Monteagudo,10501,100180,Azero Norte,rural,0,-19.565345,-63.982389000000005,publico,puesto de salud,1,0
Chuquisaca,Hernando Siles,San Pablo de Huacareta,10502,100181,Animbo,rural,2,-20.569345000000002,-64.150389,publico,centro salud,1,67608410
Chuquisaca,Hernando Siles,San Pablo de Huacareta,10502,100182,Atirimbia,rural,0,-20.821345,-63.926389,publico,puesto de salud,1,74678351
Chuquisaca,Hernando Siles,San Pablo de Huacareta,10502,100183,Casa Alta,rural,2,-20.636345000000002,-64.012389,publico,puesto de salud,1,46933539
Chuquisaca,Hernando Siles,San Pablo de Huacareta,10502,100184,Duraznitos,rural,1,-20.492345,-64.196389,publico,puesto de salud,1,68635264
Chuquisaca,Hernando Siles,San Pablo de Huacareta,10502,100185,San Pablo De Huacareta,rural,17,-20.366345000000003,-64.004389,publico,centro salud,1,46479212
Chuquisaca,Hernando Siles,San Pablo de Huacareta,10502,100186,C.S. Cies Huacareta,rural,0,0.0,0.0,,,,0
Chuquisaca,Hernando Siles,San Pablo de Huacareta,10502,100187,Nacamiri,rural,3,-20.721345,-64.038389,publico,centro salud,1,46933539
Chuquisaca,Hernando Siles,San Pablo de Huacareta,10502,100188,Piraicito,rural,0,-20.162345000000002,-63.962389,publico,puesto de salud,1,0
Chuquisaca,Hernando Siles,San Pablo de Huacareta,10502,100189,Rosario Del Ingre,rural,4,-20.581345000000002,-63.885389,publico,centro salud,1,0
Chuquisaca,Hernando Siles,San Pablo de Huacareta,10502,100190,Uruguay,rural,1,-20.521345,-64.150389,publico,centro salud,1,0
Chuquisaca,Hernando Siles,San Pablo de Huacareta,10502,100191,Tartagalito,rural,1,-20.877345000000002,-64.067389,publico,puesto de salud,1,0
Chuquisaca,Hernando Siles,San Pablo de Huacareta,10502,100192,Yumao,rural,2,-20.532345,-63.956389,publico,puesto de salud,1,0
Chuquisaca,Hernando Siles,San Pablo de Huacareta,10502,100193,Ipaty Del Ingre,rural,2,-20.424345000000002,-63.829389,publico,puesto de salud,1,74432927
Chuquisaca,Yamparaez,Tarabuco,10601,100194,Cororo,rural,0,-19.071345,-64.906389,publico,centro salud,1,71163142
Chuquisaca,Yamparaez,Tarabuco,10601,100195,El Carmen (Tarabuco),rural,1,-19.070345,-64.995389,publico,puesto de salud,1,46936071
Chuquisaca,Yamparaez,Tarabuco,10601,100196,El Paredon,rural,1,-19.251345,-64.861389,publico,centro salud,1,46936071
Chuquisaca,Yamparaez,Tarabuco,10601,100197,Cienega,rural,0,-19.155345,-64.99938900000001,publico,centro salud,1,71163120
Chuquisaca,Yamparaez,Tarabuco,10601,100198,Pajcha (Chq),rural,0,-18.978345,-65.029389,publico,puesto de salud,1,46936071
Chuquisaca,Yamparaez,Tarabuco,10601,100199,Pampa Lupiara,rural,1,-19.253345,-64.820389,publico,centro salud,1,71163140
Chuquisaca,Yamparaez,Tarabuco,10601,100200,Sarufaya,rural,1,-19.111345,-64.808389,publico,centro salud,1,46936071
Chuquisaca,Yamparaez,Tarabuco,10601,100201,Surima Chica,rural,1,-19.011345000000002,-64.895389,publico,puesto de salud,1,46936071
Chuquisaca,Yamparaez,Tarabuco,10601,100202,Ricardo Bacherer,urbano,18,-19.180345000000003,-64.915389,publico,centro salud,1,46936071
Chuquisaca,Yamparaez,Yamparáez,10602,100203,Carama,rural,0,-19.354345000000002,-65.063389,publico,puesto de salud,1,71161237
Chuquisaca,Yamparaez,Yamparáez,10602,100204,Lavadero,rural,0,-19.179345,-65.055389,publico,puesto de salud,1,71161234
Chuquisaca,Yamparaez,Yamparáez,10602,100205,Escana,rural,0,-19.255345000000002,-65.073389,publico,puesto de salud,1,68648072
Chuquisaca,Yamparaez,Yamparáez,10602,100206,Jatun Ckacka,rural,0,-19.302345000000003,-65.001389,publico,puesto de salud,1,71161237
Chuquisaca,Yamparaez,Yamparáez,10602,100207,Patallajta,rural,0,-19.112345,-65.060389,publico,puesto de salud,1,67608280
Chuquisaca,Yamparaez,Yamparáez,10602,100208,Sajpaya,rural,0,-19.136345000000002,-65.12438900000001,publico,puesto de salud,1,0
Chuquisaca,Yamparaez,Yamparáez,10602,100209,San Juan (Chq),rural,0,-19.264345000000002,-65.125389,publico,puesto de salud,1,73437359
Chuquisaca,Yamparaez,Yamparáez,10602,100210,Sotomayor,rural,0,-19.345345000000002,-65.000389,publico,centro salud,1,46936680
Chuquisaca,Yamparaez,Yamparáez,10602,100211,Cardenal Maurer,rural,12,-19.188345,-65.119389,publico,centro salud,1,46936680
Chuquisaca,Nor Cinti,Camargo,10701,100212,Clinica San Clemente,urbano,45,0.0,0.0,,,,0
Chuquisaca,Nor Cinti,Camargo,10701,100213,Carpachacra,rural,0,-20.624345,-65.310389,publico,puesto de salud,1,0
Chuquisaca,Nor Cinti,Camargo,10701,100214,Falsuri (Chq),rural,2,-20.527345,-65.093389,publico,centro salud,1,74406993
Chuquisaca,Nor Cinti,Camargo,10701,100215,Yurac Caballo,rural,0,-20.729345000000002,-65.125389,publico,puesto de salud,1,0
Chuquisaca,Nor Cinti,Camargo,10701,100216,San Juan De Dios,urbano,37,-20.640345,-65.210389,publico,hospital segundo nivel,2,6292486
Chuquisaca,Nor Cinti,Camargo,10701,100217,Suquistaca,rural,2,-20.384345,-65.095389,publico,puesto de salud,1,7337750
Chuquisaca,Nor Cinti,Camargo,10701,100218,C.S. C.N.S. Camargo,rural,0,-20.640435999999998,-65.210629,seguridad social (cajas),c.s. con internacion,1,0
Chuquisaca,Nor Cinti,San Lucas,10702,100219,Huayllani,rural,2,-20.356345,-64.956389,publico,puesto de salud,1,71164958
Chuquisaca,Nor Cinti,San Lucas,10702,100220,Ocuri,rural,2,-20.216345,-65.045389,publico,puesto de salud,1,71161982
Chuquisaca,Nor Cinti,San Lucas,10702,100221,Pututaca,rural,0,-20.206345000000002,-65.015389,publico,puesto de salud,1,71161983
Chuquisaca,Nor Cinti,San Lucas,10702,100222,Chinimayu,rural,4,-20.368345,-65.027389,publico,centro salud,1,71161314
Chuquisaca,Nor Cinti,San Lucas,10702,100223,Malliri,rural,3,-20.278345,-65.035389,publico,centro salud,1,71161341
Chuquisaca,Nor Cinti,San Lucas,10702,100224,Tambo Kasa,rural,0,-20.344389000000003,-64.746253,publico,puesto de salud,1,71161974
Chuquisaca,Nor Cinti,San Lucas,10702,100225,Padcoyo,rural,0,-20.260345,-65.140389,publico,centro salud,1,71161315
Chuquisaca,Nor Cinti,San Lucas,10702,100226,Canchas Blancas,rural,3,-20.028345,-64.800389,publico,centro salud,1,71161339
Chuquisaca,Nor Cinti,San Lucas,10702,100227,Payacota Del Carmen,rural,0,-20.226345000000002,-65.26438900000001,publico,puesto de salud,1,71161256
Chuquisaca,Nor Cinti,San Lucas,10702,100228,San Lucas,rural,26,-20.102345,-65.135389,publico,centro salud,1,10469378
Chuquisaca,Nor Cinti,San Lucas,10702,100229,Collpa,rural,0,-20.018675,-64.651441,publico,puesto de salud,1,71161286
Chuquisaca,Nor Cinti,San Lucas,10702,100230,Huanumilla,rural,0,-19.940345,-64.74338900000001,publico,puesto de salud,1,71161308
Chuquisaca,Nor Cinti,San Lucas,10702,100231,Pirhuani,rural,0,-20.174345000000002,-64.654389,publico,puesto de salud,1,0
Chuquisaca,Nor Cinti,San Lucas,10702,100232,Palacio Tambo,rural,10,-20.209345000000003,-64.99338900000001,publico,centro salud,1,71161267
Chuquisaca,Nor Cinti,San Lucas,10702,100233,La Palca (Chq Poroma),rural,1,-20.000345000000003,-65.056389,publico,puesto de salud,1,71161310
Chuquisaca,Nor Cinti,San Lucas,10702,100234,Acchilla,rural,0,-20.323345,-64.803389,publico,centro salud,1,71161325
Chuquisaca,Nor Cinti,San Lucas,10702,100235,Sacavillque Chico,rural,2,-20.288997,-64.617924,publico,puesto de salud,1,71161985
Chuquisaca,Nor Cinti,San Lucas,10702,100236,Chaupi Cocha,rural,0,-20.088345,-65.259389,publico,puesto de salud,1,71161965
Chuquisaca,Nor Cinti,San Lucas,10702,100237,Uruchini,rural,2,-19.880345000000002,-65.004389,publico,puesto de salud,1,71161981
Chuquisaca,Nor Cinti,San Lucas,10702,100238,Buena Vista,rural,2,-19.959632,-64.930367,publico,puesto de salud,1,46938197
Chuquisaca,Nor Cinti,Incahuasi,10703,100239,El Portillo,rural,0,-20.676345,-64.705389,publico,puesto de salud,1,0
Chuquisaca,Nor Cinti,Incahuasi,10703,100240,Jolencia,rural,2,-20.716148,-64.861476,publico,puesto de salud,1,67601567
Chuquisaca,Nor Cinti,Incahuasi,10703,100241,Pucarita (Chq),rural,3,-20.627345000000002,-64.87738900000001,publico,puesto de salud,1,67600743
Chuquisaca,Nor Cinti,Incahuasi,10703,100242,Virgen Del Rosario Incahuasi,rural,5,-20.783345,-64.869389,publico,centro salud,1,67601848
Chuquisaca,Nor Cinti,Incahuasi,10703,100243,Santa Maria Madre De Dios,rural,15,-20.724345,-64.887389,publico,centro salud,1,67600732
Chuquisaca,Nor Cinti,Incahuasi,10703,100244,Yatina,rural,2,-20.614345,-64.725389,publico,puesto de salud,1,67601667
Chuquisaca,Nor Cinti,Incahuasi,10703,100245,Huajlaya,rural,0,-20.594946,-64.549728,publico,centro salud,1,46938249
Chuquisaca,Nor Cinti,Incahuasi,10703,100246,Santa Elena,rural,2,-20.581345000000002,-64.775389,publico,centro salud,1,67600740
Chuquisaca,Nor Cinti,Incahuasi,10703,100247,Caizak,rural,1,-20.514345000000002,-64.739389,publico,puesto de salud,1,68634269
Chuquisaca,Nor Cinti,Incahuasi,10703,100248,Supas,rural,2,-20.437345,-64.784389,publico,puesto de salud,1,67600764
Chuquisaca,Belisario Boeto,Villa Serrano,10801,100249,Mendoza,rural,3,-19.016345,-64.421389,publico,centro salud,1,67619112
Chuquisaca,Belisario Boeto,Villa Serrano,10801,100250,Montegrande,rural,2,-18.888345,-64.351389,publico,puesto de salud,1,68661383
Chuquisaca,Belisario Boeto,Villa Serrano,10801,100251,Nuevo Mundo,rural,3,-18.998345,-64.298389,publico,centro salud,1,68661389
Chuquisaca,Belisario Boeto,Villa Serrano,10801,100252,Pampas Del Tigre,rural,3,-19.118345,-64.188389,publico,centro salud,1,68661392
Chuquisaca,Belisario Boeto,Villa Serrano,10801,100253,"Centro De Salud ""Piedra Grande""",rural,3,-18.854345000000002,-64.422389,publico,centro salud,1,68661382
Chuquisaca,Belisario Boeto,Villa Serrano,10801,100254,Los Pozos,rural,1,-19.061345000000003,-64.137389,publico,puesto de salud,1,68661390
Chuquisaca,Belisario Boeto,Villa Serrano,10801,100255,Urriolagoitia,rural,0,-19.173345,-64.262389,publico,puesto de salud,1,68661384
Chuquisaca,Belisario Boeto,Villa Serrano,10801,100256,Villa Serrano,urbano,18,-19.121345,-64.325389,publico,centro salud,1,68661385
Chuquisaca,Sud Cinti,Camataqui (Villa Abecia),10901,100257,Colpanayoc,urbano,1,-21.012345,-65.353389,publico,puesto de salud,1,74524744
Chuquisaca,Sud Cinti,Camataqui (Villa Abecia),10901,100258,Santa Maria,rural,4,-20.976345000000002,-65.235389,publico,centro salud,1,46937688
Chuquisaca,Sud Cinti,Camataqui (Villa Abecia),10901,100259,Jailia,rural,1,-20.922345,-65.271389,publico,puesto de salud,1,73898755
Chuquisaca,Sud Cinti,Camataqui (Villa Abecia),10901,100260,Higuerayoc,rural,0,-21.062345,-65.279389,publico,puesto de salud,1,72983494
Chuquisaca,Sud Cinti,Culpina,10902,100261,Manzanal,rural,0,-21.040345000000002,-64.417389,publico,puesto de salud,1,0
Chuquisaca,Sud Cinti,Culpina,10902,100262,El Palmar (Chq),rural,2,-20.851345000000002,-64.321389,publico,centro salud,1,10469335
Chuquisaca,Sud Cinti,Culpina,10902,100263,San Jose,urbano,10,-20.823345,-64.945389,publico,centro salud,1,46937630
Chuquisaca,Sud Cinti,Culpina,10902,100264,Campamento,rural,1,-20.896345,-64.523389,publico,puesto de salud,1,0
Chuquisaca,Sud Cinti,Culpina,10902,100265,Carapari,rural,0,-20.929345,-64.694389,publico,puesto de salud,1,0
Chuquisaca,Sud Cinti,Culpina,10902,100266,Sajlina,rural,0,-20.811345000000003,-64.99638900000001,publico,puesto de salud,1,0
Chuquisaca,Sud Cinti,Culpina,10902,100267,La Loma (Chq),rural,1,-20.881345,-64.721389,publico,puesto de salud,1,0
Chuquisaca,Sud Cinti,Culpina,10902,100268,Tojlasa,rural,1,-20.860345000000002,-64.908389,publico,puesto de salud,1,0
Chuquisaca,Sud Cinti,Culpina,10902,100269,El Monte,rural,2,-21.023345000000003,-64.912389,publico,puesto de salud,1,0
Chuquisaca,Sud Cinti,Culpina,10902,100270,Puca Pampa,rural,1,-20.745345,-64.592389,publico,centro salud,1,0
Chuquisaca,Sud Cinti,Las Carreras,10903,100271,Taraya,rural,1,-21.449345,-65.324389,publico,puesto de salud,1,0
Chuquisaca,Sud Cinti,Las Carreras,10903,100272,La Torre,rural,1,-21.202345,-65.295389,publico,puesto de salud,1,0
Chuquisaca,Sud Cinti,Las Carreras,10903,100273,Impora,rural,2,-21.366345000000003,-65.279389,publico,puesto de salud,1,0
Chuquisaca,Sud Cinti,Las Carreras,10903,100274,Lime,rural,1,-21.214345,-65.247389,publico,puesto de salud,1,0
Chuquisaca,Sud Cinti,Las Carreras,10903,100275,Virgen Del Carmen,rural,0,-21.214345,-65.209389,publico,centro salud,1,0
Chuquisaca,Luis Calvo,Villa Vaca Guzmán (Muyupampa),11001,100276,Cumandayti,rural,0,-19.450345000000002,-63.841389,publico,puesto de salud,1,0
Chuquisaca,Luis Calvo,Villa Vaca Guzmán (Muyupampa),11001,100277,San Leolino,rural,0,-20.551345,-63.750389,publico,centro salud,1,0
Chuquisaca,Luis Calvo,Villa Vaca Guzmán (Muyupampa),11001,100278,Ity,rural,0,-19.591345,-63.759389,publico,puesto de salud,1,0
Chuquisaca,Luis Calvo,Villa Vaca Guzmán (Muyupampa),11001,100279,Karatindy,rural,1,-20.653345,-63.762389,publico,puesto de salud,1,10469380
Chuquisaca,Luis Calvo,Villa Vaca Guzmán (Muyupampa),11001,100280,La Tapera,rural,4,-19.673345,-63.820389,publico,centro salud,1,0
Chuquisaca,Luis Calvo,Villa Vaca Guzmán (Muyupampa),11001,100281,Muyupampa Leo Schwarz,rural,0,-19.899345,-63.749389,publico,centro salud,1,67600993
Chuquisaca,Luis Calvo,Villa Vaca Guzmán (Muyupampa),11001,100282,C.S. Cies Muyupampa,rural,0,0.0,0.0,,,,0
Chuquisaca,Luis Calvo,Villa Vaca Guzmán (Muyupampa),11001,100283,Sapiranguimiri,rural,0,-20.090345000000003,-63.753389,publico,puesto de salud,1,0
Chuquisaca,Luis Calvo,Villa Vaca Guzmán (Muyupampa),11001,100284,Taperillas,rural,0,-19.739345,-63.848389000000005,publico,puesto de salud,1,0
Chuquisaca,Luis Calvo,Huacaya,11002,100285,Huacaya San Lorenzo Sinceri,rural,4,-20.743345,-63.664389,publico,centro salud,1,0
Chuquisaca,Luis Calvo,Huacaya,11002,100286,Santa Rosa De Cuevo,rural,3,-20.486345,-63.525389000000004,publico,centro salud,1,0
Chuquisaca,Luis Calvo,Macharetí,11003,100287,Camatindi,rural,2,-20.997345000000003,-63.396389,publico,puesto de salud,1,0
Chuquisaca,Luis Calvo,Macharetí,11003,100288,Campo Leon,rural,2,-20.528345,-63.142389,publico,puesto de salud,1,0
Chuquisaca,Luis Calvo,Macharetí,11003,100289,Carandayti,rural,3,-20.768345,-63.073389,publico,centro salud,1,0
Chuquisaca,Luis Calvo,Macharetí,11003,100290,Ipati De Ivo,rural,2,-20.543345000000002,-63.401389,publico,puesto de salud,1,0
Chuquisaca,Luis Calvo,Macharetí,11003,100291,Ivo,rural,2,-20.453345000000002,-63.422389,publico,centro salud,1,0
Chuquisaca,Luis Calvo,Macharetí,11003,100292,Machareti Santa Isabel,rural,22,-20.815345,-63.362389,publico,centro salud,1,68837917
Chuquisaca,Luis Calvo,Macharetí,11003,100293,C.S. Cies Machareti,rural,0,0.0,0.0,,,,0
Chuquisaca,Luis Calvo,Macharetí,11003,100294,Nancaroinza,rural,1,-20.706345000000002,-63.288389,publico,puesto de salud,1,0
Chuquisaca,Luis Calvo,Macharetí,11003,100295,Tentami,rural,1,-20.934345,-63.334389,publico,puesto de salud,1,0
Chuquisaca,Luis Calvo,Macharetí,11003,100296,Tiguipa Estacion,rural,3,-21.001345,-63.331389,publico,centro salud,1,0
Chuquisaca,Oropeza,Sucre,10101,100297,Pro Mujer Jatarikuna,urbano,0,0.0,0.0,,,,0
Chuquisaca,Oropeza,Sucre,10101,100298,Promujer Valle Hermoso,urbano,0,0.0,0.0,,,,0
Chuquisaca,Oropeza,Sucre,10101,100299,Promujer Jatun Masis,urbano,0,0.0,0.0,,,,0
Chuquisaca,Hernando Siles,San Pablo de Huacareta,10502,100300,Arenal,rural,0,-20.697345000000002,-64.184389,publico,puesto de salud,1,68645137
Chuquisaca,Luis Calvo,Villa Vaca Guzmán (Muyupampa),11001,100301,Iripiti,rural,0,-19.290345000000002,-63.750389,publico,puesto de salud,1,67600993
Chuquisaca,Yamparaez,Tarabuco,10601,100302,Collacamani,rural,0,-19.253345,-64.900389,publico,centro salud,1,46936071
Chuquisaca,Oropeza,Sucre,10101,100303,Insalde,urbano,0,0.0,0.0,,,,0
Chuquisaca,Oropeza,Sucre,10101,100304,Clinica Odontologica  Umrpsfx,urbano,0,0.0,0.0,,,,0
Chuquisaca,Tomina,Sopachuy,10403,100305,Sipicani,rural,6,-19.429345,-64.570389,publico,centro salud,1,67600530
Chuquisaca,Nor Cinti,Camargo,10701,100306,Huacacancha,rural,1,-20.470345000000002,-64.914389,publico,puesto de salud,1,0
Chuquisaca,Nor Cinti,Incahuasi,10703,100307,San Andres Chuquisaca,rural,0,-20.488345000000002,-64.37138900000001,publico,puesto de salud,1,71167065
Chuquisaca,Nor Cinti,Incahuasi,10703,100308,Sultaca Alta,rural,2,-20.734026999999998,-64.92541999999999,publico,puesto de salud,1,67600759
Chuquisaca,Nor Cinti,San Lucas,10702,100309,C.S. Cns San Lucas,rural,0,0.0,0.0,,,,0
Chuquisaca,Nor Cinti,San Lucas,10702,100310,Chillagua,rural,3,-20.264345000000002,-64.972389,publico,puesto de salud,1,71161975
Chuquisaca,Nor Cinti,San Lucas,10702,100311,Sacavilque Grande,rural,2,-20.363345000000002,-64.62438900000001,publico,puesto de salud,1,71161302
Chuquisaca,Tomina,Padilla,10401,100312,C.S. Cies Padilla,rural,0,0.0,0.0,,,,0
Chuquisaca,Oropeza,Sucre,10101,100313,U.M. Horno Ckasa,urbano,0,0.0,0.0,,,,0
Chuquisaca,Oropeza,Sucre,10101,100314,U.M. Barrio Lindo,urbano,0,-19.026657,-65.264617,publico,centro salud,1,0
Chuquisaca,Oropeza,Sucre,10101,100315,U.M. Alto Delicias,urbano,0,0.0,0.0,,,,6464955
Chuquisaca,Oropeza,Sucre,10101,100316,C.S. U.M. Bajo Loyola,urbano,0,0.0,0.0,,,,0
Chuquisaca,Oropeza,Sucre,10101,100317,Alto Loyola,urbano,0,-19.025476,-65.251879,publico,centro salud,1,0
Chuquisaca,Oropeza,Sucre,10101,100318,Luis Espinal,urbano,0,-19.020619,-65.249173,publico,centro salud,1,0
Chuquisaca,Oropeza,Sucre,10101,100319,C.S. U.M. Alto San Juanillo,urbano,0,0.0,0.0,,,,0
Chuquisaca,Oropeza,Sucre,10101,100320,Garcilazo Bajo,urbano,0,-19.043576,-65.23742299999999,publico,centro salud,1,0
Chuquisaca,Oropeza,Sucre,10101,100321,Unidad Municipal Cobolde,urbano,0,-19.037872,-65.241323,publico,centro salud,1,0
Chuquisaca,Oropeza,Sucre,10101,100322,Unidad Municipal La Amistad,urbano,0,0.0,0.0,,,,0
Chuquisaca,Oropeza,Sucre,10101,100323,U.M. Morro Magisterio,urbano,0,-19.023384,-65.253568,publico,centro salud,1,0
Chuquisaca,Oropeza,Sucre,10101,100324,Barrio Obrero,urbano,0,-19.038607,-65.252342,publico,centro salud,1,0
Chuquisaca,Oropeza,Sucre,10101,100325,U.M.J.P.Bustillos,urbano,0,0.0,0.0,,,,0
Chuquisaca,Oropeza,Sucre,10101,100326,Villa Armonia B,urbano,0,-19.034755999999998,-65.248751,publico,centro salud,1,0
Chuquisaca,Oropeza,Sucre,10101,100327,U.M. Tintamayu,urbano,0,-19.030248999999998,-65.259846,publico,centro salud,1,0
Chuquisaca,Oropeza,Sucre,10101,100328,Sivisto,rural,0,-18.912345000000002,-65.247389,publico,centro salud,1,6444837
Chuquisaca,Oropeza,Sucre,10101,100329,Poconas,urbano,0,-19.044928,-65.247682,publico,centro salud,1,0
Chuquisaca,Oropeza,Sucre,10101,100330,U.M. Villa Margarita,urbano,0,0.0,0.0,,,,0
Chuquisaca,Oropeza,Sucre,10101,100331,Virgen De Guadalupe,urbano,0,-19.016857,-65.250066,publico,centro salud,1,0
Chuquisaca,Oropeza,Sucre,10101,100332,Tomas Katari,urbano,0,0.0,0.0,,,,0
Chuquisaca,Oropeza,Sucre,10101,100333,Alegria,urbano,0,-19.013524,-65.250941,publico,centro salud,1,0
Chuquisaca,Oropeza,Sucre,10101,100334,Noria Alta,urbano,0,0.0,0.0,,,,0
Chuquisaca,Oropeza,Sucre,10101,100335,Quirpinchaca,urbano,0,0.0,0.0,,,,0
Chuquisaca,Oropeza,Sucre,10101,100336,U.M. Tucsupaya Maca,urbano,0,0.0,0.0,,,,0
Chuquisaca,Oropeza,Sucre,10101,100337,Yurac Yurac,urbano,0,0.0,0.0,,,,0
Chuquisaca,Oropeza,Sucre,10101,100338,U.M. Barrio Urcupina,urbano,0,-19.030366,-65.277211,publico,centro salud,1,0
Chuquisaca,Oropeza,Sucre,10101,100339,C.S. U.M. Barrio España,urbano,0,0.0,0.0,,,,0
Chuquisaca,Oropeza,Sucre,10101,100340,El Rollo,urbano,0,-19.019130999999998,-65.286406,publico,centro salud,1,6466671
Chuquisaca,Oropeza,Sucre,10101,100341,San Luis,urbano,0,-19.019536,-65.279257,publico,centro salud,1,0
Chuquisaca,Oropeza,Sucre,10101,100342,Estados Unidos,urbano,0,-19.010641,-65.285539,publico,centro salud,1,0
Chuquisaca,Oropeza,Sucre,10101,100343,Villa La Jastambo,urbano,0,-19.011083,-65.304445,publico,centro salud,1,0
Chuquisaca,Oropeza,Sucre,10101,100344,Villa Marlecita,urbano,0,0.0,0.0,,,,0
Chuquisaca,Oropeza,Sucre,10101,100345,Barrio America,urbano,0,-19.062345,-65.26509399999999,publico,centro salud,1,6466994
Chuquisaca,Oropeza,Sucre,10101,100346,U.M. Tata Cajoncito,urbano,0,0.0,0.0,,,,0
Chuquisaca,Oropeza,Sucre,10101,100347,Santa Rosa,urbano,0,-19.054297000000002,-65.28094200000001,publico,centro salud,1,0
Chuquisaca,Oropeza,Sucre,10101,100348,Planta Diesel,urbano,0,-19.054678,-65.271188,publico,centro salud,1,0
Chuquisaca,Oropeza,Sucre,10101,100349,U.M. Max Toledo,urbano,1,0.0,0.0,,,,0
Chuquisaca,Oropeza,Sucre,10101,100350,U.M. La Hoyada,urbano,0,0.0,0.0,,,,0
Chuquisaca,Oropeza,Sucre,10101,100351,U.M. San Cristobal,urbano,0,-19.048146,-65.267854,publico,centro salud,1,0
Chuquisaca,Oropeza,Sucre,10101,100352,U.M. La Florida,urbano,0,-19.064721,-65.27283800000001,publico,centro salud,1,0
Chuquisaca,Oropeza,Sucre,10101,100353,U.M. Villa Charcas,urbano,0,0.0,0.0,,,,0
Chuquisaca,Oropeza,Sucre,10101,100354,San Francisco,urbano,0,-19.055694,-65.254367,publico,centro salud,1,0
Chuquisaca,Oropeza,Sucre,10101,100355,C.S. U.M. Sica Sica,urbano,0,0.0,0.0,,,,0
Chuquisaca,Oropeza,Sucre,10101,100356,C.S. U.M. San Antonio Centro,urbano,0,0.0,0.0,,,,0
Chuquisaca,Oropeza,Sucre,10101,100357,U.M. San Antonio Bajo,urbano,0,-19.04571,-65.24221999999999,publico,centro salud,1,0
Chuquisaca,Oropeza,Sucre,10101,100358,Cruce Azari,urbano,0,-19.073027,-65.241566,publico,centro salud,1,0
Chuquisaca,Oropeza,Sucre,10101,100359,Hospital Universitario San Francisco Xavier,urbano,0,0.0,0.0,,,,0
Chuquisaca,Zudañez,Icla,10304,100360,Sumala,rural,0,-19.642345000000002,-64.780389,publico,puesto de salud,1,67601176
Chuquisaca,Zudañez,Icla,10304,100361,San Jacinto,rural,2,-19.329345,-64.748389,publico,centro salud,1,67601139
Chuquisaca,Oropeza,Sucre,10101,100362,U.M. Litoral,urbano,0,0.0,0.0,,,,0
Chuquisaca,Sud Cinti,Culpina,10902,100363,Pumackasa,rural,1,-20.755345000000002,-64.662389,publico,puesto de salud,1,0
Chuquisaca,Sud Cinti,Culpina,10902,100364,Pumakasa,rural,2,0.0,0.0,,,,0
Chuquisaca,Oropeza,Sucre,10101,100365,U.M. Valle Hermoso B,urbano,0,0.0,0.0,,,,0
Chuquisaca,Sud Cinti,Culpina,10902,100366,P.S. Las Abras,rural,2,0.0,0.0,,,,0
Chuquisaca,Oropeza,Sucre,10101,100367,Qkora-Qkora,rural,0,-19.083209,-65.234272,publico,centro salud,1,75797195
Chuquisaca,Oropeza,Sucre,10101,100368,Ckacha-Ckacha,rural,0,-18.883345000000002,-65.181389,publico,puesto de salud,1,0
Chuquisaca,Nor Cinti,Incahuasi,10703,100369,El Verano,rural,1,-20.539345,-64.646649,publico,puesto de salud,1,72880501
Chuquisaca,Luis Calvo,Huacaya,11002,100370,Mbororigua,rural,0,-20.562345,-63.634389,publico,puesto de salud,1,0
Chuquisaca,Hernando Siles,Monteagudo,10501,100371,P.S. El Armado,rural,0,0.0,0.0,,,,0
Chuquisaca,Luis Calvo,Macharetí,11003,100372,Isipotindi,rural,2,-20.906345,-63.331389,publico,puesto de salud,1,0
Chuquisaca,Azurduy,Tarvita,10202,100373,Pampas De Leque,rural,1,-19.726345000000002,-64.534389,publico,centro salud,1,71160983
Chuquisaca,Azurduy,Tarvita,10202,100374,Villa Pampa,rural,1,-19.652345,-64.520389,publico,centro salud,1,71161989
Chuquisaca,Azurduy,Tarvita,10202,100375,San Jose De Alisos,rural,0,-19.700345000000002,-64.640389,publico,centro salud,1,71161096
Chuquisaca,Oropeza,Poroma,10103,100376,Sijcha Baja,rural,0,-18.901345000000003,-65.321389,publico,puesto de salud,1,68646724
Chuquisaca,Tomina,Padilla,10401,100377,C.S. Cies Padilla,rural,0,0.0,0.0,,,,0
Chuquisaca,Tomina,Padilla,10401,100378,P.S. San Blas,rural,2,0.0,0.0,,,,0
Chuquisaca,Zudañez,Icla,10304,100379,Guitarrani,rural,1,-19.598345000000002,-64.709389,publico,puesto de salud,1,67601178
Chuquisaca,Azurduy,Villa Azurduy,10201,100380,Collpamayu,rural,2,-20.079345,-64.529389,publico,puesto de salud,1,0
Chuquisaca,Luis Calvo,Villa Vaca Guzmán (Muyupampa),11001,100381,Tentayape,rural,0,-20.855345,-63.801389,publico,puesto de salud,1,0
Chuquisaca,Luis Calvo,Huacaya,11002,100382,Camatindi De Huacaya,rural,0,-20.519345,-63.479389000000005,publico,puesto de salud,1,67718867
Chuquisaca,Nor Cinti,San Lucas,10702,100383,Murifaya,rural,0,-20.093345000000003,-65.013389,publico,puesto de salud,1,71161969
Chuquisaca,Sud Cinti,Culpina,10902,100384,Las Abras,rural,2,-21.090345000000003,-64.227389,publico,puesto de salud,1,0
Chuquisaca,Azurduy,Villa Azurduy,10201,100385,Quewenal,rural,2,-19.933345000000003,-64.415389,publico,puesto de salud,1,0
Chuquisaca,Azurduy,Villa Azurduy,10201,100386,Huancarani,rural,2,-20.246345,-64.476389,publico,puesto de salud,1,67613161
Chuquisaca,Azurduy,Villa Azurduy,10201,100387,Las Abras,rural,2,-20.205345,-64.38338900000001,publico,puesto de salud,1,68626695
Chuquisaca,Hernando Siles,San Pablo de Huacareta,10502,100388,Yaire,rural,1,-20.726345000000002,-64.141389,publico,puesto de salud,1,0
Chuquisaca,Luis Calvo,Huacaya,11002,100389,C.S. Cies  Huacaya,rural,0,0.0,0.0,,,,0
Chuquisaca,Luis Calvo,Macharetí,11003,100390,Tiguipa Pueblo,rural,2,-20.914345,-63.385389,publico,puesto de salud,1,0
Chuquisaca,Luis Calvo,Villa Vaca Guzmán (Muyupampa),11001,100391,Aguairenda,rural,0,-19.814345,-63.727389,publico,puesto de salud,1,0
Chuquisaca,Luis Calvo,Villa Vaca Guzmán (Muyupampa),11001,100392,Iticupe,rural,0,-20.211345,-63.794389,publico,puesto de salud,1,46479234
Chuquisaca,Nor Cinti,Incahuasi,10703,100393,Sacari,rural,0,-20.615345,-64.784389,publico,puesto de salud,1,6700754
Chuquisaca,Nor Cinti,Incahuasi,10703,100394,Huancarani Alto,rural,3,-20.658345,-64.860389,publico,puesto de salud,1,67600765
Chuquisaca,Nor Cinti,San Lucas,10702,100395,Torre De Linares,rural,1,-19.874345,-64.777389,publico,puesto de salud,1,46938251
Chuquisaca,Sud Cinti,Las Carreras,10903,100396,Socpora,rural,2,-21.352024,-65.22901999999999,publico,puesto de salud,1,0
Chuquisaca,Tomina,Villa Alcalá,10404,100397,Matela Alta,rural,0,-19.478345,-64.396389,publico,puesto de salud,1,67602910
Chuquisaca,Tomina,Padilla,10401,100398,San Blas,rural,0,-19.642345000000002,-64.387389,publico,puesto de salud,1,67601504
Chuquisaca,Tomina,Sopachuy,10403,100399,Mama Huasi,rural,0,-19.327345,-64.598389,publico,puesto de salud,1,67600534
Chuquisaca,Tomina,Tomina,10402,100400,Punamayu,rural,1,-19.152345,-64.397389,publico,puesto de salud,1,71160168
Chuquisaca,Tomina,Tomina,10402,100401,Kuri,rural,1,-19.187345,-64.566389,publico,puesto de salud,1,71160158
Chuquisaca,Yamparaez,Tarabuco,10601,100402,Higueras Chilca,rural,0,-19.216345,-64.961389,publico,puesto de salud,1,71162985
Chuquisaca,Zudañez,Presto,10302,100403,La Joya,rural,0,-18.612345,-64.820389,publico,puesto de salud,1,0
Chuquisaca,Zudañez,Presto,10302,100404,San Isidro De Tomoroco,rural,0,-18.983345,-64.88938900000001,publico,centro salud,1,68615480
Chuquisaca,Zudañez,Presto,10302,100405,Virgen Del Rosario,rural,0,-18.936557999999998,-64.937975,publico,puesto de salud,1,73465803
Chuquisaca,Oropeza,Sucre,10101,100406,Soico,rural,1,-18.812345,-65.263389,publico,puesto de salud,1,0
Chuquisaca,Oropeza,Sucre,10101,100407,C.S.San Juanillo,rural,1,-19.03193,-65.25535,iglesia,centro salud,1,0
Chuquisaca,Oropeza,Sucre,10101,100408,Ende,urbano,0,-19.050829999999998,-65.277558,publico,centro salud,1,0
Chuquisaca,Nor Cinti,San Lucas,10702,100409,Cruz Mayu,rural,0,-20.031345,-64.86838900000001,publico,puesto de salud,1,71161972
Chuquisaca,Oropeza,Sucre,10101,100410,C.S Santa Barbara Norte,urbano,0,0.0,0.0,,,,0
Chuquisaca,Oropeza,Sucre,10101,100411,C.S. Belen,urbano,0,0.0,0.0,,,,0
Chuquisaca,Oropeza,Sucre,10101,100412,C.S Holanda,rural,0,0.0,0.0,,,,0
Chuquisaca,Oropeza,Sucre,10101,100413,C.S Hogar Sucre,rural,0,0.0,0.0,,,,0
Chuquisaca,Zudañez,Icla,10304,100414,Kollpapampa,rural,0,-19.302345000000003,-64.837389,publico,puesto de salud,1,67601146
Chuquisaca,Nor Cinti,Camargo,10701,100415,Cuevapampa,rural,2,-20.433045,-65.05135,publico,puesto de salud,1,0
Chuquisaca,Nor Cinti,Incahuasi,10703,100416,P.S.  Taravinto,rural,2,0.0,0.0,,,,0
Chuquisaca,Nor Cinti,Incahuasi,10703,100417,C.S. Chinimayo,rural,2,0.0,0.0,,,,0
Chuquisaca,Nor Cinti,San Lucas,10702,100418,C.S. La Loma,rural,2,0.0,0.0,,,,0
Chuquisaca,Oropeza,Poroma,10103,100419,Soicoco,rural,0,-18.502174,-65.514839,publico,puesto de salud,1,71818152
Chuquisaca,Tomina,Tomina,10402,100420,Thurumayu,rural,0,-19.144345,-64.548389,publico,puesto de salud,1,71160156
Chuquisaca,Oropeza,Sucre,10101,100421,Santa Barbara Norte,urbano,0,-19.026639000000003,-65.255423,publico,centro salud,1,6467642
Chuquisaca,Oropeza,Sucre,10101,100422,Holanda,urbano,5,-19.036326000000003,-65.277072,publico,centro salud,1,0
Chuquisaca,Oropeza,Sucre,10101,100423,Belen,urbano,3,-19.025042000000003,-65.299763,publico,centro salud,1,0
Chuquisaca,Oropeza,Sucre,10101,100424,C.S. Hogar Sucre,urbano,0,0.0,0.0,,,,0
Chuquisaca,Oropeza,Sucre,10101,100425,C.S. Aldeas Sos,urbano,0,0.0,0.0,,,,0
Chuquisaca,Nor Cinti,San Lucas,10702,100426,San Pedro De Huanaya Kasa,rural,2,-20.316195,-64.756901,publico,centro salud,1,71161295
Chuquisaca,Nor Cinti,San Lucas,10702,100427,Laravinto,rural,0,-20.145364,-64.63753100000001,publico,puesto de salud,1,71161328
Chuquisaca,Nor Cinti,Incahuasi,10703,100428,Chillajara,rural,0,-20.688369,-64.772908,publico,puesto de salud,1,71873336
Chuquisaca,Oropeza,Poroma,10103,100429,Viru Viru,rural,0,-18.387929,-65.662185,publico,puesto de salud,1,73461500
Chuquisaca,Oropeza,Poroma,10103,100430,Palajla,rural,0,-18.423966,-65.464208,publico,puesto de salud,1,67603929
Chuquisaca,Oropeza,Poroma,10103,100431,Calisaya,rural,0,-18.484995,-65.324067,publico,puesto de salud,1,68614149
Chuquisaca,Oropeza,Poroma,10103,100432,Pomanaza,rural,1,-18.596282000000002,-65.312016,publico,puesto de salud,1,73494974
Chuquisaca,Azurduy,Tarvita,10202,100433,Tacos,rural,0,-19.787345000000002,-64.435389,publico,puesto de salud,1,71161053
Chuquisaca,Hernando Siles,Monteagudo,10501,100434,San Lorenzo,rural,1,-19.933347,-64.214384,publico,puesto de salud,1,0
Chuquisaca,Oropeza,Sucre,10101,100435,C.S. Brigada Cubana,urbano,0,0.0,0.0,,,,0
Chuquisaca,Oropeza,Sucre,10101,100436,Brigada  Cubana Tejar,urbano,0,0.0,0.0,,,,0
Chuquisaca,Oropeza,Sucre,10101,100437,Brigada  Cubana Sb Norte,urbano,0,0.0,0.0,,,,0
Chuquisaca,Oropeza,Sucre,10101,100438,Bridaga  Cubana San  Jose,urbano,0,0.0,0.0,,,,0
Chuquisaca,Oropeza,Sucre,10101,100439,Brigada  Cubana  Central,urbano,0,0.0,0.0,,,,0
Chuquisaca,Oropeza,Sucre,10101,100440,Brigada   Cubana   Sur,urbano,0,0.0,0.0,,,,0
Chuquisaca,Tomina,Padilla,10401,100441,El Llantoj,rural,0,0.0,0.0,,,,0
Chuquisaca,Zudañez,Icla,10304,100442,Rodeo De Icla,rural,1,-19.363539000000003,-64.686949,publico,centro salud,1,67601135
Chuquisaca,Nor Cinti,Camargo,10701,100443,P.S.  Mollini,rural,0,0.0,0.0,,,,0
Chuquisaca,Luis Calvo,Huacaya,11002,100444,P.S. Chimbe,rural,2,0.0,0.0,,,,0
Chuquisaca,Oropeza,Sucre,10101,100445,Hosp. Niño Sor Teresa Huarte Tama,urbano,60,-19.008242000000003,-65.307501,publico,hospital general,3,0
Chuquisaca,Oropeza,Sucre,10101,100446,Instituto Cupertino Aliaga,urbano,20,0.0,0.0,,,,0
Chuquisaca,Oropeza,Sucre,10101,100447,Um. Alto Florida,urbano,0,-19.060485999999997,-65.266628,publico,centro salud,1,0
Chuquisaca,Luis Calvo,Huacaya,11002,100448,Chimbe,rural,0,0.0,0.0,,,,0
Chuquisaca,Oropeza,Sucre,10101,100449,C.S. Promujer Valle Hermoso,urbano,0,0.0,0.0,,,,0
Chuquisaca,Oropeza,Sucre,10101,100450,C.S. Plataforma De Chagas,urbano,0,0.0,0.0,,,,0
Chuquisaca,Zudañez,Presto,10302,100451,Molani,rural,0,0.0,0.0,,,,70332712
Chuquisaca,Nor Cinti,Camargo,10701,100452,Mollini,rural,0,0.0,0.0,,,,0
Chuquisaca,Oropeza,Sucre,10101,100453,Centro De Especialidades,urbano,0,0.0,0.0,,,,0
Chuquisaca,Oropeza,Sucre,10101,100454,U.M. Alemania Unida,urbano,0,0.0,0.0,,,,0
Chuquisaca,Oropeza,Sucre,10101,100455,U.M. Amazonas,urbano,0,0.0,0.0,,,,0
Chuquisaca,Oropeza,Sucre,10101,100456,U.M. Los Angeles,urbano,0,0.0,0.0,,,,6464400
Chuquisaca,Oropeza,Sucre,10101,100457,C.S. Luis Espinal,urbano,0,0.0,0.0,,,,0
Chuquisaca,Oropeza,Sucre,10101,100458,C.S.U.M. Cessa,urbano,0,0.0,0.0,,,,0
Chuquisaca,Oropeza,Poroma,10103,100459,Sapse,rural,1,0.0,0.0,,,,73464932
Chuquisaca,Oropeza,Sucre,10101,100460,Huanca Pampa,rural,0,0.0,0.0,,,,74401267
Chuquisaca,Oropeza,Sucre,10101,100461,Banco De Sangre,urbano,0,0.0,0.0,,,,0
Chuquisaca,Oropeza,Sucre,10101,100462,La Barranca,rural,0,0.0,0.0,,,,77119133
Chuquisaca,Sud Cinti,Culpina,10902,100463,Salviani,rural,0,0.0,0.0,,,,0
Chuquisaca,Zudañez,Icla,10304,100464,Jatun Mayu,rural,1,-19.399175,-64.729446,publico,puesto de salud,1,68634197
Chuquisaca,Zudañez,Presto,10302,100465,El Palmar,rural,0,0.0,0.0,,,,73464671
Chuquisaca,Oropeza,Sucre,10101,100466,C.S. Mision Esperanza,urbano,0,0.0,0.0,,,,0
Chuquisaca,Tomina,El Villar,10405,100467,P.S. Barbechos,rural,1,0.0,0.0,,,,0
Chuquisaca,Oropeza,Poroma,10103,100468,P.S. Piocera,rural,1,0.0,0.0,,,,0
Chuquisaca,Oropeza,Poroma,10103,100469,C.S.A. Yanani,rural,1,0.0,0.0,,,,0
Chuquisaca,Nor Cinti,Camargo,10701,100470,Centro De Salud Muyuquiri,rural,2,0.0,0.0,,,,0
Chuquisaca,Azurduy,Tarvita,10202,100471,Puesto De Salud El Salto,rural,2,0.0,0.0,,,,0
Chuquisaca,Nor Cinti,San Lucas,10702,100472,Puesto De Salud Chuncho,rural,3,0.0,0.0,,,,0
Chuquisaca,Nor Cinti,San Lucas,10702,100473,Puesto De Salud Pazla,rural,2,0.0,0.0,,,,0
Chuquisaca,Oropeza,Sucre,10101,100474,Kora Kora Guadalupe,rural,1,0.0,0.0,,,,0
Chuquisaca,Oropeza,Yotala,10102,100475,Tasapampa,rural,2,0.0,0.0,,,,0
Chuquisaca,Nor Cinti,Villa Charcas,10704,100476,Tipani,rural,2,0.0,0.0,,,,0
Chuquisaca,Oropeza,Sucre,10101,100477,Instituto Chuquisaqueño De Oncologia,urbano,36,0.0,0.0,,,,0
Chuquisaca,Oropeza,Poroma,10103,100478,Irocota,rural,1,0.0,0.0,,,,0
Chuquisaca,Zudañez,Icla,10304,100479,Chunca Cancha - Icla,rural,2,0.0,0.0,,,,0
Chuquisaca,Tomina,Tomina,10402,100480,P.S. Villaflores,rural,2,0.0,0.0,,,,0
Chuquisaca,Oropeza,Sucre,10101,100481,Tintamayu (M),urbano,0,0.0,0.0,,,,0
Chuquisaca,Oropeza,Sucre,10101,100482,Litoral (M),urbano,0,0.0,0.0,,,,0
Chuquisaca,Oropeza,Sucre,10101,100483,Virgen Del Remedio,urbano,0,0.0,0.0,,,,0
Chuquisaca,Yamparaez,Tarabuco,10601,100484,Morado K`Asa,rural,2,0.0,0.0,,,,67645425
Chuquisaca,Oropeza,Sucre,10101,100485,Cruz Roja Filial Chuquisaca,urbano,0,0.0,0.0,,,,6451508
Chuquisaca,Oropeza,Sucre,10101,100486,Clinica Los Ángeles,urbano,45,0.0,0.0,,,,6464300
Chuquisaca,Oropeza,Sucre,10101,100487,Clínica  Angeles,urbano,45,0.0,0.0,,,,6464300
Chuquisaca,Oropeza,Sucre,10101,100488,C.I.S. 1,urbano,0,0.0,0.0,,,,72836154
Chuquisaca,Oropeza,Sucre,10101,100489,P.S. Llinfi,rural,1,0.0,0.0,,,,78437930
Chuquisaca,Yamparaez,Tarabuco,10601,100490,"C.S.A. ""San Juan De Dios""",urbano,21,0.0,0.0,,,,72872062
Chuquisaca,Sud Cinti,Las Carreras,10903,100491,P.S Santa Rosa,rural,2,0.0,0.0,,,,67373451
Chuquisaca,Nor Cinti,Incahuasi,10703,100492,El Quemado,rural,6,0.0,0.0,,,,68660162
La Paz,Murillo,La Paz,20101,200001,C.S. San Pablo (La Paz),urbano,0,0.0,0.0,,,,0
La Paz,Murillo,La Paz,20101,200002,C.S. Rincon Portada,urbano,0,0.0,0.0,,,,0
La Paz,Murillo,La Paz,20101,200003,Alto Obrajes,urbano,0,-16.523795,-68.10593399999999,publico,c.s. ambulatorio,1,76237003
La Paz,Murillo,La Paz,20101,200004,Hosp.  Arco Iris,urbano,25,-16.484181,-68.120367,organismos privados,hospital segundo nivel,2,0
La Paz,Murillo,La Paz,20101,200005,Nino Kollo,urbano,0,-16.510008,-68.149116,publico,c.s. ambulatorio,1,2324015
La Paz,Murillo,La Paz,20101,200006,C.S. Cemes,urbano,30,-16.514213,-68.120959,organismos privados,c.s. integral,1,2450586
La Paz,Murillo,La Paz,20101,200007,Pol. 9 De Abril,urbano,0,-16.509239,-68.12594,seguridad social (cajas),c.s. ambulatorio,1,2488137
La Paz,Murillo,La Paz,20101,200008,La Gruta,urbano,0,-16.506598999999998,-68.155332,publico,c.s. ambulatorio,1,2442019
La Paz,Murillo,La Paz,20101,200009,C.O.R.D.E.S.,urbano,0,-16.508684,-68.124946,seguridad social (cajas),policonsultorio,1,0
La Paz,Murillo,La Paz,20101,200010,Hosp.  Gral. Nro 1 (Obrero),urbano,350,-16.499274,-68.118074,seguridad social (cajas),hospital general,3,0
La Paz,Murillo,La Paz,20101,200011,Centro De Especialidades,urbano,44,0.0,0.0,,,,0
La Paz,Murillo,La Paz,20101,200012,Tembladerani,urbano,0,-16.515639,-68.139472,publico,c.s. integral,1,2415293
La Paz,Murillo,La Paz,20101,200013,C.S. Villa Armonia,urbano,0,0.0,0.0,,,,0
La Paz,Murillo,La Paz,20101,200014,Obrajes,urbano,0,-16.529769,-68.102901,publico,c.s. ambulatorio,1,71269569
La Paz,Murillo,La Paz,20101,200015,Bajo Tacagua,urbano,0,-16.510347,-68.145926,publico,c.s. ambulatorio,1,2482523
La Paz,Murillo,La Paz,20101,200016,C.S. Cemep,urbano,0,0.0,0.0,,,,0
La Paz,Murillo,La Paz,20101,200017,Pasankery,urbano,0,-16.526726999999998,-68.140913,publico,c.s. ambulatorio,1,2310316
La Paz,Murillo,La Paz,20101,200018,Llojeta,urbano,0,-16.533611999999998,-68.138409,publico,c.s. ambulatorio,1,2320442
La Paz,Murillo,La Paz,20101,200019,18 De Mayo,urbano,0,-16.480133,-68.14477,publico,c.s. ambulatorio,1,0
La Paz,Murillo,La Paz,20101,200020,Bella Vista,urbano,3,-16.530345999999998,-68.094921,publico,c.s. integral,1,76551000
La Paz,Murillo,La Paz,20101,200021,C.S. Achumani Prosalud,urbano,0,-16.531004,-68.074784,organismos no gubernamentales,c.s. ambulatorio,1,2714637
La Paz,Murillo,La Paz,20101,200022,Cota Cota ( Los Pinos),urbano,0,-16.541242,-68.07264,publico,c.s. ambulatorio,1,71501519
La Paz,Murillo,La Paz,20101,200023,C.S. Cai Pasankeri,urbano,0,0.0,0.0,,,,0
La Paz,Murillo,La Paz,20101,200024,C.S. Las Lomas,urbano,0,0.0,0.0,,,,0
La Paz,Murillo,La Paz,20101,200025,Chasquipampa E. Saenz,urbano,3,-16.53872,-68.047506,publico,c.s. ambulatorio,1,79680231
La Paz,Murillo,La Paz,20101,200026,Centro De Orientacion Femenina,urbano,0,-16.523363,-68.109719,publico,c.s. ambulatorio,1,73025360
La Paz,Murillo,La Paz,20101,200027,Bolognia,urbano,0,-16.520239,-68.090188,publico,c.s. ambulatorio,1,77521587
La Paz,Murillo,La Paz,20101,200028,8 De Diciembre,urbano,0,-16.518314,-68.13307900000001,publico,c.s. ambulatorio,1,0
La Paz,Murillo,La Paz,20101,200029,C.S. C.I.E.S. La Paz,urbano,20,-16.50378,-68.137117,organismos no gubernamentales,c.s. integral,1,2485111
La Paz,Murillo,La Paz,20101,200030,C.S. Centro Comunal El Carmen,urbano,0,0.0,0.0,,,,0
La Paz,Murillo,La Paz,20101,200031,C.S. Reg.Policial Nro 1,urbano,0,0.0,0.0,,,,0
La Paz,Murillo,La Paz,20101,200032,San Pedro Bajo,urbano,0,-16.502185,-68.136358,publico,c.s. ambulatorio,1,0
La Paz,Murillo,La Paz,20101,200033,C.S. Cai El Carmen Llojeta,urbano,0,0.0,0.0,,,,0
La Paz,Murillo,La Paz,20101,200034,San Luis,urbano,0,-16.510673,-68.135769,publico,c.s. ambulatorio,1,0
La Paz,Murillo,La Paz,20101,200035,C.S.M.I. Villa Nuevo Potosi,urbano,6,-16.507426000000002,-68.143937,publico,c.s. integral,1,0
La Paz,Murillo,La Paz,20101,200036,Caja Bancaria Estatal,urbano,3,-16.497212,-68.123575,seguridad social (cajas),policonsultorio,1,2228360
La Paz,Murillo,La Paz,20101,200037,Banca Privada (Aramayo),urbano,6,-16.50196,-68.130988,seguridad social (cajas),policonsultorio,1,2310316
La Paz,Murillo,La Paz,20101,200038,Pol. Caminos Reg. La Paz,urbano,0,-16.508662,-68.127564,seguridad social (cajas),c.s. ambulatorio,1,0
La Paz,Murillo,La Paz,20101,200039,Alto Tacagua,urbano,0,-16.513513,-68.14969599999999,publico,c.s. ambulatorio,1,71983318
La Paz,Murillo,La Paz,20101,200040,C.S. Avance Comunitario,urbano,0,-16.537373000000002,-68.049224,organismos no gubernamentales,c.s. ambulatorio,1,2799565
La Paz,Murillo,La Paz,20101,200041,C.S. Wiñay,urbano,0,0.0,0.0,,,,0
La Paz,Murillo,La Paz,20101,200042,Achumani,urbano,0,-16.515112,-68.06281,publico,c.s. ambulatorio,1,79666911
La Paz,Murillo,La Paz,20101,200043,C.S. Cis,urbano,0,0.0,0.0,,,,0
La Paz,Murillo,La Paz,20101,200044,C.S. Pediatria Neont.P.,urbano,0,0.0,0.0,,,,0
La Paz,Murillo,La Paz,20101,200045,Alcoreza,urbano,0,-16.509085,-68.15154799999999,publico,c.s. ambulatorio,1,0
La Paz,Murillo,La Paz,20101,200046,Biblioteca,urbano,0,-16.504869,-68.149849,publico,c.s. ambulatorio,1,0
La Paz,Murillo,La Paz,20101,200047,C.S. Irpavi-Bolognia Prosalud,urbano,6,0.0,0.0,,,,0
La Paz,Murillo,La Paz,20101,200048,C.S.M.I. Chamoco Chico,urbano,0,-16.501535,-68.154157,publico,c.s. ambulatorio,1,0
La Paz,Murillo,La Paz,20101,200049,Hospital La Paz,urbano,58,-16.496014000000002,-68.14584599999999,publico,hospital segundo nivel,2,0
La Paz,Murillo,La Paz,20101,200050,Alto Mcal.Santa Cruz,urbano,0,-16.493793,-68.162385,publico,c.s. ambulatorio,1,0
La Paz,Murillo,La Paz,20101,200051,Plan Autopista,urbano,0,-16.441354,-68.142797,publico,c.s. ambulatorio,1,0
La Paz,Murillo,La Paz,20101,200052,Achachicala,urbano,0,-16.475507,-68.151055,publico,c.s. ambulatorio,1,0
La Paz,Murillo,La Paz,20101,200053,Agua De La Vida,urbano,0,-16.492186,-68.12857199999999,publico,c.s. ambulatorio,1,76262505
La Paz,Murillo,La Paz,20101,200054,San Juan Lazareto,urbano,0,-16.487823000000002,-68.127579,publico,c.s. ambulatorio,1,0
La Paz,Murillo,La Paz,20101,200055,C.S. Tejada Sorzano Prosalud,urbano,6,0.0,0.0,,,,0
La Paz,Murillo,La Paz,20101,200056,Alto Miraflores,urbano,0,-16.480967,-68.127548,publico,c.s. ambulatorio,1,0
La Paz,Murillo,La Paz,20101,200057,C.S. Alto Miraflores Prosalud.,urbano,7,0.0,0.0,,,,0
La Paz,Murillo,La Paz,20101,200058,El Calvario,urbano,0,-16.485597,-68.134662,publico,c.s. ambulatorio,1,2320442
La Paz,Murillo,La Paz,20101,200059,Chuquiaguillo,urbano,0,-16.459336999999998,-68.102529,publico,c.s. ambulatorio,1,78960892
La Paz,Murillo,La Paz,20101,200060,C.S. San Francisco De Asis,urbano,26,-16.469811,-68.114424,iglesia,hospital segundo nivel,2,0
La Paz,Murillo,La Paz,20101,200061,San Jose Natividad,urbano,0,-16.475419,-68.115003,publico,c.s. ambulatorio,1,0
La Paz,Murillo,La Paz,20101,200062,V.F.Las Delicias,urbano,0,-16.47506,-68.125884,publico,c.s. ambulatorio,1,0
La Paz,Murillo,La Paz,20101,200063,C.S. Villa Fatima Prosalud,urbano,6,0.0,0.0,,,,0
La Paz,Murillo,La Paz,20101,200064,Clinica Señor Exaltacion,urbano,0,0.0,0.0,,,,0
La Paz,Murillo,La Paz,20101,200065,Vino Tinto,urbano,0,-16.482885999999997,-68.14168199999999,publico,c.s. ambulatorio,1,0
La Paz,Murillo,La Paz,20101,200066,Hosp.  San Gabriel,urbano,54,-16.491519,-68.116658,organismos no gubernamentales,hospital segundo nivel,2,0
La Paz,Murillo,La Paz,20101,200067,Pampahasi (Bajo),urbano,2,-16.504936999999998,-68.10183,publico,c.s. integral,1,79517500
La Paz,Murillo,La Paz,20101,200068,Pampahasi Alto,urbano,0,-16.491144,-68.103827,publico,c.s. ambulatorio,1,71901075
La Paz,Murillo,La Paz,20101,200069,San Antonio Alto (Lpz),urbano,0,-16.496761,-68.110208,publico,c.s. ambulatorio,1,65657463
La Paz,Murillo,La Paz,20101,200070,C.S. Kupini,urbano,3,0.0,0.0,,,,0
La Paz,Murillo,La Paz,20101,200071,San Isidro (Lpz),urbano,0,-16.514367,-68.108399,publico,c.s. ambulatorio,1,70516286
La Paz,Murillo,La Paz,20101,200072,San Antonio Bajo,urbano,0,-16.499239000000003,-68.111125,publico,c.s. ambulatorio,1,73029409
La Paz,Murillo,La Paz,20101,200073,Asistencia Publica,urbano,0,-16.500011999999998,-68.13154499999999,publico,c.s. integral,1,2203316
La Paz,Murillo,La Paz,20101,200074,C.S. Cemse,urbano,0,-16.492601999999998,-68.135006,iglesia,c.s. ambulatorio,1,0
La Paz,Murillo,La Paz,20101,200075,Hosp.  Juan Xxiii,urbano,100,-16.487299,-68.157821,iglesia,hospital general,3,0
La Paz,Murillo,La Paz,20101,200076,Hosp.  De La Mujer,urbano,108,-16.507718,-68.11930699999999,publico,instituto especializado,3,0
La Paz,Murillo,La Paz,20101,200077,Hosp.  De Clinicas,urbano,354,-16.506781,-68.119795,publico,hospital general,3,0
La Paz,Murillo,La Paz,20101,200078,Hosp.  Del Niño,urbano,133,-16.508418,-68.11835699999999,publico,instituto especializado,3,0
La Paz,Murillo,La Paz,20101,200079,Instituto De Gastroenterologia,urbano,38,-16.507323,-68.11823299999999,publico,instituto especializado,3,0
La Paz,Murillo,La Paz,20101,200080,Instituto Nal.De Oftalmologia,urbano,20,-16.506435999999997,-68.118138,publico,instituto especializado,3,0
La Paz,Murillo,La Paz,20101,200081,Instituto Nal.Del Torax,urbano,78,-16.506698999999998,-68.117597,publico,instituto especializado,3,0
La Paz,Murillo,La Paz,20101,200082,Hosp.  Materno Infantil,urbano,408,-16.501958,-68.117896,seguridad social (cajas),instituto especializado,3,0
La Paz,Murillo,La Paz,20101,200083,Pol. Villa Fatima,urbano,0,-16.482183,-68.120812,seguridad social (cajas),policonsultorio,1,2211908
La Paz,Murillo,La Paz,20101,200084,Caja Petrolera De Salud(Lpz),urbano,0,-16.508944,-68.12809399999999,seguridad social (cajas),policlinico,1,0
La Paz,Murillo,La Paz,20101,200085,C.S. Ceprosi,urbano,0,-16.484582,-68.157352,organismos no gubernamentales,c.s. ambulatorio,1,0
La Paz,Murillo,La Paz,20101,200086,La Portada,urbano,0,-16.490012,-68.16584499999999,publico,c.s. ambulatorio,1,72501170
La Paz,Murillo,La Paz,20101,200087,C.S. M.I. El Tejar(Mcal.),urbano,6,-16.497575,-68.156079,publico,c.s. integral,1,0
La Paz,Murillo,La Paz,20101,200088,Bajo Tejar,urbano,0,-16.495399,-68.154276,publico,c.s. ambulatorio,1,0
La Paz,Murillo,La Paz,20101,200089,Munaypata,urbano,0,-16.487306,-68.15932099999999,publico,c.s. ambulatorio,1,0
La Paz,Murillo,La Paz,20101,200090,Obispo Indaburo,urbano,0,-16.500401,-68.14923399999999,publico,c.s. ambulatorio,1,0
La Paz,Murillo,La Paz,20101,200091,Cdvir La Paz,urbano,0,-16.488598,-68.144758,publico,c. caracteristicas part.,1,0
La Paz,Murillo,La Paz,20101,200092,Ciudadela Ferroviaria,urbano,0,-16.478711999999998,-68.15174499999999,publico,c.s. ambulatorio,1,0
La Paz,Murillo,La Paz,20101,200093,Panticirca,urbano,0,-16.460131,-68.158135,publico,c.s. ambulatorio,1,0
La Paz,Murillo,La Paz,20101,200094,Said,urbano,0,-16.482176000000003,-68.151201,publico,c.s. ambulatorio,1,0
La Paz,Murillo,La Paz,20101,200095,Juancito Pinto,urbano,0,-16.49485,-68.13972700000001,publico,c.s. ambulatorio,1,0
La Paz,Murillo,La Paz,20101,200096,Pol. 18 De Mayo  Ex 21 De Sep,urbano,0,-16.492561,-68.14693299999999,seguridad social (cajas),policlinico,1,0
La Paz,Murillo,La Paz,20101,200097,Pol.Central,urbano,0,-16.495185,-68.133854,seguridad social (cajas),policonsultorio,1,0
La Paz,Murillo,La Paz,20101,200098,Pol. Manco Kapac,urbano,0,-16.493188,-68.143349,seguridad social (cajas),policonsultorio,1,0
La Paz,Murillo,La Paz,20101,200099,Hosp.  Psiquiatrico N° 14.,urbano,47,-16.502511,-68.120351,seguridad social (cajas),instituto especializado,3,0
La Paz,Murillo,La Paz,20101,200100,Cossmil Hosp. Militar,urbano,120,-16.505175,-68.120419,seguridad social (cajas),hospital general,3,0
La Paz,Murillo,La Paz,20101,200101,Inst.Nal.Salud Ocupacional,urbano,0,-16.50681,-68.118703,publico,c. caracteristicas part.,1,0
La Paz,Murillo,La Paz,20101,200102,Instituto De Rehabilitacion,urbano,0,-16.539917000000003,-68.090517,seguridad social (cajas),instituto especializado,3,0
La Paz,Murillo,La Paz,20101,200103,C.S. Reten De Emergencia,urbano,0,0.0,0.0,,,,0
La Paz,Murillo,La Paz,20101,200104,Pol. Miraflores,urbano,0,-16.501575,-68.120423,seguridad social (cajas),policonsultorio,1,2245697
La Paz,Murillo,La Paz,20101,200105,El Rosal,urbano,0,-16.534741,-68.13351,publico,c.s. integral,1,0
La Paz,Murillo,La Paz,20101,200106,C.S. Normal Simon Bolivar,urbano,0,0.0,0.0,,,,0
La Paz,Murillo,La Paz,20101,200107,Seladis,urbano,0,0.0,0.0,,,,0
La Paz,Murillo,La Paz,20101,200108,Inlasa,urbano,0,0.0,0.0,,,,0
La Paz,Murillo,La Paz,20101,200109,Alto Irpavi,urbano,0,-16.515575,-68.084462,publico,c.s. ambulatorio,1,71265911
La Paz,Murillo,La Paz,20101,200110,C.S. Ciase,urbano,6,0.0,0.0,,,,0
La Paz,Murillo,La Paz,20101,200111,Mallasa,urbano,0,-16.569325,-68.08978499999999,publico,c.s. ambulatorio,1,70545298
La Paz,Murillo,La Paz,20101,200112,Alto Seguencoma,urbano,0,-16.538848,-68.099964,publico,c.s. ambulatorio,1,72538961
La Paz,Murillo,La Paz,20101,200113,Penal De San Pedro,urbano,0,-16.502907,-68.134917,publico,c.s. ambulatorio,1,2131454
La Paz,Murillo,La Paz,20101,200114,Villa Victoria,urbano,0,-16.490761,-68.152985,publico,c.s. ambulatorio,1,0
La Paz,Murillo,La Paz,20101,200115,Hosp.  Gral. L.U.O,urbano,122,-16.482828,-68.116783,seguridad social (cajas),hospital general,3,0
La Paz,Murillo,La Paz,20101,200116,Villa Copacabana (Pacasa),urbano,0,-16.484181,-68.117275,publico,c.s. ambulatorio,1,73718230
La Paz,Murillo,La Paz,20101,200117,C.S. Cesdi,urbano,0,0.0,0.0,,,,0
La Paz,Murillo,La Paz,20101,200118,Apumalla,urbano,0,0.0,0.0,,,,74215055
La Paz,Murillo,La Paz,20101,200119,C.S. Escobar Uria,urbano,0,0.0,0.0,,,,0
La Paz,Murillo,La Paz,20101,200120,C.S. Valle Hermoso (E),urbano,0,0.0,0.0,,,,0
La Paz,Murillo,Palca,20102,200121,Cayimbaya,rural,0,-16.711245,-67.75408900000001,publico,c.s. ambulatorio,1,73578201
La Paz,Murillo,Palca,20102,200122,Cohoni,rural,0,-16.712645000000002,-67.839189,publico,c.s. con internacion,1,73543126
La Paz,Murillo,Palca,20102,200123,Ovejuyo,rural,0,-16.5343,-68.013,publico,c.s. ambulatorio,1,70664764
La Paz,Murillo,Palca,20102,200124,Palca (Lpz),rural,3,-16.561345000000003,-67.953189,publico,c.s. con internacion,1,72584911
La Paz,Murillo,Palca,20102,200125,Quilihuaya,rural,3,-16.665245000000002,-67.902489,publico,c.s. con internacion,1,73570851
La Paz,Murillo,Palca,20102,200126,Tahuapalca,rural,3,-16.724745000000002,-67.862889,publico,puesto de salud,1,74099141
La Paz,Murillo,Palca,20102,200127,P.S.Hampaturi,rural,0,0.0,0.0,,,,0
La Paz,Murillo,Mecapaca,20103,200128,Collana,rural,0,-16.670645,-67.966389,publico,c.s. ambulatorio,1,65196627
La Paz,Murillo,Mecapaca,20103,200129,Huajchilla,rural,0,-16.629645,-68.052189,publico,c.s. ambulatorio,1,70140822
La Paz,Murillo,Mecapaca,20103,200130,Huaricana,rural,0,-16.728645,-67.963689,publico,c.s. ambulatorio,1,71244281
La Paz,Murillo,Mecapaca,20103,200131,Mecapaca,rural,0,-16.670145,-68.020189,publico,c.s. ambulatorio,1,70138805
La Paz,Murillo,Mecapaca,20103,200132,Palomar,rural,0,-16.697745,-68.007789,publico,c.s. ambulatorio,1,71910191
La Paz,Murillo,Mecapaca,20103,200133,Karacarani,rural,0,-16.811645000000002,-67.928489,publico,c.s. ambulatorio,1,70553061
La Paz,Murillo,Mecapaca,20103,200134,Wilacota,rural,0,-16.776745000000002,-67.896489,publico,c.s. ambulatorio,1,76543939
La Paz,Murillo,Achocalla,20104,200135,Achocalla,rural,3,-16.5727,-68.15899999999999,publico,c.s. con internacion,1,71583377
La Paz,Murillo,Achocalla,20104,200136,Layuri,rural,0,-16.730145,-68.11238900000001,publico,c.s. ambulatorio,1,76502715
La Paz,Murillo,Achocalla,20104,200137,Tuni,rural,0,-16.669645000000003,-68.139089,publico,c.s. con internacion,1,79657757
La Paz,Murillo,El Alto,20105,200138,San Jose De Yunguyo,urbano,0,-16.499543,-68.219739,publico,c.s. ambulatorio,1,71954612
La Paz,Murillo,El Alto,20105,200139,San Martin,urbano,0,-16.564534,-68.224559,publico,c.s. ambulatorio,1,73030661
La Paz,Murillo,El Alto,20105,200140,Villa Exaltacion,urbano,0,-16.536259,-68.15780500000001,publico,c.s. ambulatorio,1,2823535
La Paz,Murillo,El Alto,20105,200141,Asuncion San Pedro,urbano,0,-16.545904999999998,-68.195846,publico,c.s. ambulatorio,1,71542020
La Paz,Murillo,El Alto,20105,200142,Policlinico  El Alto,urbano,0,-16.509347,-68.16397099999999,seguridad social (cajas),policlinico,1,2817481
La Paz,Murillo,El Alto,20105,200143,Hosp. Boliviano Holandes,urbano,155,-16.522464000000003,-68.15357,publico,hospital segundo nivel,2,2810485
La Paz,Murillo,El Alto,20105,200144,12 De Octubre,urbano,0,-16.520397,-68.166189,publico,c.s. ambulatorio,1,77229998
La Paz,Murillo,El Alto,20105,200145,Cosmos 79,urbano,0,-16.540256,-68.23334,publico,c.s. ambulatorio,1,0
La Paz,Murillo,El Alto,20105,200146,Luis Espinal (El Alto),urbano,0,-16.516820000000003,-68.198656,publico,c.s. ambulatorio,1,60666101
La Paz,Murillo,El Alto,20105,200147,Villa Avaroa,urbano,6,-16.529609,-68.18571899999999,publico,c.s. integral,1,0
La Paz,Murillo,El Alto,20105,200148,C.S. Pro Mujer Collpani,urbano,0,-16.526775,-68.218589,organismos no gubernamentales,c.s. ambulatorio,1,60614519
La Paz,Murillo,El Alto,20105,200149,Huayna Potosi,urbano,4,-16.479573000000002,-68.19180300000001,publico,c.s. integral,1,70578984
La Paz,Murillo,El Alto,20105,200150,Calama,urbano,0,-16.522935999999998,-68.19860200000001,publico,c.s. ambulatorio,1,0
La Paz,Murillo,El Alto,20105,200151,Santiago Ii,urbano,0,-16.537226999999998,-68.18235899999999,publico,c.s. ambulatorio,1,70577382
La Paz,Murillo,El Alto,20105,200152,C.S. Buen Samaritano,urbano,0,-16.518979,-68.15888199999999,organismos privados,c.s. ambulatorio,1,79504626
La Paz,Murillo,El Alto,20105,200153,Senkata,urbano,9,-16.585711,-68.186274,publico,hospital segundo nivel,2,76599502
La Paz,Murillo,El Alto,20105,200154,Rosas Pampa,urbano,3,-16.542106,-68.172164,publico,c.s. integral,1,2816082
La Paz,Murillo,El Alto,20105,200155,M. Madre De Dios V. D.,urbano,6,-16.507685000000002,-68.158537,publico,c.s. integral,1,2813638
La Paz,Murillo,El Alto,20105,200156,Brasil,urbano,0,-16.493743,-68.208714,publico,c.s. ambulatorio,1,73701999
La Paz,Murillo,El Alto,20105,200157,Ceja El Alto - Cra,urbano,0,-16.503688,-68.161762,publico,c.s. ambulatorio,1,73084575
La Paz,Murillo,El Alto,20105,200158,Mercedes,urbano,0,-16.567056,-68.20425999999999,publico,c.s. ambulatorio,1,77543343
La Paz,Murillo,El Alto,20105,200159,German Busch,urbano,3,-16.470575,-68.18301899999999,publico,c.s. integral,1,252250
La Paz,Murillo,El Alto,20105,200160,C.S. Pro Mujer Juan Pablo Ii,urbano,0,-16.503120000000003,-68.167369,organismos no gubernamentales,c.s. ambulatorio,1,2840581
La Paz,Murillo,El Alto,20105,200161,Hospital Municipal Boliviano Coreano,urbano,25,-16.546034,-68.200558,publico,hospital segundo nivel,2,0
La Paz,Murillo,El Alto,20105,200162,C.S. Pro Mujer Cascada,urbano,0,-16.55126,-68.206506,organismos no gubernamentales,c.s. ambulatorio,1,0
La Paz,Murillo,El Alto,20105,200163,Clinica Corazon De Jesus,urbano,140,-16.557205,-68.192762,iglesia,hospital general,3,2850909
La Paz,Murillo,El Alto,20105,200164,Lotes Y Servicios,urbano,8,-16.496205,-68.21435600000001,publico,c.s. integral,1,71960238
La Paz,Murillo,El Alto,20105,200165,C.S. San Vicente De Paul,urbano,0,-16.504952,-68.20620500000001,iglesia,c.s. ambulatorio,1,2860851
La Paz,Murillo,El Alto,20105,200166,Villa Adela,urbano,5,-16.522687,-68.21207700000001,publico,c.s. integral,1,0
La Paz,Murillo,El Alto,20105,200167,C.S. Alianza Noruego,urbano,0,-16.495995,-68.212011,organismos privados,c.s. ambulatorio,1,2865202
La Paz,Murillo,El Alto,20105,200168,Villa Ingenio,urbano,0,-16.483323000000002,-68.206257,publico,c.s. ambulatorio,1,2321556
La Paz,Murillo,El Alto,20105,200169,C.S. San Sebastian,urbano,0,-16.518895999999998,-68.208137,iglesia,c.s. ambulatorio,1,72079101
La Paz,Murillo,El Alto,20105,200170,Santiago I,urbano,0,-16.519172,-68.159959,publico,c.s. ambulatorio,1,2824243
La Paz,Murillo,El Alto,20105,200171,1Ro De Mayo,urbano,6,-16.537679999999998,-68.19981700000001,publico,c.s. integral,1,74020586
La Paz,Murillo,El Alto,20105,200172,Nuevos Horizontes,urbano,4,-16.544372,-68.187609,publico,c.s. integral,1,71594488
La Paz,Murillo,El Alto,20105,200173,C.S. Pro Mujer Santiago Ii,urbano,0,-16.53742,-68.178366,organismos no gubernamentales,c.s. ambulatorio,1,60614519
La Paz,Murillo,El Alto,20105,200174,C.S. Promujer Senkata,urbano,0,-16.577917000000003,-68.185141,organismos no gubernamentales,c.s. ambulatorio,1,2114914
La Paz,Murillo,El Alto,20105,200175,Clinica El Alto,urbano,15,0.0,0.0,,,,812115
La Paz,Murillo,El Alto,20105,200176,C.S. Adolfo Kolping,urbano,34,-16.511056,-68.15714,iglesia,c.s. integral,1,74031917
La Paz,Murillo,El Alto,20105,200177,C.S. Bolivar D  Prosalud,urbano,4,0.0,0.0,,,,0
La Paz,Murillo,El Alto,20105,200178,C.S. Fundacion Cerefe,urbano,0,-16.510261,-68.157938,iglesia,c.s. ambulatorio,1,68078131
La Paz,Murillo,El Alto,20105,200179,Clinica Central,urbano,11,0.0,0.0,,,,0
La Paz,Murillo,El Alto,20105,200180,Clinica Agramont,urbano,40,0.0,0.0,,,,0
La Paz,Murillo,El Alto,20105,200181,C.S. Promujer Villa Tejada,urbano,0,-16.515618,-68.154664,organismos no gubernamentales,c.s. ambulatorio,1,73536572
La Paz,Murillo,El Alto,20105,200182,16 De Febrero,urbano,0,-16.501046,-68.228975,publico,c.s. ambulatorio,1,79105864
La Paz,Murillo,El Alto,20105,200183,Atipiris,urbano,0,-16.590137,-68.18101999999999,publico,c.s. ambulatorio,1,67309099
La Paz,Murillo,El Alto,20105,200184,3 De Mayo,urbano,6,-16.550860999999998,-68.21166099999999,publico,c.s. ambulatorio,1,60605030
La Paz,Murillo,El Alto,20105,200185,C.S. Promujer Alto Lima,urbano,0,-16.490745999999998,-68.172714,organismos no gubernamentales,c.s. ambulatorio,1,2844376
La Paz,Murillo,El Alto,20105,200186,San Juan Kenko,urbano,0,-16.566768,-68.193126,publico,c.s. ambulatorio,1,0
La Paz,Murillo,El Alto,20105,200187,C.S. Promujer Panamericana,urbano,0,-16.490686,-68.21112600000001,organismos no gubernamentales,c.s. ambulatorio,1,0
La Paz,Murillo,El Alto,20105,200188,C.S. Promujer Tunari,urbano,0,-16.496188,-68.19011400000001,organismos no gubernamentales,c.s. ambulatorio,1,0
La Paz,Murillo,El Alto,20105,200189,Villa Tunari,urbano,3,-16.495982,-68.193617,publico,c.s. ambulatorio,1,73561090
La Paz,Murillo,El Alto,20105,200190,Clinica  16 De Julio Prosalud,urbano,12,-16.501134,-68.171104,organismos no gubernamentales,c.s. integral,1,2844835
La Paz,Murillo,El Alto,20105,200191,C.S. C.I.E.S.,urbano,8,-16.498692000000002,-68.172413,organismos no gubernamentales,c.s. integral,1,2841241
La Paz,Murillo,El Alto,20105,200192,Clinica Virgen Candelaria,urbano,11,0.0,0.0,,,,840017
La Paz,Murillo,El Alto,20105,200193,C.S. Alto Lima I Prosalud,urbano,7,0.0,0.0,,,,0
La Paz,Murillo,El Alto,20105,200194,C.S. Sta.Maria De Los Angeles,urbano,12,-16.494126,-68.17696,iglesia,c.s. integral,1,2841312
La Paz,Murillo,El Alto,20105,200195,C.S. Fides (L.Espinal),urbano,18,-16.490923000000002,-68.17694,organismos privados,policlinico,1,2840108
La Paz,Murillo,El Alto,20105,200196,C.S. Intervida,urbano,0,0.0,0.0,,,,0
La Paz,Murillo,El Alto,20105,200197,Plan Vivienda Villa Esperanza,urbano,0,-16.489779000000002,-68.197006,publico,c.s. ambulatorio,1,2862686
La Paz,Murillo,El Alto,20105,200198,Hospital Municipal Los Andes,urbano,65,-16.492854,-68.191124,publico,hospital segundo nivel,2,2841516
La Paz,Murillo,El Alto,20105,200199,C.S. Pro Mujer Villa Adela,urbano,0,-16.533549,-68.19212900000001,organismos no gubernamentales,c.s. ambulatorio,1,60614519
La Paz,Murillo,El Alto,20105,200200,Puerto Mejillones,urbano,0,-16.485469000000002,-68.21339300000001,publico,c.s. ambulatorio,1,2320826
La Paz,Murillo,El Alto,20105,200201,C.S. Espiritu Santo - El Alto,urbano,0,-16.482007,-68.219362,iglesia,c.s. ambulatorio,1,0
La Paz,Murillo,El Alto,20105,200202,Clinica San Martin De Porres,urbano,15,-16.497951,-68.174234,organismos privados,policlinico,1,2840456
La Paz,Murillo,El Alto,20105,200203,Alto Lima Iv,urbano,0,-16.460102,-68.16418900000001,publico,c.s. ambulatorio,1,71926505
La Paz,Murillo,El Alto,20105,200204,Alto Lima Iii,urbano,0,-16.483311999999998,-68.182917,publico,c.s. ambulatorio,1,2321973
La Paz,Murillo,El Alto,20105,200205,San Roque (El Alto),urbano,2,-16.475914000000003,-68.271212,publico,c.s. ambulatorio,1,67180682
La Paz,Murillo,El Alto,20105,200206,Villa Cooperativa,urbano,0,-16.473394,-68.22162,publico,c.s. ambulatorio,1,0
La Paz,Murillo,El Alto,20105,200207,Caja Petrolera De El Alto,urbano,0,-16.5113,-68.16648199999999,seguridad social (cajas),policlinico,1,2816291
La Paz,Omasuyos,Achacachi,20201,200208,Hosp. Achacachi,rural,31,-16.042045,-68.687189,publico,hospital segundo nivel,2,79571157
La Paz,Omasuyos,Achacachi,20201,200209,Ajllata Grande,rural,1,-16.022345,-68.791289,publico,c.s. con internacion,1,65170886
La Paz,Omasuyos,Achacachi,20201,200210,Corpaputo,rural,0,-16.072045000000003,-68.559189,publico,c.s. ambulatorio,1,73737746
La Paz,Omasuyos,Achacachi,20201,200211,Huarina,rural,4,-16.191045000000003,-68.602589,publico,c.s. con internacion,1,72086703
La Paz,Omasuyos,Achacachi,20201,200212,Huatajata,rural,4,-16.199245,-68.706689,publico,c.s. con internacion,1,70119770
La Paz,Omasuyos,Achacachi,20201,200213,Janko Amaya,rural,0,-16.168645,-68.819389,publico,c.s. ambulatorio,1,79135338
La Paz,Omasuyos,Achacachi,20201,200214,Kalaque,rural,0,-16.077345,-68.869989,publico,c.s. ambulatorio,1,60102358
La Paz,Omasuyos,Achacachi,20201,200215,Stgo.De Huata,rural,1,-16.056745000000003,-68.817489,publico,c.s. con internacion,1,69819068
La Paz,Omasuyos,Achacachi,20201,200216,Tacamara,rural,0,-16.008845,-68.603289,publico,c.s. con internacion,1,70542620
La Paz,Omasuyos,Achacachi,20201,200217,Tola Tola,rural,0,-16.106245,-68.709889,publico,c.s. ambulatorio,1,74096019
La Paz,Omasuyos,Achacachi,20201,200218,Umacha (Franz Tamayo),rural,0,-15.926145000000002,-68.742389,publico,c.s. con internacion,1,72563014
La Paz,Omasuyos,Achacachi,20201,200219,Villa Carmen Lipe,rural,0,-16.047845000000002,-68.756489,publico,c.s. ambulatorio,1,67326840
La Paz,Omasuyos,Achacachi,20201,200220,Walata Grande,rural,0,-15.924945000000001,-68.669889,publico,c.s. ambulatorio,1,74050681
La Paz,Omasuyos,Achacachi,20201,200221,Warizata,rural,2,-15.970345000000002,-68.663189,publico,c.s. con internacion,1,73704592
La Paz,Omasuyos,Achacachi,20201,200222,Frasquia,rural,0,-15.980345000000002,-68.588489,publico,c.s. ambulatorio,1,60602517
La Paz,Omasuyos,Achacachi,20201,200223,Coromata Baja,rural,0,-16.154045,-68.554489,publico,c.s. ambulatorio,1,74011284
La Paz,Omasuyos,Ancoraimes,20202,200224,Ancoraimes,rural,5,-15.896945,-68.906289,publico,c.s. con internacion,1,72566713
La Paz,Omasuyos,Ancoraimes,20202,200225,Cajiata,rural,0,-15.911045000000001,-68.860089,publico,c.s. ambulatorio,1,67141340
La Paz,Omasuyos,Ancoraimes,20202,200226,Chejepampa,rural,0,-15.890745,-68.815689,publico,c.s. con internacion,1,70165651
La Paz,Omasuyos,Ancoraimes,20202,200227,Inca Katurapi,rural,0,-15.807345000000002,-68.819789,publico,c.s. ambulatorio,1,71985973
La Paz,Omasuyos,Ancoraimes,20202,200228,C. S. Pocoata,rural,0,-15.936245000000001,-68.79688900000001,publico,c.s. ambulatorio,1,67002659
La Paz,Omasuyos,Ancoraimes,20202,200229,Villa Maca Maca,rural,0,-15.833145000000002,-68.940089,publico,c.s. ambulatorio,1,67313187
La Paz,Pacajes,Coro Coro,20301,200230,Corocoro,rural,7,-17.176445,-68.451789,publico,c.s. integral,1,73208161
La Paz,Pacajes,Coro Coro,20301,200231,General Pando,rural,0,-17.211545,-68.489389,publico,c.s. ambulatorio,1,71512237
La Paz,Pacajes,Coro Coro,20301,200232,Quilloma,rural,0,-17.236745000000003,-68.137389,publico,c.s. ambulatorio,1,76209389
La Paz,Pacajes,Coro Coro,20301,200233,Carlos Palenque A. (Tohopoco),rural,2,-17.172105,-68.24045100000001,publico,c.s. con internacion,1,72585109
La Paz,Pacajes,Coro Coro,20301,200234,Rosapata Huancarama,rural,0,-17.211645,-68.573189,publico,puesto de salud,1,71564897
La Paz,Pacajes,Coro Coro,20301,200235,Murupilar,rural,0,-17.082845000000002,-68.500389,publico,c.s. ambulatorio,1,71512131
La Paz,Pacajes,Caquiaviri,20302,200236,Achiri,rural,2,-17.213845000000003,-69.000189,publico,c.s. con internacion,1,71913701
La Paz,Pacajes,Caquiaviri,20302,200237,Antaquira,rural,0,-17.086645,-68.667889,publico,c.s. ambulatorio,1,74016333
La Paz,Pacajes,Caquiaviri,20302,200238,Caquiaviri,rural,1,-17.021945000000002,-68.604089,publico,c.s. con internacion,1,74014634
La Paz,Pacajes,Caquiaviri,20302,200239,Kasillunca,rural,0,-17.037745,-68.753289,publico,puesto de salud,1,71518306
La Paz,Pacajes,Caquiaviri,20302,200240,Kalla Llallagua,rural,0,-17.216145,-68.869389,publico,puesto de salud,1,73084186
La Paz,Pacajes,Caquiaviri,20302,200241,Jihuacuta,rural,0,-16.856345,-68.667489,publico,c.s. ambulatorio,1,72524211
La Paz,Pacajes,Calacoto,20303,200242,Calacoto,rural,2,-17.282345,-68.632889,publico,c.s. con internacion,1,72594311
La Paz,Pacajes,Calacoto,20303,200243,Condoriquina,rural,0,-17.420445,-69.023689,publico,puesto de salud,1,73712897
La Paz,Pacajes,Calacoto,20303,200244,Gral.Campero,rural,0,-17.469445,-68.914389,publico,c.s. ambulatorio,1,71518306
La Paz,Pacajes,Calacoto,20303,200245,Janko Marca Pacajes,rural,0,-17.296545000000002,-68.913089,publico,puesto de salud,1,76214586
La Paz,Pacajes,Calacoto,20303,200246,Okoruro,rural,0,-17.869745,-68.752489,publico,c.s. ambulatorio,1,67013750
La Paz,Pacajes,Calacoto,20303,200247,Tarquiamaya,rural,0,-17.484845,-68.591089,publico,puesto de salud,1,73058379
La Paz,Pacajes,Calacoto,20303,200248,Ulloma Lerco,rural,0,-17.490545,-68.488089,publico,c.s. ambulatorio,1,0
La Paz,Pacajes,Comanche,20304,200249,Comanche,rural,1,-16.955445,-68.427789,publico,c.s. con internacion,1,71578655
La Paz,Pacajes,Comanche,20304,200250,Rosapata Tuli,rural,0,-16.934845000000003,-68.542489,publico,c.s. ambulatorio,1,72038606
La Paz,Pacajes,Comanche,20304,200251,Cantuyo,rural,0,-16.842145000000002,-68.499989,publico,puesto de salud,1,72577199
La Paz,Pacajes,Charaña,20305,200252,Charana,rural,2,-17.594945000000003,-69.441989,publico,c.s. con internacion,1,77771382
La Paz,Pacajes,Charaña,20305,200253,Sepulturas,rural,0,-17.943445,-69.155789,publico,c.s. ambulatorio,1,71267454
La Paz,Pacajes,Waldo Ballivián,20306,200254,Tumarapi,rural,2,-17.080645,-68.183689,publico,c.s. con internacion,1,0
La Paz,Pacajes,Nazacara de Pacajes,20307,200255,Nazacara,rural,0,-16.937545,-68.76455,publico,c.s. ambulatorio,1,71990177
La Paz,Pacajes,Santiago de Callapa,20308,200256,Centro De Salud Callapa,rural,1,-17.477745000000002,-68.352289,publico,c.s. con internacion,1,73278646
La Paz,Pacajes,Santiago de Callapa,20308,200257,Villa Puchuni,rural,0,-17.283045,-68.313789,publico,c.s. ambulatorio,1,73513173
La Paz,Pacajes,Santiago de Callapa,20308,200258,Calteca,rural,0,-17.361645000000003,-68.184489,publico,puesto de salud,1,67924907
La Paz,Pacajes,Santiago de Callapa,20308,200259,Canuta,rural,0,-17.420845,-68.475089,publico,puesto de salud,1,71211474
La Paz,Camacho,Puerto Acosta,20401,200260,Challapata,rural,0,-15.709145000000001,-69.147389,publico,c.s. ambulatorio,1,73256262
La Paz,Camacho,Puerto Acosta,20401,200261,Chinaya,rural,0,-15.542445,-69.124889,publico,c.s. ambulatorio,1,71985233
La Paz,Camacho,Puerto Acosta,20401,200262,Hospital Escoma,rural,12,-15.662145,-69.12908900000001,publico,hospital segundo nivel,2,72576095
La Paz,Camacho,Puerto Acosta,20401,200263,Humanata,rural,2,-15.468245000000001,-69.130989,publico,c.s. con internacion,1,73011154
La Paz,Camacho,Puerto Acosta,20401,200264,Iquipuni,rural,0,-15.649945,-69.18988900000001,publico,c.s. ambulatorio,1,72097103
La Paz,Camacho,Puerto Acosta,20401,200265,Pacolla,rural,0,-15.419410000000001,-69.198678,publico,puesto de salud,1,71254917
La Paz,Camacho,Puerto Acosta,20401,200266,Pasuja Belen,rural,0,-15.596045000000002,-69.277589,publico,puesto de salud,1,67308570
La Paz,Camacho,Puerto Acosta,20401,200267,Puerto Acosta,rural,2,-15.535445000000001,-69.253389,publico,c.s. integral,1,78960349
La Paz,Camacho,Puerto Acosta,20401,200268,Sallacucho,rural,0,-15.518645000000001,-69.158289,publico,c.s. ambulatorio,1,73710094
La Paz,Camacho,Mocomoco,20402,200269,Ilave,rural,0,-15.364345000000002,-69.014489,publico,puesto de salud,1,71562983
La Paz,Camacho,Mocomoco,20402,200270,Italaque,rural,0,-15.476745000000001,-69.044389,publico,c.s. ambulatorio,1,71563166
La Paz,Camacho,Mocomoco,20402,200271,Moco Moco,rural,2,-15.452445,-68.99808900000001,publico,c.s. con internacion,1,71554719
La Paz,Camacho,Mocomoco,20402,200272,Pacaures,rural,1,-15.587672,-69.063563,publico,c.s. con internacion,1,71256312
La Paz,Camacho,Mocomoco,20402,200273,Queni,rural,0,-15.438845,-68.973189,publico,puesto de salud,1,71562321
La Paz,Camacho,Mocomoco,20402,200274,Quilimas,rural,0,-15.645245000000001,-69.046389,publico,puesto de salud,1,71557416
La Paz,Camacho,Mocomoco,20402,200275,Saphia,rural,0,-15.520345,-69.030989,publico,c.s. ambulatorio,1,71567259
La Paz,Camacho,Mocomoco,20402,200276,Tajani,rural,0,-15.618245000000002,-69.066689,publico,c.s. ambulatorio,1,71561932
La Paz,Camacho,Mocomoco,20402,200277,Wila Kala,rural,3,-15.358045,-69.04518900000001,publico,c.s. con internacion,1,71516818
La Paz,Camacho,Puerto Carabuco,20403,200278,Aguas Calientes,rural,0,-15.786945000000001,-68.972989,publico,c.s. ambulatorio,1,73570967
La Paz,Camacho,Puerto Carabuco,20403,200279,Ambana,rural,1,-15.590445,-68.99338900000001,publico,c.s. con internacion,1,71256710
La Paz,Camacho,Puerto Carabuco,20403,200280,Carabuco,rural,1,-15.757945000000001,-69.063689,publico,c.s. con internacion,1,74012559
La Paz,Camacho,Puerto Carabuco,20403,200281,Copusquia,rural,0,-15.676379,-68.93749,publico,puesto de salud,1,67168897
La Paz,Camacho,Puerto Carabuco,20403,200282,Mollipongo,rural,0,-15.677345,-69.013289,publico,puesto de salud,1,74051197
La Paz,Camacho,Puerto Carabuco,20403,200283,Chaguaya,rural,1,-15.795645,-69.033289,publico,c.s. con internacion,1,72073557
La Paz,Camacho,Puerto Carabuco,20403,200284,Santiago De Okola,rural,0,-15.857245,-68.983189,publico,c.s. ambulatorio,1,73257079
La Paz,Camacho,Puerto Carabuco,20403,200285,Yaricoa,rural,0,-15.688645000000001,-69.097589,publico,puesto de salud,1,73575193
La Paz,Camacho,Puerto Carabuco,20403,200286,Huilacunca,rural,0,-15.557652,-68.944686,publico,puesto de salud,1,74036077
La Paz,Muñecas,Chuma,20501,200287,Chuma,rural,1,-15.480245000000002,-68.899789,publico,c.s. con internacion,1,73261466
La Paz,Muñecas,Chuma,20501,200288,Jichuhuaya,rural,0,-15.679845000000002,-68.839889,publico,c.s. ambulatorio,1,71571805
La Paz,Muñecas,Chuma,20501,200289,Sococoni,rural,1,-15.695745,-68.876689,publico,c.s. con internacion,1,68002006
La Paz,Muñecas,Chuma,20501,200290,Timusi,rural,0,-15.667745000000002,-68.859689,publico,c.s. ambulatorio,1,73236722
La Paz,Muñecas,Chuma,20501,200291,C.S.Titicachi,rural,2,-15.501603,-68.824347,iglesia,c.s. con internacion,1,71910775
La Paz,Muñecas,Chuma,20501,200292,Chajlaya,rural,0,-15.681745000000001,-68.903989,publico,c.s. ambulatorio,1,74867794
La Paz,Muñecas,Ayata,20502,200293,Ayata,rural,4,-15.459845999999999,-68.83579,publico,c.s. integral,1,71214933
La Paz,Muñecas,Ayata,20502,200294,Mollo,rural,0,-15.510173000000002,-68.80283399999999,publico,c.s. ambulatorio,1,71217529
La Paz,Muñecas,Ayata,20502,200295,Sayhuani,rural,1,-15.322845000000001,-68.753189,publico,c.s. con internacion,1,67111093
La Paz,Muñecas,Ayata,20502,200296,Camata,rural,4,-15.240245000000002,-68.748589,publico,c.s. con internacion,1,73011588
La Paz,Muñecas,Ayata,20502,200297,Cuibaja,rural,0,-15.378145000000002,-68.759889,publico,puesto de salud,1,74040235
La Paz,Muñecas,Aucapata,20503,200298,Aucapata,rural,0,-15.472345,-68.690889,publico,puesto de salud,1,73091805
La Paz,Muñecas,Aucapata,20503,200299,Huanco,rural,0,-15.408045000000001,-68.685289,publico,c.s. ambulatorio,1,67050786
La Paz,Muñecas,Aucapata,20503,200300,Memeconi,rural,0,-15.442845000000002,-68.605289,publico,c.s. ambulatorio,1,73091780
La Paz,Muñecas,Aucapata,20503,200301,Yanahuaya,rural,1,-15.453745000000001,-68.698589,publico,c.s. con internacion,1,68108155
La Paz,Larecaja,Sorata,20601,200302,Chuchulaya,rural,6,-15.716445000000002,-68.732989,publico,c.s. con internacion,1,73087913
La Paz,Larecaja,Sorata,20601,200303,Chussi,rural,0,-15.627345000000002,-68.232089,publico,puesto de salud,1,0
La Paz,Larecaja,Sorata,20601,200304,Ilabaya(Chejje),rural,0,-15.807845,-68.656189,publico,puesto de salud,1,0
La Paz,Larecaja,Sorata,20601,200305,Laripata,rural,0,-15.751145000000001,-68.673389,publico,c.s. ambulatorio,1,71581864
La Paz,Larecaja,Sorata,20601,200306,Millipaya,rural,0,-15.871145,-68.621189,publico,c.s. ambulatorio,1,71934565
La Paz,Larecaja,Sorata,20601,200307,Sorata,rural,6,-15.772945000000002,-68.65008900000001,publico,c.s. integral,1,73525447
La Paz,Larecaja,Sorata,20601,200308,Obispo Bosque,rural,0,-15.708245000000002,-68.697289,publico,c.s. ambulatorio,1,77740802
La Paz,Larecaja,Sorata,20601,200309,Yani,rural,0,-15.634345000000001,-68.538389,publico,c.s. ambulatorio,1,73575934
La Paz,Larecaja,Sorata,20601,200310,Ancoma,rural,0,-15.732145000000001,-68.469589,publico,puesto de salud,1,71920354
La Paz,Larecaja,Teoponte,20608,200311,Alto Tomachi,rural,0,-15.478445,-67.741989,publico,puesto de salud,1,0
La Paz,Larecaja,Guanay,20602,200312,Amaguaya,rural,0,-15.986545000000001,-68.290789,publico,c.s. con internacion,1,73205435
La Paz,Larecaja,Guanay,20602,200313,Ambulatrio Carura,rural,0,-15.426845000000002,-67.964489,publico,puesto de salud,1,72065262
La Paz,Larecaja,Mapiri,20607,200314,Chimate,rural,0,-15.398845000000001,-68.158589,publico,c.s. ambulatorio,1,67022471
La Paz,Larecaja,Guanay,20602,200315,Guanay,rural,10,-15.497445,-67.880889,publico,c.s. integral,1,72582163
La Paz,Larecaja,Mapiri,20607,200316,Mapiri,rural,4,-15.311445,-68.227789,publico,c.s. con internacion,1,67011346
La Paz,Larecaja,Teoponte,20608,200317,Mayaya,rural,2,-15.411345,-67.610389,publico,c.s. con internacion,1,74034061
La Paz,Larecaja,Mapiri,20607,200318,Santa Rosa,rural,4,-15.322745000000001,-68.325789,publico,c.s. con internacion,1,73287079
La Paz,Larecaja,Teoponte,20608,200319,Santo Domingo,rural,0,-15.672345000000002,-67.649789,publico,c.s. ambulatorio,1,73021938
La Paz,Larecaja,Teoponte,20608,200320,Tajlihui,rural,0,-15.684245,-67.690689,publico,puesto de salud,1,0
La Paz,Larecaja,Guanay,20602,200321,Taniplaya,rural,0,-15.365245000000002,-67.890689,publico,puesto de salud,1,73224268
La Paz,Larecaja,Teoponte,20608,200322,Teoponte,rural,4,-15.495445000000002,-67.819089,publico,c.s. integral,1,72582163
La Paz,Larecaja,Guanay,20602,200323,Villa Florida,rural,0,-15.656145,-67.728689,publico,c.s. ambulatorio,1,74039674
La Paz,Larecaja,Mapiri,20607,200324,Achiquiri,rural,0,-15.244645000000002,-68.210889,publico,puesto de salud,1,0
La Paz,Larecaja,Tacacoma,20603,200325,Conzata,rural,1,-15.380345000000002,-68.51008900000001,publico,c.s. con internacion,1,73595040
La Paz,Larecaja,Tacacoma,20603,200326,Tacacoma,rural,9,-15.589045,-68.646389,publico,c.s. con internacion,1,71273206
La Paz,Larecaja,Quiabaya,20604,200327,Quiabaya,rural,2,-15.635245000000001,-68.704089,publico,c.s. con internacion,1,72542044
La Paz,Larecaja,Combaya,20605,200328,Combaya,rural,0,-15.805345,-68.755289,publico,c.s. con internacion,1,74085909
La Paz,Larecaja,Combaya,20605,200329,Sorejaya,rural,0,-15.827645,-68.763389,publico,c.s. ambulatorio,1,73704592
La Paz,Larecaja,Tipuani,20606,200330,Chima,rural,2,-15.580345000000001,-68.063089,publico,c.s. con internacion,1,67063628
La Paz,Larecaja,Tipuani,20606,200331,C.S. Chuquini,rural,0,0.0,0.0,,,,0
La Paz,Larecaja,Tipuani,20606,200332,Tipuani,rural,6,-15.565245,-68.021389,publico,c.s. integral,1,77798056
La Paz,Larecaja,Tipuani,20606,200333,Unutuluni,rural,2,-15.595245000000002,-68.104489,publico,c.s. con internacion,1,73733987
La Paz,Franz Tamayo,Apolo,20701,200334,Apolo,rural,12,-14.718145000000002,-68.417389,publico,c.s. integral,1,68172720
La Paz,Franz Tamayo,Apolo,20701,200335,Aten,rural,0,-14.941145,-68.323289,publico,c.s. ambulatorio,1,73726836
La Paz,Franz Tamayo,Apolo,20701,200336,Puchahui,rural,0,-14.867145,-68.435889,publico,c.s. ambulatorio,1,68062530
La Paz,Franz Tamayo,Apolo,20701,200337,S.Cruz Valle Ameno,rural,2,-14.640645000000001,-68.530689,publico,c.s. con internacion,1,78826755
La Paz,Franz Tamayo,Apolo,20701,200338,Siphia,rural,0,-14.459145000000001,-68.373689,publico,c.s. ambulatorio,1,68065945
La Paz,Franz Tamayo,Pelechuco,20702,200339,Antaquilla,rural,0,-14.880445000000002,-69.269289,publico,c.s. ambulatorio,1,71570798
La Paz,Franz Tamayo,Pelechuco,20702,200340,Pelechuco,rural,2,-14.799645000000002,-69.063789,publico,c.s. con internacion,1,73267288
La Paz,Franz Tamayo,Pelechuco,20702,200341,Suchez,rural,0,-14.796192000000001,-69.271867,publico,c.s. ambulatorio,1,67145235
La Paz,Franz Tamayo,Pelechuco,20702,200342,Hilo Hilo,rural,0,-14.924745000000001,-69.057889,publico,c.s. ambulatorio,1,67071497
La Paz,Franz Tamayo,Pelechuco,20702,200343,Ulla Ulla,rural,12,-15.044345000000002,-69.253489,publico,c.s. con internacion,1,67144760
La Paz,Ingavi,Viacha,20801,200344,Chacoma - Viacha,rural,0,-16.815745,-68.314989,publico,c.s. ambulatorio,1,73227628
La Paz,Ingavi,Jesús de Machaca,20806,200345,Chama,rural,4,-16.796045,-68.579189,publico,c.s. con internacion,1,73513027
La Paz,Ingavi,Viacha,20801,200346,Collagua,rural,0,-16.702345,-68.416689,publico,c.s. ambulatorio,1,73531490
La Paz,Ingavi,San Andrés de Machaca,20805,200347,Conchacollo,rural,0,-16.733645000000003,-68.99808900000001,publico,c.s. ambulatorio,1,67079730
La Paz,Ingavi,Viacha,20801,200348,Coniri,rural,0,-16.771645,-68.409289,publico,c.s. ambulatorio,1,67040377
La Paz,Ingavi,Jesús de Machaca,20806,200349,Corpa,rural,9,-16.673045000000002,-68.894989,publico,c.s. integral,1,7126214
La Paz,Ingavi,Viacha,20801,200350,Hilata Centro,rural,0,-16.684045,-68.375189,publico,c.s. ambulatorio,1,67147433
La Paz,Ingavi,Viacha,20801,200351,Jalsuri,rural,0,-16.757245,-68.241089,publico,c.s. ambulatorio,1,65129632
La Paz,Ingavi,Jesús de Machaca,20806,200352,Jesus De Machaca,rural,3,-16.744545000000002,-68.807989,publico,c.s. con internacion,1,73544992
La Paz,Ingavi,San Andrés de Machaca,20805,200353,Laquinamaya,rural,0,-16.949845,-69.192489,publico,c.s. ambulatorio,1,67150584
La Paz,Ingavi,San Andrés de Machaca,20805,200354,San Andres De Machaca,rural,2,-16.953345000000002,-68.968589,publico,c.s. con internacion,1,71935143
La Paz,Ingavi,Jesús de Machaca,20806,200355,Santo Domingo,rural,0,-16.848145000000002,-68.63938900000001,publico,c.s. ambulatorio,1,72555362
La Paz,Ingavi,Jesús de Machaca,20806,200356,Sullcatiti Khonkho,rural,4,-16.775845,-68.701589,publico,c.s. con internacion,1,72003740
La Paz,Ingavi,Viacha,20801,200357,Florida,rural,0,-16.591645,-68.248989,publico,c.s. con internacion,1,65690123
La Paz,Ingavi,Viacha,20801,200358,C.S .Viacha,rural,0,-16.651324,-68.299882,publico,c.s. ambulatorio,1,71223023
La Paz,Ingavi,Viacha,20801,200359,C.S. Misiones Mundiales,rural,0,0.0,0.0,,,,70578435
La Paz,Ingavi,San Andrés de Machaca,20805,200360,Villa Pusuma,rural,0,-16.825545,-69.164289,publico,c.s. ambulatorio,1,73048859
La Paz,Ingavi,Viacha,20801,200361,Villa Remedios,rural,0,-16.773045,-68.174389,publico,c.s. con internacion,1,73242000
La Paz,Ingavi,Viacha,20801,200362,Policlinico Viacha,rural,0,0.0,0.0,,,,70582838
La Paz,Ingavi,Guaqui,20802,200363,Andamarca,rural,0,-16.595645,-68.742789,publico,c.s. ambulatorio,1,76566725
La Paz,Ingavi,Guaqui,20802,200364,Copajira,rural,0,-16.613445000000002,-68.787289,publico,c.s. ambulatorio,1,68115361
La Paz,Ingavi,Guaqui,20802,200365,Guaqui,rural,2,-16.597845,-68.837489,publico,c.s. integral,1,65620768
La Paz,Ingavi,Guaqui,20802,200366,Kassa Sta. Rosa,rural,0,-16.601245000000002,-68.906989,publico,c.s. ambulatorio,1,73279998
La Paz,Ingavi,Tiahuanacu,20803,200367,Achaca,rural,0,-16.596445000000003,-68.664289,publico,c.s. ambulatorio,1,73270038
La Paz,Ingavi,Tiahuanacu,20803,200368,Caluyo,rural,0,-16.606345,-68.620589,publico,c.s. ambulatorio,1,73553371
La Paz,Ingavi,Tiahuanacu,20803,200369,Huacullani,rural,0,-16.442045,-68.743689,publico,c.s. con internacion,1,70615662
La Paz,Ingavi,Tiahuanacu,20803,200370,Chiripa,rural,0,-16.436220000000002,-68.83086,publico,c.s. ambulatorio,1,68021189
La Paz,Ingavi,Taraco,20807,200371,Nachoca,rural,0,-16.439745000000002,-68.894889,publico,c.s. ambulatorio,1,72092797
La Paz,Ingavi,Tiahuanacu,20803,200372,Pillapi,rural,0,-16.505145000000002,-68.767089,publico,c.s. ambulatorio,1,71576089
La Paz,Ingavi,Taraco,20807,200373,Taraco,rural,1,-16.456945,-68.859489,publico,c.s. con internacion,1,71268342
La Paz,Ingavi,Tiahuanacu,20803,200374,Tiahuanacu,rural,5,-16.552645000000002,-68.681289,publico,c.s. integral,1,71932075
La Paz,Ingavi,Tiahuanacu,20803,200375,C.S. Intervida-R,rural,0,0.0,0.0,,,,0
La Paz,Ingavi,Desaguadero,20804,200376,Desaguadero,rural,3,-16.567145,-69.033789,publico,c.s. integral,1,71294417
La Paz,Ingavi,Desaguadero,20804,200377,San Juan De Huancollo,rural,0,-16.594245,-68.951789,publico,c.s. ambulatorio,1,72016365
La Paz,Loayza,Luribay,20901,200378,P.S. Anchallani,rural,0,-17.134445,-67.685389,iglesia,puesto de salud,1,67001718
La Paz,Loayza,Luribay,20901,200379,Luribay,rural,4,-17.061945,-67.661589,publico,c.s. con internacion,1,67083787
La Paz,Loayza,Luribay,20901,200380,Azambo,rural,2,-17.005145000000002,-67.63378900000001,publico,c.s. con internacion,1,71245952
